[
  {
    "address": "9929 60 Ave NW, Edmonton, AB T6E 0C7, Canada",
    "avatar": true,
    "banner": true,
    "city": "Edmonton",
    "description": "Edmonton‚Äôs original craft brewery since 1995 | Celebrating 25 years of making Great Brews, From Scratch. | Home of the #Aprikat",
    "lat": 53.49527819999999,
    "lng": -113.4881218,
    "name": "Alley Kat Brewing Company",
    "postal": "T6E 0C7",
    "rating": 4.3,
    "ratings": 127,
    "status": "OPERATIONAL",
    "tel": "(780) 436-8922",
    "twitter": "alley_kat_beer",
    "website": "http://www.alleykatbeer.com/"
  },
  {
    "address": "552 18 St SW #102, Medicine Hat, AB T1A 8A7, Canada",
    "avatar": true,
    "banner": true,
    "city": "Medicine Hat",
    "description": "Medicine Hat's local craft brewery and taproom. Serving pints and filling growlers since August 2016. #hellofabeer",
    "lat": 50.0217584,
    "lng": -110.6981729,
    "name": "Hell's Basement Brewery Inc.",
    "postal": "T1A 8A7",
    "rating": 4.8,
    "ratings": 100,
    "status": "OPERATIONAL",
    "tel": "(403) 487-0489",
    "twitter": "HellsBasementMH",
    "website": "http://www.hellsbasement.com/"
  },
  {
    "address": "5551 45 St, Red Deer, AB T4N 1L2, Canada",
    "avatar": true,
    "banner": true,
    "city": "Red Deer",
    "description": "Creating award winning craft beer, and flavourful craft sodas and spirits in Red Deer, Alberta.",
    "lat": 52.2646963,
    "lng": -113.8263956,
    "name": "Troubled Monk",
    "postal": "T4N 1L2",
    "rating": 4.8,
    "ratings": 347,
    "status": "OPERATIONAL",
    "tel": "(403) 348-2378",
    "twitter": "TroubledMonk",
    "website": "http://www.troubledmonk.com/"
  },
  {
    "address": "4924 51 St, Edgerton, AB T0B 1K0, Canada",
    "avatar": true,
    "banner": true,
    "city": "Edgerton",
    "description": "An award-winning brewery located in small town Alberta. Small town living. Small batch brewing.",
    "lat": 52.7598998,
    "lng": -110.4620513,
    "name": "Ribstone Creek",
    "postal": "T0B 1K0",
    "rating": 4.5,
    "ratings": 28,
    "status": "OPERATIONAL",
    "tel": "(780) 755-3008",
    "twitter": "RibstoneCreek",
    "website": "http://ribstonecreekbrewery.ca/"
  },
  {
    "address": "Bay F - 3413 53 Ave, Lacombe, AB T4L 0C6, Canada",
    "avatar": true,
    "banner": true,
    "city": "Lacombe",
    "description": "The place to find all the happenings here at our taproom. From casks, tours, hours, test batches, new merch, events, and more!",
    "lat": 52.466838,
    "lng": -113.7045,
    "name": "Blindman Brewing",
    "postal": "T4L 0C6",
    "rating": 4.9,
    "ratings": 258,
    "status": "OPERATIONAL",
    "tel": "(403) 786-2337",
    "twitter": "blindmantaproom",
    "website": "http://www.blindmanbrewing.com/"
  },
  {
    "address": "4601 46 St, Olds, AB T4H 1X6, Canada",
    "avatar": true,
    "banner": true,
    "city": "Olds",
    "description": "Western Canada's Teaching Brewery. Retail store open Tuesday-Saturday 12-6. \n@oldscollege #OldsCollege",
    "lat": 51.794125,
    "lng": -114.0952381,
    "name": "Olds College Brewery",
    "postal": "T4H 1X6",
    "rating": 4.7,
    "ratings": 23,
    "status": "OPERATIONAL",
    "tel": "(403) 556-8293",
    "twitter": "OCBrewmaster",
    "website": "http://ocbeer.ca/"
  },
  {
    "address": "100, 9024 90 Ave, Lac la Biche, AB T0A 2C0, Canada",
    "avatar": true,
    "banner": false,
    "city": "Lac la Biche",
    "description": "",
    "lat": 54.7651202,
    "lng": -111.9556032,
    "name": "Fat Unicorn Brewery",
    "postal": "T0A 2C0",
    "rating": 5,
    "ratings": 2,
    "status": "OPERATIONAL",
    "tel": "(825) 837-2014",
    "twitter": "FUBrewery",
    "website": "http://www.fubrew.com/"
  },
  {
    "address": "53527 Range Rd 181A, Yellowhead County, AB T7E 3T7, Canada",
    "avatar": true,
    "banner": true,
    "city": null,
    "description": "Born in the headwaters of Bench Creek in Yellowhead County, Alberta. #WhiteRaven #DeadWoodsman Must be of legal drinking age.",
    "lat": 53.626295,
    "lng": -116.534141,
    "name": "Apex Predator Brewing",
    "postal": "T7E 3T7",
    "rating": 4.8,
    "ratings": 54,
    "status": "OPERATIONAL",
    "tel": "(780) 517-7008",
    "twitter": "apexpredator",
    "website": "http://www.apexpredatorbrewing.com/"
  },
  {
    "address": "6610 71 St #5, Red Deer, AB T4P 3Y7, Canada",
    "avatar": false,
    "banner": false,
    "city": "Red Deer",
    "lat": 52.296267,
    "lng": -113.844233,
    "name": "Something Brewing",
    "postal": "T4P 3Y7",
    "rating": 4.6,
    "ratings": 8,
    "status": "OPERATIONAL",
    "tel": "(403) 803-9543",
    "website": "http://www.somethingbeer.com/"
  },
  {
    "address": "6610 71 St, Red Deer, AB T4P 3Y7, Canada",
    "avatar": true,
    "banner": false,
    "city": "Red Deer",
    "description": "Drummond Brewing Company is a Canadian company located in Red Deer, Alberta. Our mission is to provide customers with premium beverages at a reasonable cost.",
    "lat": 52.2963142,
    "lng": -113.8444214,
    "name": "Drummond Brewing Company",
    "postal": "T4P 3Y7",
    "rating": 4.3,
    "ratings": 53,
    "status": "OPERATIONAL",
    "tel": "(403) 346-1146",
    "twitter": "DrummondBrewing",
    "website": "https://www.facebook.com/pages/Drummond-Brewery/139869469397743"
  },
  {
    "address": "7930 51 St SE, Calgary, AB T2C 4R2, Canada",
    "avatar": false,
    "banner": false,
    "city": "Calgary",
    "lat": 50.9816865,
    "lng": -113.959561,
    "name": "Boiling Oar Brewing Company",
    "postal": "T2C 4R2",
    "rating": 4.7,
    "ratings": 3,
    "status": "OPERATIONAL",
    "tel": "(403) 903-5003",
    "website": "http://www.boilingoar.com/"
  },
  {
    "address": "8812 111A St, Grande Prairie, AB T8V 5L3, Canada",
    "avatar": true,
    "banner": true,
    "city": "Grande Prairie",
    "description": "Located in central Grande Prairie, GP Brewing Co. operates as both a full service microbrewery and tasting room, serving beer markets across Western Canada.",
    "lat": 55.1601547,
    "lng": -118.8324856,
    "name": "GP Brewing Co.",
    "postal": "T8V 5L3",
    "rating": 3.5,
    "ratings": 30,
    "status": "OPERATIONAL",
    "tel": "(780) 533-4677",
    "twitter": "gpbrewingco",
    "website": "http://www.gpbrewingco.com/"
  },
  {
    "address": "250 Caribou Trail SW, Slave Lake, AB T0G 2A0, Canada",
    "avatar": true,
    "banner": true,
    "city": "Slave Lake",
    "description": "Dog Island Brewing. The True North Brewing Experience.\nLocated in Slave Lake, AB.  \n#CraftTheNorth \n#SlaveToTheBrew",
    "lat": 55.28327239999999,
    "lng": -114.7933324,
    "name": "Dog Island Brewing",
    "postal": "T0G 2A0",
    "rating": 4.9,
    "ratings": 25,
    "status": "OPERATIONAL",
    "tel": "(780) 666-4777",
    "twitter": "DogIslandBeer",
    "website": "https://dogislandbrewing.com/"
  },
  {
    "address": "624 Connaught Dr, Jasper, AB T0E 1E0, Canada",
    "avatar": true,
    "banner": true,
    "city": "Jasper",
    "description": "Creating community-focused beer culture since 2005.",
    "lat": 52.87460919999999,
    "lng": -118.0810811,
    "name": "Jasper Brewing Company",
    "postal": "T0E 1E0",
    "rating": 4.2,
    "ratings": 762,
    "status": "OPERATIONAL",
    "tel": "(780) 852-4111",
    "twitter": "JasperBrewing",
    "website": "http://jasperbrewingco.ca/"
  },
  {
    "address": "519 34 Ave SE #119, Calgary, AB T2G 1V1, Canada",
    "avatar": true,
    "banner": true,
    "city": "Calgary",
    "description": "üèî Crafted for Adventure üç∫ Taproom is currently closed order product on our website for at home delivery üìß information@bandedpeakbrewing.com",
    "lat": 51.0228213,
    "lng": -114.0515215,
    "name": "Banded Peak Brewing",
    "postal": "T2G 1V1",
    "rating": 4.7,
    "ratings": 219,
    "status": "OPERATIONAL",
    "tel": "(403) 283-5133",
    "twitter": "BandedPeak_Brew",
    "website": "http://www.bandedpeakbrewing.com/"
  },
  {
    "address": "11707 97 Ave Unit 101, Grande Prairie, AB T8W 0M1, Canada",
    "avatar": true,
    "banner": false,
    "city": "Grande Prairie",
    "description": "We make beer and bold accusations",
    "lat": 55.1669852,
    "lng": -118.8511041,
    "name": "Grain Bin Brewing Company",
    "postal": "T8W 0M1",
    "rating": 5,
    "ratings": 42,
    "status": "OPERATIONAL",
    "tel": "(780) 830-0232",
    "twitter": "grainbinbeer",
    "website": "http://www.grainbinbeer.com/"
  },
  {
    "address": "101 Breckenridge Ave, Lundbreck, AB T0K 1H0, Canada",
    "avatar": true,
    "banner": true,
    "city": "Lundbreck",
    "description": "High quality, preservative free, great tasting fresh beer in Lundbreck, Alberta. #OldmanRiverBrewing",
    "lat": 49.5868508,
    "lng": -114.1625932,
    "name": "Oldman River Brewing",
    "postal": "T0K 1H0",
    "rating": 4.8,
    "ratings": 76,
    "status": "OPERATIONAL",
    "tel": "(403) 751-0017",
    "twitter": "OldmanRiverBrew",
    "website": "http://www.oldmanriverbrewing.com/"
  },
  {
    "address": "445 1 Avenue NE (Between Tim's and Rona, turn north at Tims, off, Hwy 7, Black Diamond, AB T0L 0H0, Canada",
    "avatar": true,
    "banner": true,
    "city": "Black Diamond",
    "description": "Siblings from Millarville, AB, Cory and Pam Lyken, graduates of Oilfields High and residents of the area near 40 years are blazing a trail with creative brews!",
    "lat": 50.6886993,
    "lng": -114.2246172,
    "name": "Hard Knox Brewery",
    "postal": "T0L 0H0",
    "rating": 4.8,
    "ratings": 80,
    "status": "OPERATIONAL",
    "tel": "(403) 800-5603",
    "twitter": "HardKnoxBrewery",
    "website": "http://www.hardknoxbrewery.com/"
  },
  {
    "address": "801 30 St NE, Calgary, AB T2A 5L7, Canada",
    "avatar": true,
    "banner": true,
    "city": "Calgary",
    "description": "We make handcrafted beer, best served with a story!",
    "lat": 51.0587837,
    "lng": -113.9897846,
    "name": "Tool Shed Brewing Company",
    "postal": "T2A 5L7",
    "rating": 4.5,
    "ratings": 283,
    "status": "OPERATIONAL",
    "tel": "(403) 775-1749",
    "twitter": "ToolShedBeer",
    "website": "http://www.toolshed.beer/"
  },
  {
    "address": "4323 1 St SE, Calgary, AB T2G 2L2, Canada",
    "avatar": true,
    "banner": true,
    "city": "Calgary",
    "description": "A small brewery for big talk, bold plans, and potential (mis)adventure.  Now doing home delivery within Calgary city limits! Link in bio",
    "lat": 51.014764,
    "lng": -114.0622664,
    "name": "Annex Ale Project",
    "postal": "T2G 2L2",
    "rating": 4.7,
    "ratings": 226,
    "status": "OPERATIONAL",
    "tel": "(403) 475-4412",
    "twitter": "annexales",
    "website": "http://www.annexales.com/"
  },
  {
    "address": "1460 Railway Ave, Canmore, AB T1W 1P6, Canada",
    "avatar": true,
    "banner": true,
    "city": "Canmore",
    "description": "Craft beer in the heart of Canmore. Tasting Room open Wed/Thu 2-7pm, Fri/Sat 1-8, Sun 1-6pm Mon - Closed- Family friendly.",
    "lat": 51.0945072,
    "lng": -115.3570626,
    "name": "Canmore Brewing Company",
    "postal": "T1W 1P6",
    "rating": 4.8,
    "ratings": 87,
    "status": "OPERATIONAL",
    "tel": "(403) 678-2337",
    "twitter": "canmorebrewing",
    "website": "http://www.canmorebrewing.com/"
  },
  {
    "address": "5000 12a St SE, Calgary, AB T2G 5K9, Canada",
    "avatar": true,
    "banner": true,
    "city": "Calgary",
    "description": "Village Brewery - gathering people around community, one or two beers at a time.",
    "lat": 51.00944089999999,
    "lng": -114.0349565,
    "name": "Village Brewery",
    "postal": "T2G 5K9",
    "rating": 4.7,
    "ratings": 106,
    "status": "OPERATIONAL",
    "tel": "(403) 243-3327",
    "twitter": "villagebrewery",
    "website": "http://www.villagebrewery.com/"
  },
  {
    "address": "49321 Folding Mountain Village, Yellowhead County, AB T7V 1X3, Canada",
    "avatar": true,
    "banner": true,
    "city": null,
    "description": "Folding Mountain Brewing is now open, serving locally inspired craft beer. Situated 10 minutes west of Hinton, AB, at the edge of Jasper National Park.",
    "lat": 53.2446265,
    "lng": -117.7806123,
    "name": "Folding Mountain Brewing Taproom and Kitchen",
    "postal": "T7V 1X3",
    "rating": 4.7,
    "ratings": 281,
    "status": "OPERATIONAL",
    "tel": "(780) 817-6287",
    "twitter": "FoldingMountain",
    "website": "http://www.foldingmountain.com/"
  },
  {
    "address": "10229 105 St NW, Edmonton, AB T5J 1E3, Canada",
    "avatar": true,
    "banner": true,
    "city": "Edmonton",
    "description": "Craft Brewery in downtown #YEG | Serving fresh & local beer | Full service banquet facility for private events | Open: Mon to Thurs 4-9 / Fri + Sat 11-9",
    "lat": 53.5437427,
    "lng": -113.5006091,
    "name": "Yellowhead Brewery",
    "postal": "T5J 1E3",
    "rating": 4.3,
    "ratings": 131,
    "status": "OPERATIONAL",
    "tel": "(780) 423-3333",
    "twitter": "YellowheadBeer",
    "website": "http://www.yellowheadbrewery.com/"
  },
  {
    "address": "Bay #12, 10221 15 St NE, Calgary, AB T3J 0T1, Canada",
    "avatar": true,
    "banner": true,
    "city": "Calgary",
    "description": "High quality craft beer rooted in old brewing traditions. | üó∫Airport Crossing, Calgary, AB | ‚öìÔ∏èExplore New Taste! üçª",
    "lat": 51.144321,
    "lng": -114.02559,
    "name": "Caravel Craft Brewery",
    "postal": "T3J 0T1",
    "rating": 4.8,
    "ratings": 163,
    "status": "OPERATIONAL",
    "tel": "(403) 971-4612",
    "twitter": "caravelbrewery",
    "website": "http://www.caravelbrewery.com/"
  },
  {
    "address": "10 Griffin Industrial Point #1, Cochrane, AB T4C 0A2, Canada",
    "avatar": true,
    "banner": true,
    "city": "Cochrane",
    "description": "A new family owned and operated craft brewery and restaurant in Cochrane, Alberta.",
    "lat": 51.183557,
    "lng": -114.4536578,
    "name": "Half Hitch Brewing Company",
    "postal": "T4C 0A2",
    "rating": 4.2,
    "ratings": 280,
    "status": "OPERATIONAL",
    "tel": "(403) 988-4214",
    "twitter": "HalfHitchBeer",
    "website": "http://www.halfhitchbrewing.ca/"
  },
  {
    "address": "1100 11 St SE, Calgary, AB T2G 4T3, Canada",
    "avatar": true,
    "banner": true,
    "city": "Calgary",
    "description": "Cold Garden Beverage Company is an Inglewood based micro-brewery and tasting room. Visit us at 1100 11 ST. SE.",
    "lat": 51.0394757,
    "lng": -114.0366456,
    "name": "Cold Garden Beverage Company",
    "postal": "T2G 4T3",
    "rating": 4.7,
    "ratings": 776,
    "status": "OPERATIONAL",
    "tel": "(403) 764-2653",
    "twitter": "cold_garden",
    "website": "http://www.coldgarden.ca/"
  },
  {
    "address": "4085 2 Ave S, Lethbridge, AB T1J 1Z2, Canada",
    "avatar": true,
    "banner": true,
    "city": "Lethbridge",
    "description": "Your Lethbridge Local Craft Beer üçª        #couleebrewco",
    "lat": 49.6976744,
    "lng": -112.7800465,
    "name": "Coulee Brew Company",
    "postal": "T1J 1Z2",
    "rating": 3.9,
    "ratings": 253,
    "status": "OPERATIONAL",
    "tel": "(403) 394-2337",
    "twitter": "CouleeBrewCo",
    "website": "http://couleebrew.co/"
  },
  {
    "address": "943 28 St NE, Calgary, AB T2A 7X1, Canada",
    "avatar": true,
    "banner": true,
    "city": "Calgary",
    "description": "Crafting beers for good times and great conversation.\n\nCrafted in Calgary",
    "lat": 51.0611523,
    "lng": -113.9940515,
    "name": "Common Crown Brewing Co.",
    "postal": "T2A 7X1",
    "rating": 4.9,
    "ratings": 90,
    "status": "OPERATIONAL",
    "tel": "(587) 356-4275",
    "twitter": "CommonCrownBrew",
    "website": "http://commoncrown.ca/"
  },
  {
    "address": "1318 9 Ave SE #113, Calgary, AB T2G 0T3, Canada",
    "avatar": true,
    "banner": true,
    "city": "Calgary",
    "description": "Now serving! See website for hours.",
    "lat": 51.0410481,
    "lng": -114.0327909,
    "name": "High Line Brewing",
    "postal": "T2G 0T3",
    "rating": 4.4,
    "ratings": 191,
    "status": "OPERATIONAL",
    "tel": "(403) 827-6985",
    "twitter": "HIGHLINEBREWING",
    "website": "http://www.highlinebrewing.com/"
  },
  {
    "address": "1366 Brier Park Dr NW, Medicine Hat, AB T1C 1Z7, Canada",
    "avatar": true,
    "banner": true,
    "city": "Medicine Hat",
    "description": "1912 the first Medicine Hat Brewing Company was formed & over a century later we dusted off the name & again serve up a #TimelessCraftBeer",
    "lat": 50.0622222,
    "lng": -110.7177778,
    "name": "Medicine Hat Brewing Company",
    "postal": "T1C 1Z7",
    "rating": 4.7,
    "ratings": 140,
    "status": "OPERATIONAL",
    "tel": "(403) 525-1260",
    "twitter": "MHBrewCo",
    "website": "http://www.medicinehatbrewingcompany.ca/"
  },
  {
    "address": "9570 76 Ave NW, Edmonton, AB T6C 0K2, Canada",
    "avatar": false,
    "banner": false,
    "city": "Edmonton",
    "lat": 53.5124476,
    "lng": -113.4763599,
    "name": "Blind Enthusiasm Brewing Company",
    "postal": "T6C 0K2",
    "rating": 3.9,
    "ratings": 75,
    "status": "OPERATIONAL",
    "tel": null,
    "website": "http://www.blindenthusiasm.ca/"
  },
  {
    "address": "4210 12 St NE, Calgary, AB T2E 6K9, Canada",
    "avatar": true,
    "banner": true,
    "city": "Calgary",
    "description": "Zero Issue Brewing - We aim to misbehave......now.",
    "lat": 51.0893531,
    "lng": -114.0316775,
    "name": "Zero Issue Brewing",
    "postal": "T2E 6K9",
    "rating": 4.7,
    "ratings": 155,
    "status": "OPERATIONAL",
    "tel": "(587) 885-1193",
    "twitter": "Zeroissuebeer",
    "website": "http://www.zeroissuebeer.com/"
  },
  {
    "address": "3520 67 St, Ponoka, AB T4J 1J8, Canada",
    "avatar": true,
    "banner": true,
    "city": "Ponoka",
    "description": "A barley grower starts a brewery in a town with a tie to the railway. Beer brewed with the finest ingredients, from Field to Glass.",
    "lat": 52.664339,
    "lng": -113.6067109,
    "name": "Siding 14 Brewing Company",
    "postal": "T4J 1J8",
    "rating": 4.7,
    "ratings": 68,
    "status": "OPERATIONAL",
    "tel": "(403) 783-4001",
    "twitter": "Siding14Brewing",
    "website": "http://siding14brewing.com/"
  },
  {
    "address": "10308 81 Ave NW, Edmonton, AB T6E 1X2, Canada",
    "avatar": true,
    "banner": true,
    "city": "Edmonton",
    "description": "Craft Brewery in YEG",
    "lat": 53.5172246,
    "lng": -113.4950704,
    "name": "Situation Brewing",
    "postal": "T6E 1X2",
    "rating": 4.4,
    "ratings": 678,
    "status": "OPERATIONAL",
    "tel": "(780) 705-1377",
    "twitter": "SituationBeer",
    "website": "http://situationbeer.com/"
  },
  {
    "address": "725 Raymond Ave, St Paul, MN 55114, USA",
    "avatar": true,
    "banner": true,
    "city": "Saint Paul",
    "description": "‚òÜ Brewmaster | 10 Barrel Brewing Company PDX\n\nBrewer | Baker | Feminist | Citizen",
    "lat": 44.9631434,
    "lng": -93.197753,
    "name": "Citizen Brewing Company",
    "postal": "55114",
    "rating": 4.5,
    "ratings": 230,
    "status": "OPERATIONAL",
    "tel": "(651) 330-4750",
    "twitter": "WhitneyBeerside",
    "website": "http://www.dcbc.com/"
  },
  {
    "address": "4580 Quesnay Wood Dr SW, Calgary, AB T3E 7J3, Canada",
    "avatar": true,
    "banner": true,
    "city": "Calgary",
    "description": "Wild Rose Brewery - \nWild, Strong and Free since 1996.",
    "lat": 51.014525,
    "lng": -114.122631,
    "name": "Wild Rose Brewery & Taproom",
    "postal": "T3E 7J3",
    "rating": 4.6,
    "ratings": 386,
    "status": "OPERATIONAL",
    "tel": "(403) 727-5451",
    "twitter": "WildRoseBrewery",
    "website": "http://www.wildrosebrewery.com/"
  },
  {
    "address": "1314 44 Ave NE, Calgary, AB T2E 6L6, Canada",
    "avatar": true,
    "banner": true,
    "city": "Calgary",
    "description": "Calgary craft brewers making quality brews at fair prices.White Wolf,Boxer Lager,Boxer Hard Sodas, Mountain Crest Lager\nhttps://t.co/hXZAxWTfXo",
    "lat": 51.0919811,
    "lng": -114.0316355,
    "name": "Minhas Micro Brewery - Calgary",
    "postal": "T2E 6L6",
    "rating": 4.5,
    "ratings": 324,
    "status": "OPERATIONAL",
    "tel": "(403) 695-3701",
    "twitter": "MinhasMicrobrew",
    "website": "http://minhasbrewery.com/"
  },
  {
    "address": "1263 2 Ave S, Lethbridge, AB T1J 0E7, Canada",
    "avatar": true,
    "banner": true,
    "city": "Lethbridge",
    "description": "Theoretically Brewing Co. is a nano-brewery located in Lethbridge that specializes in cask conditioned ales! Tasting room and draft on site!",
    "lat": 49.6976314,
    "lng": -112.8259103,
    "name": "Theoretically Brewing Company",
    "postal": "T1J 0E7",
    "rating": 4.8,
    "ratings": 165,
    "status": "OPERATIONAL",
    "tel": "(403) 715-5140",
    "twitter": "TheoryBrew",
    "website": "http://www.theorybrew.ca/"
  },
  {
    "address": "1589 The Queensway, Etobicoke, ON M8Z 5W9, Canada",
    "avatar": true,
    "banner": true,
    "city": "Toronto",
    "description": "Canadian craft brewery with locations in Calgary, Vancouver, Etobicoke, and Toronto üçªüçÅ\n#bigrockbrewery\n#rockcreekcider",
    "lat": 43.6159774,
    "lng": -79.54213089999999,
    "name": "Big Rock Brewery",
    "postal": "M8Z 5W9",
    "rating": 4.3,
    "ratings": 40,
    "status": "OPERATIONAL",
    "tel": "(647) 351-7837",
    "twitter": "BigRockBrewery",
    "website": "https://bigrockbeer.com/"
  },
  {
    "address": "219 17 Ave SW, Calgary, AB T2S 0A4, Canada",
    "avatar": false,
    "banner": false,
    "city": "Calgary",
    "lat": 51.0376337,
    "lng": -114.067242,
    "name": "Mill Street Brewpub Calgary",
    "postal": "T2S 0A4",
    "rating": 4.2,
    "ratings": 343,
    "status": "OPERATIONAL",
    "tel": "(403) 454-6871",
    "website": "https://millstreetbrewery.com/calgary-brew-pub/"
  },
  {
    "address": "3610 Burnsland Rd SE, Calgary, AB T2G 3Z2, Canada",
    "avatar": true,
    "banner": true,
    "city": "Calgary",
    "description": "Welcome to Paddy's! Calgary's First Smoke House and Brewery. Fresh Brisket Cooked Daily and Small Batch Craft beer. Come give us a try.",
    "lat": 51.0228394,
    "lng": -114.0575792,
    "name": "Paddy's Barbecue & Brewery",
    "postal": "T2G 3Z2",
    "rating": 4.7,
    "ratings": 329,
    "status": "OPERATIONAL",
    "tel": "(403) 651-7150",
    "twitter": "paddysbrewbecue",
    "website": "https://paddysbrewbecue.com/"
  },
  {
    "address": "310 Old Canmore Rd, Canmore, AB T1W 0J7, Canada",
    "avatar": false,
    "banner": false,
    "city": "Canmore",
    "lat": 51.08859169999999,
    "lng": -115.3451001,
    "name": "The Grizzly Paw Brewing Company | Tank 310",
    "postal": "T1W 0J7",
    "rating": 4.4,
    "ratings": 258,
    "status": "OPERATIONAL",
    "tel": "(403) 678-2487",
    "website": "https://www.thegrizzlypaw.com/"
  },
  {
    "address": "4-9710 94 St, Peace River, AB T8S 1J2, Canada",
    "avatar": false,
    "banner": false,
    "city": "Peace River",
    "lat": 56.2362586,
    "lng": -117.2984727,
    "name": "Peace River Brewing",
    "postal": "T8S 1J2",
    "rating": 5,
    "ratings": 20,
    "status": "OPERATIONAL",
    "tel": null,
    "website": "https://peaceriverbrewing.square.site/"
  },
  {
    "address": "10301 19 St NE Unit 121, Calgary, AB T3J 0R1, Canada",
    "avatar": true,
    "banner": true,
    "city": "Calgary",
    "description": "Welcome to Railyard, where science and art collide.",
    "lat": 51.1455621,
    "lng": -114.0141118,
    "name": "Railyard Brewing",
    "postal": "T3J 0R1",
    "rating": 4.6,
    "ratings": 158,
    "status": "OPERATIONAL",
    "tel": "(403) 465-4831",
    "twitter": "RailyardBrewing",
    "website": "http://www.railyardbrewing.ca/"
  },
  {
    "address": "26 Industrial Dr, Sylvan Lake, AB T4S 1P4, Canada",
    "avatar": true,
    "banner": true,
    "city": "Sylvan Lake",
    "description": "Hardworking, easy drinking. Stay tuned as we work to bring a proudly local lineup of craft beers to Sylvan Lake, Alberta.",
    "lat": 52.3162134,
    "lng": -114.0695964,
    "name": "Snake Lake Brewing Company",
    "postal": "T4S 1P4",
    "rating": 4.9,
    "ratings": 81,
    "status": "OPERATIONAL",
    "tel": "(403) 858-1159",
    "twitter": "snakelakebrewco",
    "website": "https://snakelake.beer/"
  },
  {
    "address": "4025 9 St SE, Calgary, AB T2G 3C7, Canada",
    "avatar": true,
    "banner": true,
    "city": "Calgary",
    "description": "Creators, Brewers, Storytellers",
    "lat": 51.018643,
    "lng": -114.0410294,
    "name": "Legend 7 Brewing",
    "postal": "T2G 3C7",
    "rating": 4.6,
    "ratings": 97,
    "status": "OPERATIONAL",
    "tel": "(587) 355-3105",
    "twitter": "legend7brewing",
    "website": "http://www.legend7brewing.com/"
  },
  {
    "address": "1319 Edmonton Trail, Calgary, AB T2E 3K6, Canada",
    "avatar": false,
    "banner": false,
    "city": "Calgary",
    "lat": 51.063985,
    "lng": -114.056618,
    "name": "Elite Brewing & Cidery",
    "postal": "T2E 3K6",
    "rating": 4.3,
    "ratings": 369,
    "status": "OPERATIONAL",
    "tel": "(403) 277-7099",
    "website": "http://www.elitebrewing.com/"
  },
  {
    "address": "220 East Lake Blvd NE #4, Airdrie, AB T4A 2G2, Canada",
    "avatar": true,
    "banner": true,
    "city": "Airdrie",
    "description": "Community focused microbrewery proudly located in Airdrie Alberta",
    "lat": 51.2897338,
    "lng": -113.9910433,
    "name": "Fitzsimmons Brewing Company",
    "postal": "T4A 2G2",
    "rating": 4.8,
    "ratings": 108,
    "status": "OPERATIONAL",
    "tel": "(587) 892-2739",
    "twitter": "FitzBrewing",
    "website": "http://www.fitzsimmonsbrewing.com/"
  },
  {
    "address": "728 17 Ave SW, Calgary, AB T2T 4M2, Canada",
    "avatar": true,
    "banner": true,
    "city": "Calgary",
    "description": "#YourCommunityBrewpub - Born & Raised in Calgary Alberta. We focus on brewing high-quality local beers with a passion for bringing the community together.",
    "lat": 51.0379525,
    "lng": -114.0784579,
    "name": "Trolley 5 Brewpub",
    "postal": "T2T 4M2",
    "rating": 4.2,
    "ratings": 698,
    "status": "OPERATIONAL",
    "tel": "(403) 454-3731",
    "twitter": "Trolley_5",
    "website": "http://www.trolley5.com/"
  },
  {
    "address": "60 Spruce Park Dr, Strathmore, AB T1P 1J2, Canada",
    "avatar": true,
    "banner": true,
    "city": "Strathmore",
    "description": "Origin Beers = single variety craft malts, local hops, select water sourcing. 100% Barrel Aged : Founded 2014 and Malting in 2016",
    "lat": 51.0318899,
    "lng": -113.3884152,
    "name": "Origin Malting & Brewing",
    "postal": "T1P 1J2",
    "rating": 4.8,
    "ratings": 108,
    "status": "OPERATIONAL",
    "tel": "(403) 902-0868",
    "twitter": "madfritz",
    "website": null
  },
  {
    "address": "110 Banff Ave, Banff, AB T1L 1A9, Canada",
    "avatar": true,
    "banner": true,
    "city": "Banff",
    "description": "Creating a community-focused beer culture since 2010.",
    "lat": 51.1748972,
    "lng": -115.5706611,
    "name": "Banff Ave Brewing Co.",
    "postal": "T1L 1A9",
    "rating": 4.2,
    "ratings": 562,
    "status": "OPERATIONAL",
    "tel": "(403) 762-1003",
    "twitter": "banffavebrewing",
    "website": "http://banffavebrewingco.ca/"
  },
  {
    "address": "1103 12 St SE, Calgary, AB T2G 3H7, Canada",
    "avatar": true,
    "banner": true,
    "city": "Calgary",
    "description": "Calgary based micro brewery and taproom.",
    "lat": 51.039789,
    "lng": -114.0364125,
    "name": "Ol' Beautiful Brewing Co.",
    "postal": "T2G 3H7",
    "rating": 4.6,
    "ratings": 172,
    "status": "OPERATIONAL",
    "tel": "(403) 453-2739",
    "twitter": "Ol_beautiful",
    "website": "http://www.olbeautiful.com/"
  },
  {
    "address": "4227 50 Ave, St. Paul, AB T0A 3A3, Canada",
    "avatar": true,
    "banner": true,
    "city": "Saint Paul",
    "description": "Good beer Good people Good times MINORS ALLOWED  Thur Fri 4-9pm Sat 2-6pm",
    "lat": 53.990978,
    "lng": -111.275365,
    "name": "Lakeland Brewing Company",
    "postal": "T0A 3A3",
    "rating": 4.6,
    "ratings": 47,
    "status": "OPERATIONAL",
    "tel": "(780) 614-9466",
    "twitter": "lakelandbrewing",
    "website": "http://lakelandbrewing.wixsite.com/beer"
  },
  {
    "address": "10416 80 Ave NW, Edmonton, AB T6E 5T7, Canada",
    "avatar": true,
    "banner": true,
    "city": "Edmonton",
    "description": "Welcome to Polar Park Brewing Company",
    "lat": 53.5163473,
    "lng": -113.4986636,
    "name": "Polar Park Brewing Company",
    "postal": "T6E 5T7",
    "rating": 4.3,
    "ratings": 249,
    "status": "OPERATIONAL",
    "tel": "(778) 229-7445",
    "twitter": "PolarParkBrewCo",
    "website": "https://www.polarparkbrewing.com/"
  },
  {
    "address": "5416 136 Ave NW, Edmonton, AB T5A 0E4, Canada",
    "avatar": true,
    "banner": true,
    "city": "Edmonton",
    "description": "Small batches of beer in big bottles, brewed by people who vary in size. Bottleshop OPEN: THU 3-7; FRI 3-7pm; SAT 12-6pm #yegbeer #GetBent IG: @bentstickbeer",
    "lat": 53.5973047,
    "lng": -113.4194713,
    "name": "Bent Stick Brewing Co.",
    "postal": "T5A 0E4",
    "rating": 4.7,
    "ratings": 131,
    "status": "OPERATIONAL",
    "tel": null,
    "twitter": "BentStickBeer",
    "website": "http://www.bentstickbrewing.com/"
  },
  {
    "address": "9850 62 Ave NW, Edmonton, AB T6E 0E3, Canada",
    "avatar": true,
    "banner": true,
    "city": "Edmonton",
    "description": "",
    "lat": 53.4986111,
    "lng": -113.485,
    "name": "Sea Change Brewing Co",
    "postal": "T6E 0E3",
    "rating": 4.9,
    "ratings": 159,
    "status": "OPERATIONAL",
    "tel": "(780) 784-2996",
    "twitter": "SeaChangeBeer",
    "website": "http://www.seachangebeer.com/"
  },
  {
    "address": "1155 44 Ave SE unit e, Calgary, AB T2G 4X4, Canada",
    "avatar": false,
    "banner": false,
    "city": "Calgary",
    "lat": 51.0133458,
    "lng": -114.0384835,
    "name": "OT Brewing Company",
    "postal": "T2G 4X4",
    "rating": 4.7,
    "ratings": 48,
    "status": "OPERATIONAL",
    "tel": "(403) 816-4575",
    "website": "https://otbrewingcompany.com/"
  },
  {
    "address": "Camrose, AB T4V 3K3, Canada",
    "avatar": true,
    "banner": true,
    "city": "Camrose",
    "description": "Brewery in Topeka. Located in the heart of NOTO arts district.",
    "lat": 53.0166202,
    "lng": -112.853981,
    "name": "Norsemen Brewing Co.",
    "postal": "T4V 3K3",
    "rating": 3.8,
    "ratings": 5,
    "status": "OPERATIONAL",
    "tel": "(780) 672-9171",
    "twitter": "norsemenbrewing",
    "website": "http://norsemenbrewing.com/"
  },
  {
    "address": "505 36 Ave SE, Calgary, AB T2G 1W5, Canada",
    "avatar": true,
    "banner": true,
    "city": "Calgary",
    "description": "Alberta‚Äôs Brewery of the Year for 2020. We deliver (tap link to order). Taproom pickup available 10-6 Mon-Fri, 12-6 Sat and 12-5 Sun.",
    "lat": 51.021213,
    "lng": -114.0535758,
    "name": "Cabin Brewing Company",
    "postal": "T2G 1W5",
    "rating": 4.7,
    "ratings": 160,
    "status": "OPERATIONAL",
    "tel": "(403) 244-3331",
    "twitter": "CabinBrewing",
    "website": "http://www.cabinbrewing.ca/"
  },
  {
    "address": "2003 11 St SE, Calgary, AB T2G 3G6, Canada",
    "avatar": true,
    "banner": true,
    "city": "Calgary",
    "description": "Brewing what we love. Chef Merritt Gordon in the tasting room.\nOrder online for pick up or (local) delivery. \nhttps://t.co/bO9hkH1S1R",
    "lat": 51.035139,
    "lng": -114.0371571,
    "name": "The Dandy Brewing Company And Tasting Room",
    "postal": "T2G 3G6",
    "rating": 4.7,
    "ratings": 904,
    "status": "OPERATIONAL",
    "tel": "(587) 956-8836",
    "twitter": "DandyAlesYYC",
    "website": "http://thedandybrewingcompany.com/"
  },
  {
    "address": "100 Rainbow Rd, Chestermere, AB T1X 0V3, Canada",
    "avatar": true,
    "banner": true,
    "city": "Chestermere",
    "description": "Putting Local On The Map.\nOrder online for home delivery.",
    "lat": 51.0253001,
    "lng": -113.8404712,
    "name": "Township 24",
    "postal": "T1X 0V3",
    "rating": 4.8,
    "ratings": 52,
    "status": "OPERATIONAL",
    "tel": "(403) 460-8696",
    "twitter": "T24Brewing",
    "website": "http://www.township24.ca/"
  },
  {
    "address": "6505 48 Ave, Camrose, AB T4V 3K3, Canada",
    "avatar": false,
    "banner": false,
    "city": "Camrose",
    "lat": 53.017019,
    "lng": -112.853773,
    "name": "The Tap Room Bar + Brewery",
    "postal": "T4V 3K3",
    "rating": 3.8,
    "ratings": 70,
    "status": "OPERATIONAL",
    "tel": "(780) 672-9171",
    "website": "http://www.norsemeninn.com/"
  },
  {
    "address": "510 21 St SE, High River, AB T1V 2A7, Canada",
    "avatar": true,
    "banner": true,
    "city": "High River",
    "description": "",
    "lat": 50.5773167,
    "lng": -113.8333755,
    "name": "High River Brewing Company",
    "postal": "T1V 2A7",
    "rating": 4.7,
    "ratings": 43,
    "status": "OPERATIONAL",
    "tel": "(403) 649-2002",
    "twitter": "HRBrewCo",
    "website": "https://hrbrewco.com/"
  },
  {
    "address": "2626 50 Ave unit 6, Lloydminster, AB T9V 2S3, Canada",
    "avatar": true,
    "banner": true,
    "city": "Lloydminster",
    "description": "Lloydminster's first craft brewery! Great beer brewed and served in Canada's border city!",
    "lat": 53.261315,
    "lng": -110.007803,
    "name": "4th Meridian Brewing Co",
    "postal": "T9V 2S3",
    "rating": 4.8,
    "ratings": 137,
    "status": "OPERATIONAL",
    "tel": "(780) 522-9998",
    "twitter": "4MBrewing",
    "website": "http://www.4thmeridianbrewing.com/"
  },
  {
    "address": "414 36 Ave SE #3, Calgary, AB T2G 1W4, Canada",
    "avatar": false,
    "banner": false,
    "city": "Calgary",
    "lat": 51.021656,
    "lng": -114.0543621,
    "name": "Born Colorado Brewing",
    "postal": "T2G 1W4",
    "rating": 4.5,
    "ratings": 115,
    "status": "OPERATIONAL",
    "tel": "(403) 247-0295",
    "website": "http://www.borncoloradobrewing.com/"
  },
  {
    "address": "8105 Edgar Industrial Dr, Red Deer, AB T4P 3R2, Canada",
    "avatar": true,
    "banner": true,
    "city": "Red Deer",
    "description": "Craft beer brewed in north Red Deer. Come visit our tap room on Edgar Ind. Drive for drinkable beers in a casual spot.",
    "lat": 52.315423,
    "lng": -113.8419002,
    "name": "Belly Hop Brewing",
    "postal": "T4P 3R2",
    "rating": 4.9,
    "ratings": 47,
    "status": "OPERATIONAL",
    "tel": "(403) 318-0853",
    "twitter": "BellyHopBrewing",
    "website": "http://www.bellyhopbrewing.com/"
  },
  {
    "address": "2600 Portland St SE #1070, Calgary, AB T2G 4M6, Canada",
    "avatar": true,
    "banner": true,
    "city": "Calgary",
    "description": "In the spirit of Calgary '88, our goal is to spread good vibes, rad times, and great beer. Home delivery available! #breweryflats",
    "lat": 51.03079140000001,
    "lng": -114.0321167,
    "name": "Eighty-Eight Brewing Co.",
    "postal": "T2G 4M6",
    "rating": 4.7,
    "ratings": 204,
    "status": "OPERATIONAL",
    "tel": "(403) 452-5880",
    "twitter": "EightyEightBrew",
    "website": "http://eightyeightbrewing.ca/"
  },
  {
    "address": "4416 64 Ave SE #2123, Calgary, AB T2C 2B3, Canada",
    "avatar": true,
    "banner": true,
    "city": "Calgary",
    "description": "Brewing quality craft beers in Calgary, AB! Located in the SE Foothills Industrial Park.",
    "lat": 50.9969466,
    "lng": -113.9721756,
    "name": "Good Mood Brewery",
    "postal": "T2C 2B3",
    "rating": 4.7,
    "ratings": 74,
    "status": "OPERATIONAL",
    "tel": "(403) 452-1806",
    "twitter": "goodmoodbrewery",
    "website": "https://goodmoodbrewery.com/"
  },
  {
    "address": "105D 58 Ave SE, Calgary, AB T2H 0N8, Canada",
    "avatar": false,
    "banner": false,
    "city": "Calgary",
    "lat": 51.0009777,
    "lng": -114.0634452,
    "name": "Prairie Dog Brewing",
    "postal": "T2H 0N8",
    "rating": 4.4,
    "ratings": 1197,
    "status": "OPERATIONAL",
    "tel": "(403) 407-2448",
    "website": "https://www.prairiedogbrewing.ca/"
  },
  {
    "address": "607 11 Ave SW, Calgary, AB T2R 0E1, Canada",
    "avatar": true,
    "banner": true,
    "city": "Calgary",
    "description": "Parent company of Jasper Brewing Co., Banff Ave Brewing Co., Wood Buffalo Brewing Co., and Last Best Brewing & Distilling.",
    "lat": 51.0426013,
    "lng": -114.0745733,
    "name": "Last Best Brewing & Distilling",
    "postal": "T2R 0E1",
    "rating": 4.4,
    "ratings": 1901,
    "status": "OPERATIONAL",
    "tel": "(587) 353-7387",
    "twitter": "bearhillbrewing",
    "website": "http://lastbestbrewing.com/"
  },
  {
    "address": "5109 51 Ave, Cold Lake, AB T9M 1P1, Canada",
    "avatar": false,
    "banner": false,
    "city": "Cold Lake",
    "lat": 54.4140676,
    "lng": -110.2087858,
    "name": "Cold Lake Brewing & Distilling Co.",
    "postal": "T9M 1P1",
    "rating": 5,
    "ratings": 5,
    "status": "OPERATIONAL",
    "tel": "(780) 201-1611",
    "website": "https://www.coldlakebrewingdistilling.com/"
  },
  {
    "address": "350 9 St E, Brooks, AB T1R 1K6, Canada",
    "avatar": true,
    "banner": true,
    "city": "Brooks",
    "description": "Brooks, AB‚Äôs first craft brewery. PM for hours. Account run by owner/brewer‚Äôs wife.",
    "lat": 50.5663032,
    "lng": -111.878643,
    "name": "Piston Broke Brewing",
    "postal": "T1R 1K6",
    "rating": 4.8,
    "ratings": 29,
    "status": "OPERATIONAL",
    "tel": "(403) 427-2537",
    "twitter": "PistonBrokeBrew",
    "website": "http://www.pistonbrokebrewing.com/"
  },
  {
    "address": "7023 Johnstone Dr, Red Deer, AB T4P 0L9, Canada",
    "avatar": true,
    "banner": true,
    "city": "Red Deer",
    "description": "Red Deer‚Äôs newest Brewery. We are taproom focused on Small Batch Craft Beer üçª",
    "lat": 52.29499180000001,
    "lng": -113.8491642,
    "name": "Sawback Brewing Co.",
    "postal": "T4P 0L9",
    "rating": 4.8,
    "ratings": 73,
    "status": "OPERATIONAL",
    "tel": "(587) 823-8888",
    "twitter": "SawbackBrewery",
    "website": "http://www.sawbackbrewery.ca/"
  },
  {
    "address": "230 24 St, Fort MacLeod, AB T0L 0Z0, Canada",
    "avatar": true,
    "banner": false,
    "city": "Fort MacLeod",
    "description": "",
    "lat": 49.725378,
    "lng": -113.4076886,
    "name": "Stronghold Brewing Co.",
    "postal": "T0L 0Z0",
    "rating": 5,
    "ratings": 31,
    "status": "OPERATIONAL",
    "tel": "(403) 635-9381",
    "twitter": "strongholdbrew",
    "website": "https://strongholdbrewing.ca/"
  },
  {
    "address": "8620 53 Ave NW, Edmonton, AB T6E 5G2, Canada",
    "avatar": true,
    "banner": true,
    "city": "Edmonton",
    "description": "Big flavour. High Sessionability. Retro-gamer flair. Alberta brewed craft beer.",
    "lat": 53.4905949,
    "lng": -113.4564244,
    "name": "Analog Brewing Company",
    "postal": "T6E 5G2",
    "rating": 4.7,
    "ratings": 186,
    "status": "OPERATIONAL",
    "tel": "(587) 990-9584",
    "twitter": "analog_brewing",
    "website": "http://www.analogbrewing.ca/"
  },
  {
    "address": "4720A 37 St, Camrose, AB T4V 0G3, Canada",
    "avatar": true,
    "banner": true,
    "city": "Camrose",
    "description": "Brewing high quality craft beer in Camrose for all of Albertans to enjoy.",
    "lat": 53.014657,
    "lng": -112.798372,
    "name": "Battle River Brewery",
    "postal": "T4V 0G3",
    "rating": 5,
    "ratings": 10,
    "status": "OPERATIONAL",
    "tel": "(780) 781-3715",
    "twitter": "brbrewery",
    "website": "http://www.battleriverbrewery.ca/"
  },
  {
    "address": "Spirit River No. 133, AB T0H 3A0, Canada",
    "avatar": false,
    "banner": false,
    "city": null,
    "lat": 55.7601556,
    "lng": -118.6384512,
    "name": "Dunvegan Brewing Company",
    "postal": "T0H 3A0",
    "rating": 5,
    "ratings": 6,
    "status": "OPERATIONAL",
    "tel": "(780) 864-8110",
    "website": null
  },
  {
    "address": "7005 Fairmount Dr SE UNIT 4140, Calgary, AB T2H 0J1, Canada",
    "avatar": true,
    "banner": true,
    "city": "Calgary",
    "description": "\"If you like metal music and alright beer, it's good.\"",
    "lat": 50.9919661,
    "lng": -114.0657495,
    "name": "New Level Brewing",
    "postal": "T2H 0J1",
    "rating": 4.7,
    "ratings": 80,
    "status": "OPERATIONAL",
    "tel": "(403) 764-4359",
    "twitter": "newlevelbrewing",
    "website": "http://newlevelbrewing.ca/"
  },
  {
    "address": "820 11 Ave SW, Calgary, AB T2R 0E5, Canada",
    "avatar": true,
    "banner": true,
    "city": "Calgary",
    "description": "In the heart of Calgary‚Äôs Beltline neighbourhood:  816 - 11 Avenue SW",
    "lat": 51.043109,
    "lng": -114.0799661,
    "name": "Inner City Brewing",
    "postal": "T2R 0E5",
    "rating": 4.7,
    "ratings": 132,
    "status": "OPERATIONAL",
    "tel": "(587) 880-8600",
    "twitter": "InnerCityBrew",
    "website": "http://www.innercitybrewing.ca/"
  },
  {
    "address": "488 McCoy Dr #112, Red Deer County, AB T4E 0A4, Canada",
    "avatar": true,
    "banner": true,
    "city": null,
    "description": "Red Deer County's Brewery. Award winning beer, award winning taproom. Real winner of the AFBA 2020 Fake Super Fun Award.",
    "lat": 52.2059522,
    "lng": -113.7888215,
    "name": "Red Hart Brewing",
    "postal": "T4E 0A4",
    "rating": 4.8,
    "ratings": 191,
    "status": "OPERATIONAL",
    "tel": "(403) 342-1048",
    "twitter": "RedHartBrewing",
    "website": "http://www.redhartbrewing.ca/"
  },
  {
    "address": "5840 76 Ave SE #40, Calgary, AB T2C 5N5, Canada",
    "avatar": true,
    "banner": true,
    "city": "Calgary",
    "description": "Last Spike is a partner brewery specializing in the brewing, canning, kegging, and packaging of beer for local, national, and international clients.",
    "lat": 50.9858813,
    "lng": -113.9417363,
    "name": "Last Spike Brewery",
    "postal": "T2C 5N5",
    "rating": 5,
    "ratings": 5,
    "status": "OPERATIONAL",
    "tel": "(587) 620-7338",
    "twitter": "Last_Spike_Brew",
    "website": "http://www.lastspikebrewery.com/"
  },
  {
    "address": "215 Carnegie Dr #4A, St. Albert, AB T8N 5B1, Canada",
    "avatar": true,
    "banner": true,
    "city": "St. Albert",
    "description": "An all-Australian brewery based in The Rocks Sydney. Awarded beers that change recipe constantly by using the best ingredients selected from each year's harvest",
    "lat": 53.637291,
    "lng": -113.576141,
    "name": "Endeavour Brewing Company",
    "postal": "T8N 5B1",
    "rating": 4.7,
    "ratings": 159,
    "status": "OPERATIONAL",
    "tel": "(780) 752-3777",
    "twitter": "ENDEAVOURbeer",
    "website": "https://www.endeavourbrewing.com/"
  },
  {
    "address": "3523 18 St SW, Calgary, AB T2T 4T9, Canada",
    "avatar": false,
    "banner": false,
    "city": "Calgary",
    "lat": 51.0223278,
    "lng": -114.1051444,
    "name": "Marda Loop Brewing Company Inc.",
    "postal": "T2T 4T9",
    "rating": 4.6,
    "ratings": 353,
    "status": "OPERATIONAL",
    "tel": "(403) 585-8087",
    "website": "http://mardaloopbrewing.com/"
  },
  {
    "address": "4407 1 St SE, Calgary, AB T2G 2L2, Canada",
    "avatar": true,
    "banner": true,
    "city": "Calgary",
    "description": "We're open for business in a way that makes sense for now: delivery within Calgary and sales from our taproom. Remember, safe doesn‚Äôt have to mean thirsty.",
    "lat": 51.0142906,
    "lng": -114.062347,
    "name": "The Establishment Brewing Company",
    "postal": "T2G 2L2",
    "rating": 4.8,
    "ratings": 89,
    "status": "OPERATIONAL",
    "tel": "(403) 453-6212",
    "twitter": "estbrew",
    "website": "http://establishmentbrewing.ca/"
  },
  {
    "address": "6311 52nd St, Rimbey, AB T0C 2J0, Canada",
    "avatar": true,
    "banner": false,
    "city": "Rimbey",
    "description": "",
    "lat": 52.6523544,
    "lng": -114.242679,
    "name": "Hawk Tail Brewery",
    "postal": "T0C 2J0",
    "rating": 4.8,
    "ratings": 38,
    "status": "OPERATIONAL",
    "tel": "(403) 843-3034",
    "twitter": "HawkTailBrewery",
    "website": "http://hawktailbrewery.com/"
  },
  {
    "address": "11239 180 St NW, Edmonton, AB T5S 0B4, Canada",
    "avatar": true,
    "banner": true,
    "city": "Edmonton",
    "description": "Located at 11239 180th Street NW",
    "lat": 53.5612036,
    "lng": -113.6290666,
    "name": "S.Y.C Brewing Co",
    "postal": "T5S 0B4",
    "rating": 4.8,
    "ratings": 57,
    "status": "OPERATIONAL",
    "tel": null,
    "twitter": "syc_brewing",
    "website": "http://www.sycbrewing.com/"
  },
  {
    "address": "5003 Lakeshore Dr #170, Sylvan Lake, AB T4S 1R3, Canada",
    "avatar": true,
    "banner": true,
    "city": "Sylvan Lake",
    "description": "Microbrewery overlooking Sylvan Lake offering an inviting taproom and delicious brews and bites; so come on in, relax and enjoy.",
    "lat": 52.30993669999999,
    "lng": -114.0975894,
    "name": "Undercurrent Brewing",
    "postal": "T4S 1R3",
    "rating": 4.7,
    "ratings": 176,
    "status": "OPERATIONAL",
    "tel": "(403) 887-0483",
    "twitter": "Undercurrentbru",
    "website": "http://undercurrentbrewing.ca/"
  },
  {
    "address": "607 Manitou Rd SE, Calgary, AB T2G 4C5, Canada",
    "avatar": true,
    "banner": true,
    "city": "Calgary",
    "description": "We are a small brewery and taproom in Calgary's Barley Belt! Now open @ 607 Manitou Rd SE.\n Contact us - brewmaster@outcastbrewing.ca",
    "lat": 51.0098893,
    "lng": -114.051325,
    "name": "OutCast Brewing",
    "postal": "T2G 4C5",
    "rating": 4.8,
    "ratings": 56,
    "status": "OPERATIONAL",
    "tel": "(403) 477-5478",
    "twitter": "outcast_brewing",
    "website": "http://outcastbrewing.ca/"
  },
  {
    "address": "4901 50 St, Leduc, AB T9E 7H8, Canada",
    "avatar": false,
    "banner": false,
    "city": "Leduc",
    "lat": 53.2641158,
    "lng": -113.5522323,
    "name": "Rural Routes Brewing Company",
    "postal": "T9E 7H8",
    "rating": 4.4,
    "ratings": 246,
    "status": "OPERATIONAL",
    "tel": "(587) 274-2739",
    "website": "https://www.ruralroutesbrewing.ca/"
  },
  {
    "address": "9942 67 Ave NW, Edmonton, AB T6E 0P5, Canada",
    "avatar": true,
    "banner": true,
    "city": "Edmonton",
    "description": "",
    "lat": 53.5043693,
    "lng": -113.4888842,
    "name": "Omen Brewing",
    "postal": "T6E 0P5",
    "rating": 4.9,
    "ratings": 65,
    "status": "OPERATIONAL",
    "tel": "(780) 760-6636",
    "twitter": "omenbrewingyeg",
    "website": "http://omenbrewing.com/"
  },
  {
    "address": "5769 4 St SE #110, Calgary, AB T2H 1K8, Canada",
    "avatar": true,
    "banner": true,
    "city": "Calgary",
    "description": "Connecting people from glacier to prairie over a pint of great beer.",
    "lat": 51.00261159999999,
    "lng": -114.0538293,
    "name": "Bow River Brewing",
    "postal": "T2H 1K8",
    "rating": 4.8,
    "ratings": 27,
    "status": "OPERATIONAL",
    "tel": "(403) 917-1088",
    "twitter": "BrewingBow",
    "website": "http://www.bowriverbrewing.ca/"
  },
  {
    "address": "1516 10 Ave SW, Calgary, AB T3C 0J5, Canada",
    "avatar": true,
    "banner": true,
    "city": "Calgary",
    "description": "At home in the West Village, Sunalta‚Äôs Two House Brew House is putting its own spin on classic beers!",
    "lat": 51.0444785,
    "lng": -114.095999,
    "name": "Two House Brewing Company",
    "postal": "T3C 0J5",
    "rating": 4.6,
    "ratings": 58,
    "status": "OPERATIONAL",
    "tel": "(403) 287-0215",
    "twitter": "twohousebrew",
    "website": "http://twohousebrew.com/"
  },
  {
    "address": "612 3rd St SE, Medicine Hat, AB T1A 0H5, Canada",
    "avatar": false,
    "banner": false,
    "city": "Medicine Hat",
    "lat": 50.03996,
    "lng": -110.675343,
    "name": "Travois Ale Works",
    "postal": "T1A 0H5",
    "rating": 4.8,
    "ratings": 110,
    "status": "OPERATIONAL",
    "tel": "(587) 289-1000",
    "website": "http://travoisbeer.com/"
  },
  {
    "address": "112-328 7 St E, Brooks, AB T1R 1C8, Canada",
    "avatar": true,
    "banner": true,
    "city": "Brooks",
    "description": "Diversity Is Our Heritage, Diversity In Our Beer",
    "lat": 50.5656786,
    "lng": -111.882849,
    "name": "Newell Brewing Company",
    "postal": "T1R 1C8",
    "rating": 4.9,
    "ratings": 8,
    "status": "OPERATIONAL",
    "tel": "(403) 793-2378",
    "twitter": "BrewingNewell",
    "website": "http://newellbrewing.ca/"
  },
  {
    "address": "3775 61 Ave, Innisfail, AB T4G 1V9, Canada",
    "avatar": true,
    "banner": true,
    "city": "Innisfail",
    "description": "Brewery",
    "lat": 52.020713,
    "lng": -113.980996,
    "name": "Field & Forge Brewing Co.",
    "postal": "T4G 1V9",
    "rating": 4.4,
    "ratings": 54,
    "status": "OPERATIONAL",
    "tel": "(587) 876-0511",
    "twitter": "fieldforgebeer",
    "website": "https://www.fieldandforge.ca/"
  },
  {
    "address": "1301 E Belknap St, Fort Worth, TX 76102, USA",
    "avatar": false,
    "banner": false,
    "city": "Fort Worth",
    "lat": 32.7624065,
    "lng": -97.32450109999999,
    "name": "COWTOWN BREWING COMPANY",
    "postal": "76102",
    "rating": 4.6,
    "ratings": 592,
    "status": "OPERATIONAL",
    "tel": "(817) 489-5800",
    "website": "https://www.cowtownbrewco.com/"
  },
  {
    "address": "1217B 9 Ave SE, Calgary, AB T2G 0S9, Canada",
    "avatar": true,
    "banner": true,
    "city": "Calgary",
    "description": "Retro Arcade, Nano Brewery, Coming to Calgary in 2018",
    "lat": 51.0415867,
    "lng": -114.0358228,
    "name": "Revival Brewcade",
    "postal": "T2G 0S9",
    "rating": 4.5,
    "ratings": 146,
    "status": "OPERATIONAL",
    "tel": "(587) 893-2337",
    "twitter": "revivalbrewcade",
    "website": "http://www.revivalbrewcade.com/"
  },
  {
    "address": "10985 38 St NE #109, Calgary, AB T3N 1E7, Canada",
    "avatar": true,
    "banner": true,
    "city": "Calgary",
    "description": "Independent, Calgary based Craft Brewery... great beer available now!",
    "lat": 51.15222620000001,
    "lng": -113.9785804,
    "name": "Rapid Ascent Brewery",
    "postal": "T3N 1E7",
    "rating": 4.1,
    "ratings": 15,
    "status": "OPERATIONAL",
    "tel": "(403) 214-9813",
    "twitter": "RapidAscentBrew",
    "website": "https://rapidascentbrewing.com/"
  },
  {
    "address": "105 Bow Meadows Crescent Unit 112, Canmore, AB T1W 2W8, Canada",
    "avatar": true,
    "banner": false,
    "city": "Canmore",
    "description": "The adventures of a small batch brewery in Canmoreüçªü§∑‚Äç‚ôÇÔ∏èü§∑‚Äç‚ôÇÔ∏èü§∑‚Äç‚ôÇÔ∏èüèî #sheepdogbrewing #canmore #alberta #craftbeer #drinklocal",
    "lat": 51.07615149999999,
    "lng": -115.3193006,
    "name": "Sheepdog Brewing",
    "postal": "T1W 2W8",
    "rating": 4.8,
    "ratings": 30,
    "status": "OPERATIONAL",
    "tel": "(403) 679-4009",
    "twitter": "SheepdogBrewing",
    "website": "http://sheepdogbrewing.com/"
  },
  {
    "address": "40 Airport Rd NW, Edmonton, AB T5G 0W7, Canada",
    "avatar": true,
    "banner": true,
    "city": "Edmonton",
    "description": "We are a takeout, curbside pickup & delivery operation. Hopefully not for too much longer...we miss you.",
    "lat": 53.5677454,
    "lng": -113.5204271,
    "name": "The Growlery Beer Co.",
    "postal": "T5G 0W7",
    "rating": 4.9,
    "ratings": 27,
    "status": "OPERATIONAL",
    "tel": "(587) 497-7714",
    "twitter": "GrowleryBeer",
    "website": "http://www.growlerybeer.com/"
  },
  {
    "address": "242 3 Ave W, Drumheller, AB T0J 0Y4, Canada",
    "avatar": false,
    "banner": false,
    "city": "Drumheller",
    "lat": 51.464001,
    "lng": -112.711392,
    "name": "Valley Brewing",
    "postal": "T0J 0Y4",
    "rating": 4.9,
    "ratings": 22,
    "status": "OPERATIONAL",
    "tel": "(403) 823-3823",
    "website": "http://www.valleybrewing.ca/"
  },
  {
    "address": "3300 14 Ave NE Unit 7, Calgary, AB T2A 6J4, Canada",
    "avatar": true,
    "banner": false,
    "city": "Calgary",
    "description": "100% dedicated gluten free brewery in Calgary AB.",
    "lat": 51.0658195,
    "lng": -113.9873334,
    "name": "Heathen's Brewing Inc.",
    "postal": "T2A 6J4",
    "rating": 4.8,
    "ratings": 19,
    "status": "OPERATIONAL",
    "tel": null,
    "twitter": "brewing_s",
    "website": "http://heathensbrewing.ca/"
  },
  {
    "address": "3500 9 Ave N, Lethbridge, AB T1H 5E3, Canada",
    "avatar": false,
    "banner": false,
    "city": "Lethbridge",
    "lat": 49.7122938,
    "lng": -112.7905117,
    "name": "Spectrum Ale Works",
    "postal": "T1H 5E3",
    "rating": 5,
    "ratings": 18,
    "status": "OPERATIONAL",
    "tel": "(587) 813-6836",
    "website": "https://spectrumaleworks.com/"
  },
  {
    "address": "4720 50 St, Innisfail, AB T4G 1P8, Canada",
    "avatar": true,
    "banner": false,
    "city": "Innisfail",
    "description": "Small town Brewery located in Innisfail Alberta",
    "lat": 52.0279345,
    "lng": -113.9438912,
    "name": "Dark Woods Brewing",
    "postal": "T4G 1P8",
    "rating": 4.9,
    "ratings": 15,
    "status": "OPERATIONAL",
    "tel": "(403) 227-3630",
    "twitter": "darkwoodbrewing",
    "website": "http://darkwoodsbrewing.com/"
  },
  {
    "address": "12021 102 Ave #105, Edmonton, AB T5K 0R8, Canada",
    "avatar": true,
    "banner": true,
    "city": "Edmonton",
    "description": "Good cheer, better beer.",
    "lat": 53.5425507,
    "lng": -113.5305578,
    "name": "Odd Company Brewing",
    "postal": "T5K 0R8",
    "rating": 4.7,
    "ratings": 82,
    "status": "OPERATIONAL",
    "tel": "(587) 590-9973",
    "twitter": "Oddcompanyyeg",
    "website": "http://oddcompany.ca/"
  },
  {
    "address": "2919 Ellwood Dr SW, Edmonton, AB T6X 0B1, Canada",
    "avatar": true,
    "banner": true,
    "city": "Edmonton",
    "description": "Town Square Brewing Co. A community based craft brewing company located in South Edmonton. Brewing change in our community. Opening fall 2017",
    "lat": 53.42901639999999,
    "lng": -113.4785563,
    "name": "Town Square Brewing Co.",
    "postal": "T6X 0B1",
    "rating": 4.7,
    "ratings": 447,
    "status": "OPERATIONAL",
    "tel": "(780) 244-0212",
    "twitter": "townsquarebrew",
    "website": "http://www.townsquarebrewing.com/"
  },
  {
    "address": "10257 105 St NW, Edmonton, AB T5J 1E3, Canada",
    "avatar": true,
    "banner": true,
    "city": "Edmonton",
    "description": "Edmonton's newest craft brewery.\nNow open! 10257 105 St NW Edmonton\n#campiobrewing #albeerta #drinklikeacampion",
    "lat": 53.54421199999999,
    "lng": -113.500582,
    "name": "Campio Brewing Co.",
    "postal": "T5J 1E3",
    "rating": 4.6,
    "ratings": 103,
    "status": "OPERATIONAL",
    "tel": "(587) 635-1953",
    "twitter": "campiobrewing",
    "website": "http://www.campiobrewingco.com/"
  },
  {
    "address": "10229 105 St NW, Edmonton, AB T5J 1E3, Canada",
    "avatar": true,
    "banner": true,
    "city": "Edmonton",
    "description": "Craft Brewery in downtown #YEG | Serving fresh & local beer | Full service banquet facility for private events | Open: Mon to Thurs 4-9 / Fri + Sat 11-9",
    "lat": 53.5437427,
    "lng": -113.5006091,
    "name": "Yellowhead Brewery",
    "postal": "T5J 1E3",
    "rating": 4.3,
    "ratings": 131,
    "status": "OPERATIONAL",
    "tel": "(780) 423-3333",
    "twitter": "YellowheadBeer",
    "website": "http://www.yellowheadbrewery.com/"
  },
  {
    "address": "306-401 Coopers Blvd SW, Airdrie, AB T4B 4J3, Canada",
    "avatar": true,
    "banner": true,
    "city": "Airdrie",
    "description": "\"Fine Ales Make Friends\". Located at 306, 401 Coopers Blvd, Airdrie, Alberta. T4B 4J3 Tues-Fri 3-10pm, Sat 2-10pm, Sunday 12-6pm",
    "lat": 51.2577709,
    "lng": -114.0231465,
    "name": "Balzac Craft Brewing Company",
    "postal": "T4B 4J3",
    "rating": 4.9,
    "ratings": 38,
    "status": "OPERATIONAL",
    "tel": "(587) 254-1957",
    "twitter": "BalzacCraft",
    "website": "http://www.balzaccraftbrewing.com/"
  },
  {
    "address": "41 Elizabeth St, Okotoks, AB T1S 1M3, Canada",
    "avatar": true,
    "banner": true,
    "city": "Okotoks",
    "description": "We are community driven, collaboration junkies, who live to teach others to know and brew beer, and happen to own a microbrewery in Okotoks, Alberta.",
    "lat": 50.725315,
    "lng": -113.977756,
    "name": "Hub Town Brewing",
    "postal": "T1S 1M3",
    "rating": 4.8,
    "ratings": 98,
    "status": "OPERATIONAL",
    "tel": "(403) 826-6864",
    "twitter": "HubTown_Brewing",
    "website": "http://www.hubtownbrewing.com/"
  },
  {
    "address": "9212 113 St, Fairview, AB T0H 1L0, Canada",
    "avatar": true,
    "banner": true,
    "city": "Fairview",
    "description": "Craft Brewery and Family Restaurant üìç Fairview, Alberta",
    "lat": 56.0565819,
    "lng": -118.391985,
    "name": "Heilan Beer House",
    "postal": "T0H 1L0",
    "rating": 4.6,
    "ratings": 27,
    "status": "OPERATIONAL",
    "tel": "(780) 306-7686",
    "twitter": "BeerHeilan",
    "website": null
  },
  {
    "address": "15103 Surveyor Blvd, Addison, TX 75001, USA",
    "avatar": true,
    "banner": true,
    "city": "Addison",
    "description": "Bitter Sisters is a family-run brewery in Calgary AB. We serve good food and cold beer, come say hi.",
    "lat": 32.9547222,
    "lng": -96.84722219999999,
    "name": "Bitter Sisters Brewing Co.",
    "postal": "75001",
    "rating": 4.7,
    "ratings": 136,
    "status": "OPERATIONAL",
    "tel": "(972) 479-0949",
    "twitter": "BitterSisYYC",
    "website": "http://www.bittersistersbrewery.com/"
  },
  {
    "address": "10801 20 Avenue Blairmore, Crowsnest Pass, AB T0K 0E0, Canada",
    "avatar": true,
    "banner": false,
    "city": null,
    "description": "Small batch 10 barrel brewhouse with approachable beer styles to be enjoyed after a day in the mountains.",
    "lat": 49.6174006,
    "lng": -114.4607391,
    "name": "The Pass Beer Co.",
    "postal": "T0K 0E0",
    "rating": 5,
    "ratings": 4,
    "status": "OPERATIONAL",
    "tel": "(403) 753-1100",
    "twitter": "pass_beer",
    "website": "http://www.thepassbeer.ca/"
  },
  {
    "address": "541 Kingsview Way SE Unit 104, Airdrie, AB T4A 0C9, Canada",
    "avatar": true,
    "banner": true,
    "city": "Airdrie",
    "description": "Online orders live for pick up.\nDelivery to the Airdrie area.\nhttps://t.co/Ctmsq12HTC",
    "lat": 51.2612934,
    "lng": -113.9973826,
    "name": "948 Brewing Company Ltd.",
    "postal": "T4A 0C9",
    "rating": 5,
    "ratings": 6,
    "status": "OPERATIONAL",
    "tel": "(403) 948-2337",
    "twitter": "948Brewing",
    "website": "http://www.948brewing.ca/"
  },
  {
    "address": "9918 100 St #101a, Morinville, AB T8R 1K8, Canada",
    "avatar": false,
    "banner": false,
    "city": "Morinville",
    "lat": 53.8009676,
    "lng": -113.6456831,
    "name": "Sturgeon Brewing Company",
    "postal": "T8R 1K8",
    "rating": 5,
    "ratings": 2,
    "status": "OPERATIONAL",
    "tel": null,
    "website": null
  },
  {
    "address": "836 1 Ave NW - Box 70065, Airdrie, AB T4B 0V9, Canada",
    "avatar": false,
    "banner": false,
    "city": "Airdrie",
    "lat": 51.2930608,
    "lng": -114.0242795,
    "name": "Federation of Beer",
    "postal": "T4B 0V9",
    "rating": null,
    "ratings": null,
    "status": "OPERATIONAL",
    "tel": "(406) 730-1500",
    "website": "http://federationofbeer.com/"
  },
  {
    "address": "9914 Morrison St, Fort McMurray, AB T9H 1V2, Canada",
    "avatar": true,
    "banner": true,
    "city": "Fort McMurray",
    "description": "Creating a community-focused beer culture since 2013.",
    "lat": 56.72900800000001,
    "lng": -111.385648,
    "name": "Wood Buffalo Brewing Company",
    "postal": "T9H 1V2",
    "rating": 4.1,
    "ratings": 455,
    "status": "CLOSED_PERMANENTLY",
    "tel": "(587) 276-0022",
    "twitter": "WoodBuffaloBrew",
    "website": null
  },
  {
    "address": "5543 Township Rd 302, Water Valley, AB T0M 2E0, Canada",
    "avatar": true,
    "banner": true,
    "city": "Water Valley",
    "description": "Family owned and operated in the Water Valley area, we give the people what they want. Turns out they want amazing mead and a great story.",
    "lat": 51.5593639,
    "lng": -114.6950311,
    "name": "Fallentimber Meadery",
    "postal": "T0M 2E0",
    "rating": 4.9,
    "ratings": 37,
    "status": "OPERATIONAL",
    "tel": "(403) 637-2667",
    "twitter": "FTMeadery",
    "website": "http://fallentimbermeadery.ca/"
  }
]