[
  {
    "address": "15 W 8th Ave, Vancouver, BC V5Y 1M8, Canada",
    "avatar": true,
    "banner": true,
    "city": "Vancouver",
    "description": "2018 BC Brewery of the Year üèÜ",
    "lat": 49.2639299,
    "lng": -123.1053388,
    "name": "33 Acres Brewing Company",
    "postal": "V5Y 1M8",
    "rating": 4.5,
    "ratings": 730,
    "status": "OPERATIONAL",
    "tel": "(604) 620-4589",
    "twitter": "33Acres",
    "website": "http://33acresbrewing.com/"
  },
  {
    "address": "150 Mansfield Dr, Courtenay, BC V9N 6C5, Canada",
    "avatar": true,
    "banner": true,
    "city": "Courtenay",
    "description": "Courtenay BC Micro Brewery open Spring 2019.Enjoy quality brew in a welcoming, comfortable atmosphere.Vintage Aviation theme reflect Canada's Air Force history.",
    "lat": 49.678016,
    "lng": -124.98191,
    "name": "Ace Brewing Company Ltd",
    "postal": "V9N 6C5",
    "rating": 4.7,
    "ratings": 29,
    "status": "OPERATIONAL",
    "tel": "(250) 338-1182",
    "twitter": "AceBrewery",
    "website": "https://www.facebook.com/acebrewingcompany/"
  },
  {
    "address": "1507 Powell St, Vancouver, BC V5L 5C3, Canada",
    "avatar": true,
    "banner": true,
    "city": "Vancouver",
    "description": "Artisanal Brewery in Vancouver, BC, Canada, offering a unique blend of South American and Canadian flavours! ¬°Salud! #andinafamily",
    "lat": 49.28361109999999,
    "lng": -123.0738889,
    "name": "Andina Brewing Company",
    "postal": "V5L 5C3",
    "rating": 4.3,
    "ratings": 325,
    "status": "OPERATIONAL",
    "tel": "(604) 253-2400",
    "twitter": "AndinaBrewingCo",
    "website": "http://www.andinabrewing.ca/"
  },
  {
    "address": "343 Front St, Kaslo, BC V0G 1M0, Canada",
    "avatar": false,
    "banner": false,
    "city": "Kaslo",
    "lat": 49.9115972,
    "lng": -116.9034513,
    "name": "Angry Hen Brewing Co.",
    "postal": "V0G 1M0",
    "rating": 4.8,
    "ratings": 47,
    "status": "OPERATIONAL",
    "tel": "(250) 353-7446",
    "website": "http://www.angryhenbrewing.com/"
  },
  {
    "address": "30 Capilano Way #11, New Westminster, BC V3L 5M3, Canada",
    "avatar": true,
    "banner": true,
    "city": "New Westminster",
    "description": "If you want Another Beer you‚Äôll need to come to New Westminster | Sapperton‚Äôs Brewery District",
    "lat": 49.2256609,
    "lng": -122.8858923,
    "name": "Another Beer Co.",
    "postal": "V3L 5M3",
    "rating": 4.7,
    "ratings": 64,
    "status": "OPERATIONAL",
    "tel": "(604) 515-9093",
    "twitter": "anotherbeerco",
    "website": "http://anotherbeerco.com/"
  },
  {
    "address": "405-1201 Commercial Way, Squamish, BC V8B 0R5, Canada",
    "avatar": true,
    "banner": true,
    "city": "Squamish",
    "description": "Backcountry brewing is coming to Squamish this winter.",
    "lat": 49.72378519999999,
    "lng": -123.1542358,
    "name": "Backcountry Brewing",
    "postal": "V8B 0R5",
    "rating": 4.5,
    "ratings": 281,
    "status": "OPERATIONAL",
    "tel": "(604) 567-2739",
    "twitter": "Backcountry604",
    "website": "http://www.backcountrybrewing.com/"
  },
  {
    "address": "460 Baker St, Nelson, BC V1L 4H8, Canada",
    "avatar": true,
    "banner": true,
    "city": "Nelson",
    "description": "Hand crafted ales and lagers, brewed in the heart of Nelson on Baker St.   Join us for a pint or two in the taproom, or grab a growler to go.",
    "lat": 49.49156720000001,
    "lng": -117.2945281,
    "name": "Backroads Brewing Company",
    "postal": "V1L 4H8",
    "rating": 4.7,
    "ratings": 97,
    "status": "OPERATIONAL",
    "tel": "(778) 463-3361",
    "twitter": "backroadsbrews",
    "website": "http://backroadsbrewing.com/"
  },
  {
    "address": "7861 Tugwell Rd, Sooke, BC V9Z 0J7, Canada",
    "avatar": true,
    "banner": true,
    "city": "Sooke",
    "description": "",
    "lat": 48.402204,
    "lng": -123.785088,
    "name": "Bad Dog Brewing Company",
    "postal": "V9Z 0J7",
    "rating": 4.8,
    "ratings": 47,
    "status": "OPERATIONAL",
    "tel": "(250) 642-3621",
    "twitter": "BadDogBrew",
    "website": "https://bad-dog-brewing-company.business.site/"
  },
  {
    "address": "169 Estabrook Ave, Penticton, BC V2A 1G2, Canada",
    "avatar": true,
    "banner": true,
    "city": "Penticton",
    "description": "Local Craft Brewery/Restaurant opened July 12th, 2014. Come on down for a taste! Visit us on the dark side of good!",
    "lat": 49.500576,
    "lng": -119.596312,
    "name": "Bad Tattoo Brewing",
    "postal": "V2A 1G2",
    "rating": 4.6,
    "ratings": 438,
    "status": "OPERATIONAL",
    "tel": "(250) 493-8686",
    "twitter": "BTBrewing",
    "website": "http://www.badtattoobrewing.com/"
  },
  {
    "address": "185 Davie St, Quesnel, BC V2J 2S8, Canada",
    "avatar": true,
    "banner": true,
    "city": "Quesnel",
    "description": "Celebrating the history of BC's gold rush town, we are the Cariboo's craft brewery.",
    "lat": 52.9752352,
    "lng": -122.4931044,
    "name": "Barkerville Brewing Co.",
    "postal": "V2J 2S8",
    "rating": 4.7,
    "ratings": 72,
    "status": "OPERATIONAL",
    "tel": "(778) 414-2739",
    "twitter": "BarkervilleBeer",
    "website": "http://barkervillebeer.com/"
  },
  {
    "address": "20 Shuswap St N, Salmon Arm, BC V1E 4H7, Canada",
    "avatar": false,
    "banner": false,
    "city": "Salmon Arm",
    "lat": 50.6996068,
    "lng": -119.2847499,
    "name": "Barley Station Brewpub",
    "postal": "V1E 4H7",
    "rating": 4.4,
    "ratings": 898,
    "status": "OPERATIONAL",
    "tel": "(250) 832-0999",
    "website": "http://www.barleystation.com/"
  },
  {
    "address": "6655 60 Ave, Delta, BC V4K 4E2, Canada",
    "avatar": true,
    "banner": true,
    "city": "Delta",
    "description": "A true on-farm brewery. Good beer, grown here.",
    "lat": 49.1119712,
    "lng": -123.0390242,
    "name": "BARNSIDE BREWING CO",
    "postal": "V4K 4E2",
    "rating": 4.9,
    "ratings": 26,
    "status": "OPERATIONAL",
    "tel": "(778) 434-2264",
    "twitter": "barnsidebrewing",
    "website": "http://www.barnsidebrewing.ca/"
  },
  {
    "address": "594 11 Ave, Campbell River, BC V9W 4G4, Canada",
    "avatar": false,
    "banner": false,
    "city": "Campbell River",
    "lat": 50.02641389999999,
    "lng": -125.2482083,
    "name": "Beach Fire Brewing and Nosh House",
    "postal": "V9W 4G4",
    "rating": 4.6,
    "ratings": 158,
    "status": "OPERATIONAL",
    "tel": "(250) 914-3473",
    "website": "http://www.beachfirebrewing.ca/"
  },
  {
    "address": "10408 Alaska Rd N, Fort St John, BC V1J 1B2, Canada",
    "avatar": true,
    "banner": true,
    "city": "Fort St. John",
    "description": "Located in NE BC, we specialize in brewing Local Beer for Local Tastes! Life is brewtiful at Beard‚Äôs",
    "lat": 56.23964789999999,
    "lng": -120.8531309,
    "name": "Beards Brewing Co",
    "postal": "V1J 1B2",
    "rating": 4.5,
    "ratings": 32,
    "status": "OPERATIONAL",
    "tel": "(250) 262-4104",
    "twitter": "beards_brewing",
    "website": "http://beardsbrewing.ca/"
  },
  {
    "address": "5580 152 St, Surrey, BC V3S 5J9, Canada",
    "avatar": true,
    "banner": false,
    "city": "Surrey",
    "description": "We are a full service brewpub and restaurant that has been serving Surrey since June 1999.",
    "lat": 49.1038214,
    "lng": -122.8005517,
    "name": "Big Ridge Brewing Co.",
    "postal": "V3S 5J9",
    "rating": 4.1,
    "ratings": 1153,
    "status": "OPERATIONAL",
    "tel": "(604) 574-2739",
    "twitter": "BigRidgeBrewing",
    "website": "http://www.mjg.ca/big-ridge/"
  },
  {
    "address": "720 Copping St, North Vancouver, BC V7M 3N2, Canada",
    "avatar": true,
    "banner": true,
    "city": "North Vancouver",
    "description": "We are dedicated to brewing small batches for local customers. For us, it's the spirit of craftsmanship. For you, it's quality beer.",
    "lat": 49.3171148,
    "lng": -123.0925539,
    "name": "Black Kettle Brewing Company",
    "postal": "V7M 3N2",
    "rating": 4.5,
    "ratings": 141,
    "status": "OPERATIONAL",
    "tel": "(604) 537-8959",
    "twitter": "BlackKettleBeer",
    "website": "http://www.blackkettlebrewing.com/"
  },
  {
    "address": "1250 Ellis St, Kelowna, BC V1Y 1Z4, Canada",
    "avatar": true,
    "banner": true,
    "city": "Kelowna",
    "description": "Independent and locally-owned & operated craft brewery in Kelowna, BC. We love to share our passion for craft beer, delicious food, & warm hospitality!",
    "lat": 49.8929357,
    "lng": -119.4939283,
    "name": "BNA Brewing Co. & Eatery",
    "postal": "V1Y 1Z4",
    "rating": 4.5,
    "ratings": 1901,
    "status": "OPERATIONAL",
    "tel": "(236) 420-0025",
    "twitter": "BNABrewing",
    "website": "http://bnabrewing.com/"
  },
  {
    "address": "1488 Adanac St, Vancouver, BC V5L 3J7, Canada",
    "avatar": true,
    "banner": true,
    "city": "Vancouver",
    "description": "East Vancouver Craft Brewery | TASTING ROOM NOW OPEN 12pm-11pm EVERYDAY! | Beer Tasting, Growler Fills & Retail",
    "lat": 49.2774278,
    "lng": -123.0745619,
    "name": "Bomber Brewing",
    "postal": "V5L 3J7",
    "rating": 4.5,
    "ratings": 197,
    "status": "OPERATIONAL",
    "tel": "(604) 428-7457",
    "twitter": "BomberBrewing",
    "website": "http://www.bomberbrewing.com/"
  },
  {
    "address": "2148 Main St, Vancouver, BC V5T 3C5, Canada",
    "avatar": true,
    "banner": true,
    "city": "Vancouver",
    "description": "Essential Beer Services. 2148 Main Street. Mount Pleasant. Vancouver.",
    "lat": 49.2657932,
    "lng": -123.100462,
    "name": "Brassneck Brewery",
    "postal": "V5T 3C5",
    "rating": 4.6,
    "ratings": 576,
    "status": "OPERATIONAL",
    "tel": "(604) 259-7686",
    "twitter": "Brassneckbrew",
    "website": "http://brassneck.ca/"
  },
  {
    "address": "97 E 2nd Ave, Vancouver, BC V5T 1B3, Canada",
    "avatar": true,
    "banner": true,
    "city": "Vancouver",
    "description": "DINE IN | Now open. TAKEOUT | 20% off all food. DELIVERY | Free delivery on @skipthedishes\nCheck out our menuüëá",
    "lat": 49.2694506,
    "lng": -123.1035126,
    "name": "BREWHALL",
    "postal": "V5T 1B3",
    "rating": 4,
    "ratings": 467,
    "status": "OPERATIONAL",
    "tel": "(604) 709-8623",
    "twitter": "brewhallyvr",
    "website": "http://brewhall.com/"
  },
  {
    "address": "1448 Charlotte Rd, North Vancouver, BC V7J 1H2, Canada",
    "avatar": true,
    "banner": true,
    "city": "North Vancouver",
    "description": "We're a #craft #brewery located on the beautiful North Shore. Come visit us at 1448 Charlotte Road! Tasting room open from 11-11 each dayüçªüåÆ",
    "lat": 49.3100803,
    "lng": -123.0338619,
    "name": "Bridge Brewing Company",
    "postal": "V7J 1H2",
    "rating": 4.6,
    "ratings": 274,
    "status": "OPERATIONAL",
    "tel": "(604) 770-2739",
    "twitter": "bridgebrewcrew",
    "website": "http://www.bridgebrewing.com/"
  },
  {
    "address": "250-12240 Second Ave, Richmond, BC V7E 3L8, Canada",
    "avatar": false,
    "banner": false,
    "city": "Richmond",
    "lat": 49.1243263,
    "lng": -123.1839341,
    "name": "Britannia Brewing Company",
    "postal": "V7E 3L8",
    "rating": 4.4,
    "ratings": 595,
    "status": "OPERATIONAL",
    "tel": "(604) 270-9252",
    "website": "http://www.britanniasteveston.ca/"
  },
  {
    "address": "3860 1 Ave, Smithers, BC V0J 2N2, Canada",
    "avatar": false,
    "banner": false,
    "city": "Smithers",
    "lat": 54.78059,
    "lng": -127.172976,
    "name": "Bulkley Valley Brewery",
    "postal": "V0J 2N2",
    "rating": 4.8,
    "ratings": 43,
    "status": "OPERATIONAL",
    "tel": "(778) 640-4677",
    "website": "http://www.bulkleyvalleybrewery.com/"
  },
  {
    "address": "1338 Franklin St, Vancouver, BC V5L 1N9, Canada",
    "avatar": true,
    "banner": true,
    "city": "Vancouver",
    "description": "Callister Brewing is a collaborative brewery in East Vancouver specializing in small batch craft beers and sodas. \nOpen 7 days a week.",
    "lat": 49.2820701,
    "lng": -123.076187,
    "name": "Callister Brewing Co.",
    "postal": "V5L 1N9",
    "rating": 4.4,
    "ratings": 168,
    "status": "OPERATIONAL",
    "tel": "(604) 569-2739",
    "twitter": "callisterbeer",
    "website": "http://www.callisterbrewing.com/"
  },
  {
    "address": "19664 64 Ave, Langley City, BC V2Y 3J6, Canada",
    "avatar": true,
    "banner": true,
    "city": "Langley City",
    "description": "Beer boot camp is a full day indaba focusing on delivering a high quality educational experience to South African brewers and beer enthusiasts.",
    "lat": 49.1185515,
    "lng": -122.6781443,
    "name": "CAMP BEER CO.",
    "postal": "V2Y 3J6",
    "rating": 4.8,
    "ratings": 58,
    "status": "OPERATIONAL",
    "tel": "(604) 427-4287",
    "twitter": "BeerBootCamp",
    "website": "https://www.campbeer.ca/"
  },
  {
    "address": "198 Ellis St, Penticton, BC V2A 4L5, Canada",
    "avatar": true,
    "banner": true,
    "city": "Penticton",
    "description": "Located amidst the breathtaking scenery of Penticton, BC, Canada, Cannery Brewing is a micro-brewery that produces individually hand-crafted fine beers.",
    "lat": 49.5007591,
    "lng": -119.5904008,
    "name": "Cannery Brewing",
    "postal": "V2A 4L5",
    "rating": 4.7,
    "ratings": 252,
    "status": "OPERATIONAL",
    "tel": "(250) 493-2723",
    "twitter": "CanneryBrewing",
    "website": "http://www.cannerybrewing.com/"
  },
  {
    "address": "450 Swift St, Victoria, BC V8W 1S3, Canada",
    "avatar": true,
    "banner": true,
    "city": "Victoria",
    "description": "#BrewedForVictoria",
    "lat": 48.4299437,
    "lng": -123.3708529,
    "name": "CANOE Brewpub",
    "postal": "V8W 1S3",
    "rating": 4.3,
    "ratings": 2240,
    "status": "OPERATIONAL",
    "tel": "(250) 361-1940",
    "twitter": "canoebrewpub",
    "website": "http://www.canoebrewpub.com/"
  },
  {
    "address": "2200 Keating Cross Rd C, Saanichton, BC V8M 2A6, Canada",
    "avatar": true,
    "banner": true,
    "city": "Saanichton",
    "description": "Getting beer to you safely and with gusto...check the link for delivery/pickup details, and don't forget to wash your hands!",
    "lat": 48.56538399999999,
    "lng": -123.4079191,
    "name": "Category 12 Brewing",
    "postal": "V8M 2A6",
    "rating": 4.8,
    "ratings": 122,
    "status": "OPERATIONAL",
    "tel": "(250) 652-9668",
    "twitter": "C12beer",
    "website": "http://www.category12beer.com/"
  },
  {
    "address": "11411 Bridgeview Dr, Surrey, BC V3R 0C2, Canada",
    "avatar": true,
    "banner": true,
    "city": "Surrey",
    "description": "Award-winning Craft Brewery + Distillery Home of @RedRacerBrew beer üçÅPassionately Crafting the World‚Äôs Finest Beers, Ciders & Spirits to Share with our Friends.",
    "lat": 49.20988209999999,
    "lng": -122.8637785,
    "name": "Central City Brewers & Distillers",
    "postal": "V3R 0C2",
    "rating": 4.2,
    "ratings": 180,
    "status": "OPERATIONAL",
    "tel": "(604) 588-2337",
    "twitter": "CentralCityBrew",
    "website": "https://centralcitybrewing.com/"
  },
  {
    "address": "1967 Triumph St, Vancouver, BC V5L 4C3, Canada",
    "avatar": true,
    "banner": true,
    "city": "Vancouver",
    "description": "We are a new craft brewery specializing in classic lagers, and innovative (but inoffensive) ales",
    "lat": 49.284244,
    "lng": -123.064398,
    "name": "Coal Harbour Brewing Company",
    "postal": "V5L 4C3",
    "rating": 4.2,
    "ratings": 18,
    "status": "CLOSED_PERMANENTLY",
    "tel": "(604) 215-7471",
    "twitter": "CoalHarBrew",
    "website": null
  },
  {
    "address": "2, 1212 Alpha Lake Rd #2, Whistler, BC V0N 1B1, Canada",
    "avatar": true,
    "banner": true,
    "city": "Whistler",
    "description": "The Coast Mountains are where adventure, natural beauty and great craft beer merge. Come visit us in Whistler's Function Junction for pints and growler fills.",
    "lat": 50.0891667,
    "lng": -123.0380557,
    "name": "Coast Mountain Brewing",
    "postal": "V0N 1B1",
    "rating": 4.9,
    "ratings": 157,
    "status": "OPERATIONAL",
    "tel": "(604) 962-3222",
    "twitter": "coastmtnbrewing",
    "website": "https://www.coastmountainbrewing.com/"
  },
  {
    "address": "1216 Franklin St, Vancouver, BC V6A 1K1, Canada",
    "avatar": false,
    "banner": false,
    "city": "Vancouver",
    "lat": 49.282172,
    "lng": -123.0786751,
    "name": "Container Brewing Ltd.",
    "postal": "V6A 1K1",
    "rating": 5,
    "ratings": 64,
    "status": "OPERATIONAL",
    "tel": "(778) 404-0657",
    "website": "http://containerbrewing.ca/"
  },
  {
    "address": "25 Craig St, Duncan, BC V9L 1V7, Canada",
    "avatar": false,
    "banner": false,
    "city": "Duncan",
    "lat": 48.777183,
    "lng": -123.708402,
    "name": "Craig Street Brew Pub",
    "postal": "V9L 1V7",
    "rating": 4.5,
    "ratings": 706,
    "status": "OPERATIONAL",
    "tel": "(250) 737-2337",
    "website": "http://www.csbrewery.ca/"
  },
  {
    "address": "706 Elson Rd, Sorrento, BC V0E 2W1, Canada",
    "avatar": false,
    "banner": false,
    "city": "Sorrento",
    "lat": 50.881038,
    "lng": -119.506724,
    "name": "Crannog Ales",
    "postal": "V0E 2W1",
    "rating": 4.5,
    "ratings": 46,
    "status": "OPERATIONAL",
    "tel": "(250) 675-6847",
    "website": "http://www.crannogales.com/"
  },
  {
    "address": "508 George St, Prince George, BC V2L 1R7, Canada",
    "avatar": true,
    "banner": true,
    "city": "Prince George",
    "description": "Fresh handcrafted beer from a new craft brewery now open in downtown Prince George, BC.",
    "lat": 53.9142835,
    "lng": -122.743729,
    "name": "CrossRoads Brewing",
    "postal": "V2L 1R7",
    "rating": 4.6,
    "ratings": 237,
    "status": "OPERATIONAL",
    "tel": "(250) 614-2337",
    "twitter": "crossroadscraft",
    "website": "http://www.crossroadscraft.com/"
  },
  {
    "address": "2732 Dunsmuir Ave, Cumberland, BC V0R 1S0, Canada",
    "avatar": true,
    "banner": true,
    "city": "Cumberland",
    "description": "Real beer. Brewed right here.",
    "lat": 49.6192803,
    "lng": -125.0281086,
    "name": "Cumberland Brewing Co.",
    "postal": "V0R 1S0",
    "rating": 4.7,
    "ratings": 189,
    "status": "OPERATIONAL",
    "tel": "(250) 400-2739",
    "twitter": "cumberlandbeer",
    "website": "http://www.cumberlandbrewing.com/"
  },
  {
    "address": "3191 Thunderbird Crescent #114, Burnaby, BC V5A 3G1, Canada",
    "avatar": true,
    "banner": true,
    "city": "Burnaby",
    "description": "Owner and head brewer of Dageraad Brewing. Desperately hoping nobody notices that my insincerity is affected.",
    "lat": 49.2560013,
    "lng": -122.9221131,
    "name": "Dageraad Brewing",
    "postal": "V5A 3G1",
    "rating": 4.7,
    "ratings": 238,
    "status": "OPERATIONAL",
    "tel": "(604) 420-2050",
    "twitter": "Ben_coli",
    "website": "https://dageraadbrewing.com/"
  },
  {
    "address": "8860 201 St #105, Langley Twp, BC V2Y 0C8, Canada",
    "avatar": true,
    "banner": true,
    "city": "Langley Township",
    "description": "An award winning craft brewery born and raised in the Fraser Valley. COLLECT EXPERIENCES, NOT THINGS. We've moved!  New address is #105 8860 201 St. Langley BC.",
    "lat": 49.1629505,
    "lng": -122.6667835,
    "name": "Dead Frog Brewery",
    "postal": "V2Y 0C8",
    "rating": 4.5,
    "ratings": 213,
    "status": "OPERATIONAL",
    "tel": "(604) 856-1055",
    "twitter": "DeadFrogBrewery",
    "website": "http://www.deadfrog.ca/"
  },
  {
    "address": "2270 Dollarton Hwy #170, North Vancouver, BC V7H 2M9, Canada",
    "avatar": false,
    "banner": false,
    "city": "North Vancouver",
    "lat": 49.3064224,
    "lng": -123.0116086,
    "name": "Deep Cove Brewers and Distillers",
    "postal": "V7H 2M9",
    "rating": 4.4,
    "ratings": 222,
    "status": "OPERATIONAL",
    "tel": "(604) 770-1136",
    "website": "http://www.deepcovecraft.com/"
  },
  {
    "address": "102-450 Hillside Ave, Victoria, BC V8T 1Y7, Canada",
    "avatar": true,
    "banner": true,
    "city": "Victoria",
    "description": "We live great beer. Find us on Facebook and Instagram @driftwoodbrewery",
    "lat": 48.4369524,
    "lng": -123.374247,
    "name": "Driftwood Brewery",
    "postal": "V8T 1Y7",
    "rating": 4.7,
    "ratings": 99,
    "status": "OPERATIONAL",
    "tel": "(250) 381-2739",
    "twitter": "driftwoodbeer",
    "website": "http://driftwoodbeer.com/"
  },
  {
    "address": "1675 Venables St, Vancouver, BC V5L 2H1, Canada",
    "avatar": true,
    "banner": true,
    "city": "Vancouver",
    "description": "East Van Brewing Company is a Vancouver based producer of fine brews branded for its namesake community in which it draws its inspiration.",
    "lat": 49.2767801,
    "lng": -123.0711016,
    "name": "East Van Brewing Company",
    "postal": "V5L 2H1",
    "rating": 4.5,
    "ratings": 183,
    "status": "OPERATIONAL",
    "tel": "(604) 558-3822",
    "twitter": "EastVanBrewing",
    "website": "http://www.eastvanbrewing.com/"
  },
  {
    "address": "1830 Ontario St, Vancouver, BC V5T 2W6, Canada",
    "avatar": true,
    "banner": true,
    "city": "Vancouver",
    "description": "Craft Brewery at 1830 Ontario Street, Vancouver!",
    "lat": 49.2686611,
    "lng": -123.1045444,
    "name": "Faculty Brewing Co.",
    "postal": "V5T 2W6",
    "rating": 4.5,
    "ratings": 236,
    "status": "OPERATIONAL",
    "tel": "(778) 819-6794 ext. 0",
    "twitter": "facultybrewing",
    "website": "http://www.facultybrewing.com/"
  },
  {
    "address": "20555 56 Ave #5, Langley City, BC V3A 3Y9, Canada",
    "avatar": true,
    "banner": true,
    "city": "Langley City",
    "description": "Brewmaster at Farm Country Brewing.",
    "lat": 49.1049262,
    "lng": -122.6515866,
    "name": "FARM COUNTRY BREWING",
    "postal": "V3A 3Y9",
    "rating": 4.9,
    "ratings": 37,
    "status": "OPERATIONAL",
    "tel": "(778) 819-2288",
    "twitter": "jack_the_brewer",
    "website": "https://farmcountrybrewing.com/"
  },
  {
    "address": "26 Manitou Rd, Fernie, BC V0B 1M5, Canada",
    "avatar": false,
    "banner": false,
    "city": "Fernie",
    "lat": 49.5266448,
    "lng": -115.0476116,
    "name": "Fernie Brewing Company",
    "postal": "V0B 1M5",
    "rating": 4.8,
    "ratings": 130,
    "status": "OPERATIONAL",
    "tel": "(250) 423-7797",
    "website": "http://www.ferniebrewing.com/"
  },
  {
    "address": "2281 W Railway St, Abbotsford, BC V2S 2E3, Canada",
    "avatar": true,
    "banner": false,
    "city": "Abbotsford",
    "description": "",
    "lat": 49.043009,
    "lng": -122.281803,
    "name": "Field House Brewing Co.",
    "postal": "V2S 2E3",
    "rating": 4.7,
    "ratings": 507,
    "status": "OPERATIONAL",
    "tel": "(604) 776-2739",
    "twitter": "HelloField",
    "website": "http://www.fieldhousebrewing.com/"
  },
  {
    "address": "6077 Main Street (Downstairs, Oliver, BC V0H 1T0, Canada",
    "avatar": true,
    "banner": true,
    "city": "Oliver",
    "description": "Firehall Brewery BEER SHOP & SOCIAL courageously crowdfunded 2016. EXTINGUISH YOUR THIRST with The Beer of Wine Country!",
    "lat": 49.1815137,
    "lng": -119.5503936,
    "name": "Firehall Brewery",
    "postal": "V0H 1T0",
    "rating": 4.8,
    "ratings": 40,
    "status": "OPERATIONAL",
    "tel": "(778) 439-2337",
    "twitter": "FirehallBrewery",
    "website": "http://www.firehallbrewery.com/"
  },
  {
    "address": "821 Baker St, Cranbrook, BC V1C 1A2, Canada",
    "avatar": false,
    "banner": false,
    "city": "Cranbrook",
    "lat": 49.5118556,
    "lng": -115.7691943,
    "name": "The Heid Out & Fisher Peak Brewing Company",
    "postal": "V1C 1A2",
    "rating": 4.7,
    "ratings": 293,
    "status": "OPERATIONAL",
    "tel": "(250) 426-7922",
    "website": "https://www.theheidout.ca/"
  },
  {
    "address": "6263 202 St #1, Langley City, BC V2Y 1N1, Canada",
    "avatar": true,
    "banner": true,
    "city": "Langley City",
    "description": "",
    "lat": 49.1162822,
    "lng": -122.6634236,
    "name": "Five Roads Brewing Co.",
    "postal": "V2Y 1N1",
    "rating": 4.8,
    "ratings": 46,
    "status": "OPERATIONAL",
    "tel": "(604) 539-6754",
    "twitter": "fiveroadsbrew",
    "website": "http://www.fiveroadsbrewing.com/"
  },
  {
    "address": "19221 122a Ave, Pitt Meadows, BC V3Y 2E9, Canada",
    "avatar": false,
    "banner": false,
    "city": "Pitt Meadows",
    "lat": 49.224843,
    "lng": -122.68905,
    "name": "Foamers' Folly Brewing Co.",
    "postal": "V3Y 2E9",
    "rating": 4.6,
    "ratings": 211,
    "status": "OPERATIONAL",
    "tel": "(604) 459-7837",
    "website": "http://foamersfolly.ca/"
  },
  {
    "address": "4-7355 72 St, Delta, BC V4G 1L5, Canada",
    "avatar": true,
    "banner": true,
    "city": "Delta",
    "description": "Craft Beer Brewed in Delta BC. Open 11:30am-7pm daily. Tacos & Tapas daily. 2015 Canadian Brewery of the Year. 2016 Canadian Beer of the year.",
    "lat": 49.1362321,
    "lng": -123.0270146,
    "name": "Four Winds Brewing Co.",
    "postal": "V4G 1L5",
    "rating": 4.7,
    "ratings": 347,
    "status": "OPERATIONAL",
    "tel": "(604) 940-9949",
    "twitter": "FourWindsBrewCo",
    "website": "http://shop.fourwindsbrewing.ca/"
  },
  {
    "address": "948 McCurdy Rd #124, Kelowna, BC V1X 2P7, Canada",
    "avatar": false,
    "banner": false,
    "city": "Kelowna",
    "lat": 49.9021622,
    "lng": -119.4052737,
    "name": "Freddy's Brewpub",
    "postal": "V1X 2P7",
    "rating": 3.9,
    "ratings": 171,
    "status": "OPERATIONAL",
    "tel": "(250) 765-8956",
    "website": "http://www.freddysbrewpub.com/"
  },
  {
    "address": "11220 Horseshoe Way #103, Richmond, BC V7A 4V5, Canada",
    "avatar": true,
    "banner": true,
    "city": "Richmond",
    "description": "#Richmond's Award Winning Craft Brewery! Open from 12pm-8pm. Check out our online shop for delivery and pick-up. 103-11220 Horseshoe way",
    "lat": 49.129436,
    "lng": -123.095434,
    "name": "Fuggles & Warlock Craftworks",
    "postal": "V7A 4V5",
    "rating": 4.6,
    "ratings": 270,
    "status": "OPERATIONAL",
    "tel": "(604) 285-7745",
    "twitter": "FugglesWarlock",
    "website": "http://fuggleswarlock.com/"
  },
  {
    "address": "244 4th St, Courtenay, BC V9N 1G6, Canada",
    "avatar": true,
    "banner": true,
    "city": "Courtenay",
    "description": "A small craft brewery on Vancouver Island making West Coast and Belgian inspired beers. Tasting lounge open 11am till late, seven days a week.",
    "lat": 49.691868,
    "lng": -124.998042,
    "name": "Gladstone Brewing Co.",
    "postal": "V9N 1G6",
    "rating": 4.5,
    "ratings": 198,
    "status": "OPERATIONAL",
    "tel": "(250) 871-1111",
    "twitter": "Gladstone_Beer",
    "website": "http://www.gladstonebrewing.ca/"
  },
  {
    "address": "1015 Marine Dr, North Vancouver, BC V7P 1S6, Canada",
    "avatar": true,
    "banner": true,
    "city": "North Vancouver",
    "description": "We brew the beers you don‚Äôt know you love yet. A North Vancouver brewery with a Tap & Forno restaurant, 11 beers on tap, growler fills and off sales.",
    "lat": 49.3236061,
    "lng": -123.102738,
    "name": "Hearthstone Brewery",
    "postal": "V7P 1S6",
    "rating": 4.1,
    "ratings": 208,
    "status": "OPERATIONAL",
    "tel": "(604) 984-1842",
    "twitter": "hearthstonebeer",
    "website": "http://www.hearthstonebrewery.ca/"
  },
  {
    "address": "954 Eckhardt Ave W, Penticton, BC V2A 2C1, Canada",
    "avatar": true,
    "banner": true,
    "city": "Penticton",
    "description": "Boutique style craft brewery in beautiful Penticton, British Columbia",
    "lat": 49.49422089999999,
    "lng": -119.6099087,
    "name": "Highway 97 Brewing Company",
    "postal": "V2A 2C1",
    "rating": 4.6,
    "ratings": 60,
    "status": "OPERATIONAL",
    "tel": "(250) 493-0323",
    "twitter": "hwy97beer",
    "website": "http://hwy97brewery.com/"
  },
  {
    "address": "350 Esplanade E, North Vancouver, BC V7L 1A4, Canada",
    "avatar": false,
    "banner": false,
    "city": "North Vancouver",
    "lat": 49.3077526,
    "lng": -123.0713637,
    "name": "House Of Funk Brewing",
    "postal": "V7L 1A4",
    "rating": 4.7,
    "ratings": 101,
    "status": "OPERATIONAL",
    "tel": "(604) 770-3676",
    "website": "https://www.houseoffunkbrewing.com/"
  },
  {
    "address": "37801 Cleveland Ave, Squamish, BC V8B 0A7, Canada",
    "avatar": true,
    "banner": true,
    "city": "Squamish",
    "description": "Craft brewery, pub and hotel linking Vancouver to beautiful Whistler and Pemberton, BC. Distributing in Canada and the USA.  Welcome to Sea to Sky Country!",
    "lat": 49.695541,
    "lng": -123.156376,
    "name": "Howe Sound Brewing",
    "postal": "V8B 0A7",
    "rating": 4.3,
    "ratings": 1944,
    "status": "OPERATIONAL",
    "tel": "(604) 892-2603",
    "twitter": "howesoundbeer",
    "website": "http://www.howesound.com/"
  },
  {
    "address": "101-2740 Bridge St, Victoria, BC V8T 5C5, Canada",
    "avatar": false,
    "banner": false,
    "city": "Victoria",
    "lat": 48.43707939999999,
    "lng": -123.3735301,
    "name": "Hoyne Brewing Company",
    "postal": "V8T 5C5",
    "rating": 4.8,
    "ratings": 144,
    "status": "OPERATIONAL",
    "tel": "(250) 590-5758",
    "website": "https://store.hoynebrewing.ca/"
  },
  {
    "address": "2960 Bridge St, Victoria, BC V8T 4T3, Canada",
    "avatar": false,
    "banner": false,
    "city": "Victoria",
    "lat": 48.4399997,
    "lng": -123.3737191,
    "name": "Ile Sauvage Brewing Co.",
    "postal": "V8T 4T3",
    "rating": 4.7,
    "ratings": 112,
    "status": "OPERATIONAL",
    "tel": null,
    "website": "http://www.ilesauvage.com/"
  },
  {
    "address": "980 Camosun Crescent, Kamloops, BC V2C 6G2, Canada",
    "avatar": true,
    "banner": false,
    "city": "Kamloops",
    "description": "",
    "lat": 50.6668229,
    "lng": -120.3675197,
    "name": "Iron Road Brewing",
    "postal": "V2C 6G2",
    "rating": 4.6,
    "ratings": 203,
    "status": "OPERATIONAL",
    "tel": "(778) 765-8160",
    "twitter": "ironroadbeer",
    "website": "http://www.ironroadbrewing.ca/"
  },
  {
    "address": "731 Baillie Ave, Kelowna, BC V1Y 7E9, Canada",
    "avatar": false,
    "banner": false,
    "city": "Kelowna",
    "lat": 49.896254,
    "lng": -119.487325,
    "name": "Kettle River Brewing Co.",
    "postal": "V1Y 7E9",
    "rating": 4.6,
    "ratings": 149,
    "status": "OPERATIONAL",
    "tel": "(250) 862-5115",
    "website": "http://kettleriverbrewing.ca/"
  },
  {
    "address": "2040 Guthrie Rd, Comox, BC V9M 3P6, Canada",
    "avatar": false,
    "banner": false,
    "city": "Comox",
    "lat": 49.6879196,
    "lng": -124.937065,
    "name": "Land & Sea Brewing Company Ltd.",
    "postal": "V9M 3P6",
    "rating": 4.6,
    "ratings": 100,
    "status": "OPERATIONAL",
    "tel": "(250) 941-5577",
    "website": "https://www.landandseabrewing.ca/"
  },
  {
    "address": "836 Devonshire Rd, Victoria, BC V9A 4T4, Canada",
    "avatar": true,
    "banner": true,
    "city": "Victoria",
    "description": "Premium craft beer since 1998. http://t.co/u5eXVwBnhK",
    "lat": 48.4364773,
    "lng": -123.3967591,
    "name": "Lighthouse Brewing",
    "postal": "V9A 4T4",
    "rating": 4.6,
    "ratings": 53,
    "status": "OPERATIONAL",
    "tel": "(250) 383-6500",
    "twitter": "LighthouseBeer",
    "website": "http://www.lighthousebrewing.com/"
  },
  {
    "address": "2046 Boxwood Rd, Nanaimo, BC V9S 5W7, Canada",
    "avatar": true,
    "banner": true,
    "city": "Nanaimo",
    "description": "Nestled in the heart of Vancouver Island, this unique brewery has partnered with local farmers to grow and malt quality barley and hops.",
    "lat": 49.186789,
    "lng": -123.9936306,
    "name": "Longwood Brewery",
    "postal": "V9S 5W7",
    "rating": 4.7,
    "ratings": 27,
    "status": "OPERATIONAL",
    "tel": "(250) 591-2739",
    "twitter": "LongwoodBrewery",
    "website": "http://longwoodbeer.com/"
  },
  {
    "address": "5775 Turner Rd, Nanaimo, BC V9T 6L8, Canada",
    "avatar": true,
    "banner": true,
    "city": "Nanaimo",
    "description": "Good Company. Great Food. Amazing Beer.",
    "lat": 49.22455069999999,
    "lng": -124.0353147,
    "name": "Longwood Brew Pub",
    "postal": "V9T 6L8",
    "rating": 4.4,
    "ratings": 1272,
    "status": "OPERATIONAL",
    "tel": "(250) 729-8225",
    "twitter": "LongwoodBrewpub",
    "website": "http://www.longwoodbrewpub.com/"
  },
  {
    "address": "4134 Island Hwy W #1, Qualicum Beach, BC V9K 2B2, Canada",
    "avatar": false,
    "banner": false,
    "city": "Qualicum Beach",
    "lat": 49.3652442,
    "lng": -124.5162406,
    "name": "LoveShack Libations",
    "postal": "V9K 2B2",
    "rating": 4.6,
    "ratings": 50,
    "status": "OPERATIONAL",
    "tel": "(250) 228-2477",
    "website": "http://loveshacklibations.com/"
  },
  {
    "address": "261 E 7th Ave, Vancouver, BC V5T 0B4, Canada",
    "avatar": true,
    "banner": true,
    "city": "Vancouver",
    "description": "Craft brewery - 5 core beers, 3 rotating seasonals and 4 casks that change often #themaincasks Open Mon to Thurs: 2-11pm Fri to Sun: 12pm-11pm #themainbeer",
    "lat": 49.2647272,
    "lng": -123.0993048,
    "name": "Main Street Brewing Co.",
    "postal": "V5T 0B4",
    "rating": 4.3,
    "ratings": 318,
    "status": "OPERATIONAL",
    "tel": "(604) 336-7711",
    "twitter": "mainstreetbeer",
    "website": "http://mainstreetbeer.ca/"
  },
  {
    "address": "1100 Lansdowne Dr H, Coquitlam, BC V3B 5E2, Canada",
    "avatar": true,
    "banner": true,
    "city": "Coquitlam",
    "description": "The Bold Mariner Brewing Company is a craft Brewery in Norfolk VA. B.M.B.C. brews traditional styles of quality craft ales.  Be Bold!",
    "lat": 49.2773483,
    "lng": -122.8097585,
    "name": "Mariner Brewing Company",
    "postal": "V3B 5E2",
    "rating": 4.6,
    "ratings": 166,
    "status": "OPERATIONAL",
    "tel": "(604) 467-4160",
    "twitter": "TheBoldMariner",
    "website": "http://www.marinerbrewing.ca/"
  },
  {
    "address": "490 Fernhill Rd, Mayne Island, BC V0N 2J2, Canada",
    "avatar": false,
    "banner": false,
    "city": "Mayne Island",
    "lat": 48.8484266,
    "lng": -123.2891149,
    "name": "Mayne Island Brewing Co.",
    "postal": "V0N 2J2",
    "rating": 5,
    "ratings": 26,
    "status": "OPERATIONAL",
    "tel": "(250) 526-0711",
    "website": "http://mayneislandbrewingco.com/"
  },
  {
    "address": "10128 95 Ave, Fort St John, BC V1J 1J1, Canada",
    "avatar": true,
    "banner": true,
    "city": "Fort St. John",
    "description": "A new production brewery and taproom coming to beautiful Fort St. John, British Columbia, in Spring-ish 2018 as BC‚Äôs most northern brewery!",
    "lat": 56.2417138,
    "lng": -120.8506336,
    "name": "Mighty Peace Brewing Co.",
    "postal": "V1J 1J1",
    "rating": 4.7,
    "ratings": 58,
    "status": "OPERATIONAL",
    "tel": "(250) 785-5535",
    "twitter": "MightyPeaceBeer",
    "website": "http://mightypeacebrewing.ca/"
  },
  {
    "address": "14200 Entertainment Blvd, Richmond, BC V6W 1A8, Canada",
    "avatar": true,
    "banner": false,
    "city": "Richmond",
    "description": "A place to come together over a perfectly poured pint and freshly baked pizza",
    "lat": 49.134701,
    "lng": -123.0647897,
    "name": "Monkey 9 Brewing Co",
    "postal": "V6W 1A8",
    "rating": 3.7,
    "ratings": 280,
    "status": "OPERATIONAL",
    "tel": "(604) 370-7363",
    "twitter": "monkey9brewing",
    "website": "http://www.monkey9.ca/"
  },
  {
    "address": "2601 Murray St, Port Moody, BC V3H 1X1, Canada",
    "avatar": true,
    "banner": true,
    "city": "Port Moody",
    "description": "Located on Port Moody's #brewersrow.  We are a local craft brewery with tasting room and patio.  Unique small batches and first home of the Crowler in Canada.",
    "lat": 49.278595,
    "lng": -122.854331,
    "name": "Moody Ales",
    "postal": "V3H 1X1",
    "rating": 4.6,
    "ratings": 372,
    "status": "OPERATIONAL",
    "tel": "(604) 492-3911",
    "twitter": "MoodyAles",
    "website": "http://www.moodyales.com/"
  },
  {
    "address": "350 Bay St, Victoria, BC V8T 1P7, Canada",
    "avatar": true,
    "banner": true,
    "city": "Victoria",
    "description": "Brewery, Pub and Distillery located in Victoria, BC. Great food, handcrafted beers, locally made spirits and a rotating selection of the best guest beers",
    "lat": 48.4352194,
    "lng": -123.3754917,
    "name": "Moon Under Water Brewpub",
    "postal": "V8T 1P7",
    "rating": 4.2,
    "ratings": 421,
    "status": "OPERATIONAL",
    "tel": "(250) 380-0706",
    "twitter": "MoonBrewery",
    "website": "http://www.moonunderwater.ca/"
  },
  {
    "address": "425 Stanford Ave E #109, Parksville, BC V9P 1V9, Canada",
    "avatar": false,
    "banner": false,
    "city": "Parksville",
    "lat": 49.31607899999999,
    "lng": -124.29906,
    "name": "Mount Arrowsmith Brewing Company",
    "postal": "V9P 1V9",
    "rating": 4.6,
    "ratings": 120,
    "status": "OPERATIONAL",
    "tel": "(250) 951-0125",
    "website": "http://arrowsmithbrewing.com/"
  },
  {
    "address": "2155 Oak Dr, Revelstoke, BC V0E 2S1, Canada",
    "avatar": true,
    "banner": true,
    "city": "Revelstoke",
    "description": "Brewing award winning beers in beautiful Revelstoke B.C. since 1996!",
    "lat": 50.99509320000001,
    "lng": -118.1652384,
    "name": "Mt Begbie Brewing Co Ltd",
    "postal": "V0E 2S1",
    "rating": 4.7,
    "ratings": 101,
    "status": "OPERATIONAL",
    "tel": "(250) 837-2756",
    "twitter": "MtBegbieBeer",
    "website": "http://www.mt-begbie.com/"
  },
  {
    "address": "512 Latimer St, Nelson, BC V1L 4T9, Canada",
    "avatar": true,
    "banner": true,
    "city": "Nelson",
    "description": "Organic Craft Beer hand made in the heart of the Kootenays",
    "lat": 49.4882187,
    "lng": -117.289768,
    "name": "Nelson Brewing Company",
    "postal": "V1L 4T9",
    "rating": 4.8,
    "ratings": 71,
    "status": "OPERATIONAL",
    "tel": "(250) 352-3582",
    "twitter": "NelsonBrewing",
    "website": "https://nelsonbrewing.com/"
  },
  {
    "address": "2150-570 Sherling Pl, Port Coquitlam, BC V3B 0J6, Canada",
    "avatar": true,
    "banner": true,
    "city": "Port Coquitlam",
    "description": "Hours: Mon-Tue CLOSED, Wed-Thurs 11-5, Fri-Sun 12-7",
    "lat": 49.2530691,
    "lng": -122.7332974,
    "name": "Northpaw Brew Co.",
    "postal": "V3B 0J6",
    "rating": 4.4,
    "ratings": 204,
    "status": "OPERATIONAL",
    "tel": "(604) 475-3660",
    "twitter": "Northpawbrewco",
    "website": "http://www.northpawbrewco.com/"
  },
  {
    "address": "30321 Fraser Hwy #1a, Abbotsford, BC V4X 1T3, Canada",
    "avatar": true,
    "banner": true,
    "city": "Abbotsford",
    "description": "Craft Brewery. Our hours are Sunday 11am-8pm Monday-Tuesday 11am-9pm Wednesday-Saturday 11am-10pm",
    "lat": 49.0564045,
    "lng": -122.3833501,
    "name": "Old Abbey Ales",
    "postal": "V4X 1T3",
    "rating": 4.4,
    "ratings": 112,
    "status": "OPERATIONAL",
    "tel": "(604) 607-5104",
    "twitter": "oldabbeyales18",
    "website": "http://www.oldabbeyales.com/"
  },
  {
    "address": "44550 S Sumas Rd #404, Chilliwack, BC V2R 5M3, Canada",
    "avatar": true,
    "banner": true,
    "city": "Chilliwack",
    "description": "We're a craft brewery proud to be located smack-dab in the middle of BC's outdoor playground; Chilliwack. \nYours to Explore.",
    "lat": 49.1180015,
    "lng": -121.9911093,
    "name": "Old Yale Brewing",
    "postal": "V2R 5M3",
    "rating": 4.7,
    "ratings": 144,
    "status": "OPERATIONAL",
    "tel": "(604) 392-2011",
    "twitter": "oldyalebrewing",
    "website": "https://www.oldyalebrewing.com/"
  },
  {
    "address": "136A Wallinger Ave, Kimberley, BC V1A 1Y8, Canada",
    "avatar": true,
    "banner": true,
    "city": "Kimberley",
    "description": "Good beer, brewed best in Kimberley, BC ‚Äî Canada's highest city.",
    "lat": 49.685924,
    "lng": -115.981614,
    "name": "Over Time Beer Works",
    "postal": "V1A 1Y8",
    "rating": 4.8,
    "ratings": 52,
    "status": "OPERATIONAL",
    "tel": "(250) 427-2426",
    "twitter": "overtimebeer",
    "website": "http://www.overtimebeer.ca/"
  },
  {
    "address": "1950 Triumph St, Vancouver, BC V5L 1K5, Canada",
    "avatar": true,
    "banner": true,
    "city": "Vancouver",
    "description": "Driven by thirst. Brewing up quality craft beers that will inspire the enthusiast in all of us.",
    "lat": 49.283834,
    "lng": -123.0643609,
    "name": "Parallel 49 Brewing Company",
    "postal": "V5L 1K5",
    "rating": 4.5,
    "ratings": 706,
    "status": "OPERATIONAL",
    "tel": "(604) 558-2739",
    "twitter": "Parallel49Beer",
    "website": "http://parallel49brewing.com/"
  },
  {
    "address": "1936 Stonecutter Pl, Mount Currie, BC V0N 2K0, Canada",
    "avatar": true,
    "banner": true,
    "city": "Mount Currie",
    "description": "Craft brewery, pub and hotel linking Vancouver to beautiful Whistler and Pemberton, BC. Distributing in Canada and the USA.  Welcome to Sea to Sky Country!",
    "lat": 50.3147414,
    "lng": -122.7279163,
    "name": "Pemberton Brewing Co",
    "postal": "V0N 2K0",
    "rating": 4.7,
    "ratings": 85,
    "status": "OPERATIONAL",
    "tel": "(604) 894-2337",
    "twitter": "howesoundbeer",
    "website": "http://www.pembertonbrewing.ca/"
  },
  {
    "address": "1053 Stewart Rd, Gibsons, BC V0N 1V7, Canada",
    "avatar": true,
    "banner": true,
    "city": "Gibsons",
    "description": "What would Nick and Relic drink? Probably our farm fresh beer. Fill your growler at 1053 Stewart Rd (a.k.a. the top of the Bypass).",
    "lat": 49.4207293,
    "lng": -123.5082525,
    "name": "Persephone Brewing Company",
    "postal": "V0N 1V7",
    "rating": 4.7,
    "ratings": 216,
    "status": "OPERATIONAL",
    "tel": "(778) 462-3007",
    "twitter": "PersephoneBeer",
    "website": "http://www.persephonebrewing.com/"
  },
  {
    "address": "2010 Government St, Victoria, BC V8T 4P1, Canada",
    "avatar": false,
    "banner": false,
    "city": "Victoria",
    "lat": 48.4320069,
    "lng": -123.3673987,
    "name": "Phillips Brewing & Malting",
    "postal": "V8T 4P1",
    "rating": 4.7,
    "ratings": 414,
    "status": "OPERATIONAL",
    "tel": "(250) 380-1912",
    "website": "http://phillipsbeer.com/"
  },
  {
    "address": "55 Dunlevy Ave, Vancouver, BC V6A 1G7, Canada",
    "avatar": true,
    "banner": true,
    "city": "Vancouver",
    "description": "Session style Craft Beer inspired by life on the West Coast #postmarkbrewing #SevenDayWeekend",
    "lat": 49.284319,
    "lng": -123.095659,
    "name": "Postmark Brewing",
    "postal": "V6A 1G7",
    "rating": 4.4,
    "ratings": 163,
    "status": "OPERATIONAL",
    "tel": "(604) 699-1988",
    "twitter": "postmarkbrewing",
    "website": "http://postmarkbrewing.com/"
  },
  {
    "address": "1357 Powell St, Vancouver, BC V5L 1G8, Canada",
    "avatar": true,
    "banner": true,
    "city": "Vancouver",
    "description": "Award - Winning, Small independent microbrewery producing high quality, full flavored handcrafted beers. Lounge Open 7 days a week.",
    "lat": 49.283323,
    "lng": -123.075781,
    "name": "Powell Brewery",
    "postal": "V5L 1G8",
    "rating": 4.3,
    "ratings": 156,
    "status": "OPERATIONAL",
    "tel": "(604) 558-2537",
    "twitter": "PowellBeer",
    "website": "http://www.powellbeer.com/"
  },
  {
    "address": "1-54 E 4th Ave, Vancouver, BC V5T 1E8, Canada",
    "avatar": true,
    "banner": true,
    "city": "Vancouver",
    "description": "Artisan pizzas and BC craft beer located in Brewery District of East Van. Open Sunday to Thursday from 11am to 11pm and Friday & Saturday 11am til Midnight.",
    "lat": 49.2672357,
    "lng": -123.1033402,
    "name": "R&B Ale & Pizza House",
    "postal": "V5T 1E8",
    "rating": 4.4,
    "ratings": 826,
    "status": "OPERATIONAL",
    "tel": "(604) 336-0275",
    "twitter": "rbalepizza",
    "website": "http://www.randbbrewing.com/"
  },
  {
    "address": "2485 Townline Rd, Abbotsford, BC V2T 6L6, Canada",
    "avatar": true,
    "banner": true,
    "city": "Abbotsford",
    "description": "Craft Brewery and Tasting Room located in\nAbbotsford, BC. #askforravens",
    "lat": 49.0474816,
    "lng": -122.3605183,
    "name": "Ravens Brewing Company",
    "postal": "V2T 6L6",
    "rating": 4.5,
    "ratings": 103,
    "status": "OPERATIONAL",
    "tel": "(604) 758-1557",
    "twitter": "RavensBrewing",
    "website": "http://ravens.beer/"
  },
  {
    "address": "5255 Chaster Rd, Duncan, BC V9L 5J2, Canada",
    "avatar": true,
    "banner": true,
    "city": "Duncan",
    "description": "Red Arrow Brewing is the culmination of great friendships and talents. Our beers are hand crafted in small batches to be intriguing and untamed, just like us.",
    "lat": 48.762772,
    "lng": -123.690308,
    "name": "Red Arrow Brewing Company",
    "postal": "V9L 5J2",
    "rating": 4.7,
    "ratings": 85,
    "status": "OPERATIONAL",
    "tel": "(250) 597-0037",
    "twitter": "RedArrowBeer",
    "website": "http://redarrowbeer.ca/"
  },
  {
    "address": "295 E 1st Ave, Vancouver, BC V5T 1A7, Canada",
    "avatar": true,
    "banner": true,
    "city": "Vancouver",
    "description": "Red Truck was built on the values of a simpler time, when a handshake was a contract and beer was always brewed honestly, by everyday, hardworking people.",
    "lat": 49.26890299999999,
    "lng": -123.0965044,
    "name": "Red Truck Beer Company",
    "postal": "V5T 1A7",
    "rating": 4.3,
    "ratings": 386,
    "status": "OPERATIONAL",
    "tel": "(604) 682-4733",
    "twitter": "RedTruckBeer",
    "website": "http://redtruckbeer.com/"
  },
  {
    "address": "22826 Dewdney Trunk Rd, Maple Ridge, BC V2X 7Y3, Canada",
    "avatar": true,
    "banner": true,
    "city": "Maple Ridge",
    "description": "Craft Brewery in Maple Ridge. Tasting room with tasting flights, growler fills, cans, and kegs. Visit us at 22826 Dewdney Trunk Rd!",
    "lat": 49.21997169999999,
    "lng": -122.5895757,
    "name": "Ridge Brewing Company",
    "postal": "V2X 7Y3",
    "rating": 4.8,
    "ratings": 132,
    "status": "OPERATIONAL",
    "tel": "(604) 380-0888",
    "twitter": "RidgeBrewingCo",
    "website": "http://www.ridgebrewing.com/"
  },
  {
    "address": "101A, 3055 Oak St, Chemainus, BC V0R 1K1, Canada",
    "avatar": true,
    "banner": true,
    "city": "Chemainus",
    "description": "At Riot Brewing Co. we do it our way! With each day and each beer we strive to show that anything is possible. #lifesariot",
    "lat": 48.9264372,
    "lng": -123.728145,
    "name": "Riot Brewing Co.",
    "postal": "V0R 1K1",
    "rating": 4.7,
    "ratings": 88,
    "status": "OPERATIONAL",
    "tel": "(250) 324-7468",
    "twitter": "RiotBrewingCo",
    "website": "http://www.riotbrewing.com/"
  },
  {
    "address": "208 1 St E B231, Revelstoke, BC V0E 2S0, Canada",
    "avatar": false,
    "banner": false,
    "city": "Revelstoke",
    "lat": 50.99790720000001,
    "lng": -118.1935668,
    "name": "Rumpus Beer Company",
    "postal": "V0E 2S0",
    "rating": 4.9,
    "ratings": 18,
    "status": "OPERATIONAL",
    "tel": "(250) 683-8100",
    "website": "http://revelstokebeer.com/"
  },
  {
    "address": "13018 80 Ave, Surrey, BC V3W 3B2, Canada",
    "avatar": true,
    "banner": true,
    "city": "Surrey",
    "description": "Dedicated to brewing world class craft beer with the best ingredients.  \n\n#AskForRussell\n#MeetTheNewRussell",
    "lat": 49.147866,
    "lng": -122.8620366,
    "name": "Russell Brewing Company",
    "postal": "V3W 3B2",
    "rating": 4.9,
    "ratings": 22,
    "status": "OPERATIONAL",
    "tel": "(604) 599-1190",
    "twitter": "Russell_Beer",
    "website": "http://www.russellbeer.com/"
  },
  {
    "address": "270 Furness Rd, Salt Spring Island, BC V8K 1Z7, Canada",
    "avatar": true,
    "banner": true,
    "city": null,
    "description": "#drinkbeerwithnature",
    "lat": 48.778811,
    "lng": -123.5040901,
    "name": "Salt Spring Island Ales",
    "postal": "V8K 1Z7",
    "rating": 4.5,
    "ratings": 73,
    "status": "OPERATIONAL",
    "tel": "(778) 354-1121",
    "twitter": "SaltSpringAles",
    "website": "http://www.saltspringislandales.com/"
  },
  {
    "address": "4816 BC-16 #101, Terrace, BC V8G 1L6, Canada",
    "avatar": false,
    "banner": false,
    "city": "Terrace",
    "lat": 54.5160875,
    "lng": -128.601795,
    "name": "Sherwood Mountain Brewhouse",
    "postal": "V8G 1L6",
    "rating": 4.7,
    "ratings": 48,
    "status": "OPERATIONAL",
    "tel": "(250) 635-0080",
    "website": "http://www.sherwoodmountain.beer/"
  },
  {
    "address": "11952 224 St #104, Maple Ridge, BC V2X 6B3, Canada",
    "avatar": true,
    "banner": true,
    "city": "Maple Ridge",
    "description": "No Filters",
    "lat": 49.2197953,
    "lng": -122.6015531,
    "name": "Silver Valley Brewing Company",
    "postal": "V2X 6B3",
    "rating": 4.8,
    "ratings": 59,
    "status": "OPERATIONAL",
    "tel": "(604) 380-1222",
    "twitter": "SVbrewing",
    "website": "http://silvervalleybrewing.com/"
  },
  {
    "address": "203-5301 Chaster Rd, Duncan, BC V9L 6W4, Canada",
    "avatar": true,
    "banner": true,
    "city": "Duncan",
    "description": "We are Block Three Brewing Co. in the village of St. Jacobs, ON. Great things come in small batches! #BlockThree https://t.co/QmWkLbhn8r",
    "lat": 48.7644602,
    "lng": -123.6925877,
    "name": "Small Block Brewing Co",
    "postal": "V9L 6W4",
    "rating": 4.6,
    "ratings": 83,
    "status": "OPERATIONAL",
    "tel": "(250) 597-0045",
    "twitter": "BlockThree",
    "website": "http://www.smallblockbrewery.com/"
  },
  {
    "address": "3832 3 Ave, Smithers, BC V0J 2N0, Canada",
    "avatar": false,
    "banner": false,
    "city": "Smithers",
    "lat": 54.781332,
    "lng": -127.1699133,
    "name": "Smithers Brewing Co.",
    "postal": "V0J 2N0",
    "rating": 4.9,
    "ratings": 62,
    "status": "OPERATIONAL",
    "tel": "(778) 640-2739",
    "website": "http://smithersbrewing.com/"
  },
  {
    "address": "5529 B Sooke Rd, Sooke, BC V9Z 0C7, Canada",
    "avatar": true,
    "banner": true,
    "city": "Sooke",
    "description": "Sooke Oceanside Brewery.\nLocal Craft Brewery Now Open!",
    "lat": 48.3931639,
    "lng": -123.659785,
    "name": "SOOKE OCEANSIDE BREWERY",
    "postal": "V9Z 0C7",
    "rating": 4.9,
    "ratings": 71,
    "status": "OPERATIONAL",
    "tel": "(778) 352-2739",
    "twitter": "SookeBrew",
    "website": "http://www.sookeoceansidebrewery.com/"
  },
  {
    "address": "308 Catherine St, Victoria, BC V9A 3S8, Canada",
    "avatar": false,
    "banner": false,
    "city": "Victoria",
    "lat": 48.4290663,
    "lng": -123.3850448,
    "name": "Spinnakers Gastro Brewpub & GuestHouses",
    "postal": "V9A 3S8",
    "rating": 4.2,
    "ratings": 1548,
    "status": "OPERATIONAL",
    "tel": "(250) 386-2739",
    "website": "http://spinnakers.com/"
  },
  {
    "address": "3845 William St, Burnaby, BC V5C 3J1, Canada",
    "avatar": true,
    "banner": true,
    "city": "Burnaby",
    "description": "Celebrating 25 years of steam powered brewing.\nVisit our Brewery Taproom at 3845 William St in Burnaby.",
    "lat": 49.2741321,
    "lng": -123.0201467,
    "name": "Steamworks Brewery & Taproom",
    "postal": "V5C 3J1",
    "rating": 4.6,
    "ratings": 232,
    "status": "OPERATIONAL",
    "tel": "(604) 620-7250",
    "twitter": "steamworksbeer",
    "website": "http://steamworks.com/brewery"
  },
  {
    "address": "1319 3rd Ave, New Westminster, BC V3M 1R2, Canada",
    "avatar": true,
    "banner": true,
    "city": "New Westminster",
    "description": "Independent beer made in New West. Temporary hours: 11:30-6 Mon-Thu and 11:30-7 Fri-Sun. Online orders and home delivery at the link.",
    "lat": 49.20195409999999,
    "lng": -122.9274274,
    "name": "Steel & Oak Brewing Co.",
    "postal": "V3M 1R2",
    "rating": 4.7,
    "ratings": 369,
    "status": "OPERATIONAL",
    "tel": "(604) 540-6495",
    "twitter": "SteelAndOak",
    "website": "http://steelandoak.ca/"
  },
  {
    "address": "310 Commercial Dr, Vancouver, BC V5L 3V6, Canada",
    "avatar": true,
    "banner": true,
    "city": "Vancouver",
    "description": "Window service: Fri-Sat 12pm to 6pm/Delivery: Saturdays within Vancouver/Visit us at: 310 Commercial Drive! üçª#sosketchybutgreatbeer",
    "lat": 49.2820389,
    "lng": -123.07015,
    "name": "Storm Brewing LTD.",
    "postal": "V5L 3V6",
    "rating": 4.8,
    "ratings": 343,
    "status": "OPERATIONAL",
    "tel": "(604) 255-9119",
    "twitter": "StormBrewingVan",
    "website": "http://www.stormbrewing.org/"
  },
  {
    "address": "1345 Clark Dr, Vancouver, BC V5L 3K9, Canada",
    "avatar": false,
    "banner": false,
    "city": "Vancouver",
    "lat": 49.2725296,
    "lng": -123.0778392,
    "name": "Strange Fellows Brewing",
    "postal": "V5L 3K9",
    "rating": 4.5,
    "ratings": 330,
    "status": "OPERATIONAL",
    "tel": "(604) 215-0092",
    "website": "http://strangefellowsbrewing.com/"
  },
  {
    "address": "895 E Hastings St, Vancouver, BC V6A 1R8, Canada",
    "avatar": false,
    "banner": false,
    "city": "Vancouver",
    "lat": 49.2812279,
    "lng": -123.0850699,
    "name": "Strathcona Brewing Company",
    "postal": "V6A 1R8",
    "rating": 4.3,
    "ratings": 283,
    "status": "OPERATIONAL",
    "tel": "(778) 379-9050",
    "website": "http://www.strathconabeer.com/"
  },
  {
    "address": "123A 1st St E, North Vancouver, BC V7L 1B2, Canada",
    "avatar": false,
    "banner": false,
    "city": "North Vancouver",
    "lat": 49.311146,
    "lng": -123.078119,
    "name": "Streetcar Brewing",
    "postal": "V7L 1B2",
    "rating": 4.3,
    "ratings": 32,
    "status": "OPERATIONAL",
    "tel": "(604) 770-2889",
    "website": "http://www.streetcarbrewing.ca/"
  },
  {
    "address": "506 Pandora Ave, Victoria, BC V8W 1N6, Canada",
    "avatar": true,
    "banner": true,
    "city": "Victoria",
    "description": "Swans Brewery, Pub & Hotel established in 1989. Craft Brewery & Pub built in a converted 1913 warehouse in downtown Victoria. Swans Hotel features 30 Suites.",
    "lat": 48.4286742,
    "lng": -123.3694288,
    "name": "Swans Brewery, Pub & Hotel",
    "postal": "V8W 1N6",
    "rating": 4.1,
    "ratings": 570,
    "status": "OPERATIONAL",
    "tel": "(250) 361-3310",
    "twitter": "swansvictoria",
    "website": "http://swanshotel.com/"
  },
  {
    "address": "537 Cruice Ln, Gibsons, BC V0N 1V9, Canada",
    "avatar": false,
    "banner": false,
    "city": "Gibsons",
    "lat": 49.40267619999999,
    "lng": -123.5047877,
    "name": "Tapworks Brewing Company",
    "postal": "V0N 1V9",
    "rating": 4.8,
    "ratings": 133,
    "status": "OPERATIONAL",
    "tel": "(778) 462-2337",
    "website": "http://www.gibsonstapworks.com/"
  },
  {
    "address": "1485 Coast Meridian Rd #402, Port Coquitlam, BC V3C 5P1, Canada",
    "avatar": true,
    "banner": true,
    "city": "Port Coquitlam",
    "description": "Craft brewing and lounge facility in Port Coquitlam BC, Find us on Facebook and Instagram: @taylightbrewing",
    "lat": 49.2419855,
    "lng": -122.7553719,
    "name": "Taylight Brewing Inc.",
    "postal": "V3C 5P1",
    "rating": 4.4,
    "ratings": 74,
    "status": "OPERATIONAL",
    "tel": "(604) 474-4253",
    "twitter": "taylightbrewing",
    "website": "http://taylightbrewing.com/"
  },
  {
    "address": "1009 Gibsons Way, Gibsons, BC V0N 1V7, Canada",
    "avatar": true,
    "banner": true,
    "city": "Gibsons",
    "description": "We are a new brewery, distillery, eatery and lounge in Gibsons, BC. #sunshinecoastbc #sunshinecoastaletrail",
    "lat": 49.406321,
    "lng": -123.525613,
    "name": "The 101 Brewhouse + Distillery",
    "postal": "V0N 1V7",
    "rating": 4.6,
    "ratings": 141,
    "status": "OPERATIONAL",
    "tel": "(778) 462-2011",
    "twitter": "The101Gibsons",
    "website": "http://www.the101.ca/"
  },
  {
    "address": "2629 Broadwater Rd, Robson, BC V0G 1X0, Canada",
    "avatar": false,
    "banner": false,
    "city": "Robson",
    "lat": 49.3332188,
    "lng": -117.6769638,
    "name": "The Lions Head Smoke & Brew Pub",
    "postal": "V0G 1X0",
    "rating": 4.4,
    "ratings": 468,
    "status": "OPERATIONAL",
    "tel": "(250) 365-2739",
    "website": "http://www.lionsheadpub.ca/"
  },
  {
    "address": "2731 Murray St, Port Moody, BC V3H 3R5, Canada",
    "avatar": true,
    "banner": true,
    "city": "Port Moody",
    "description": "Province-Wide DELIVERY! https://t.co/lW0rxxH6oZ Tasting Room OPEN: Mon-Fri 2-9pm; Sat 12-9pm & Sun 12-7pm #parksidebrewery #getparkside",
    "lat": 49.2785823,
    "lng": -122.8509855,
    "name": "The Parkside Brewery",
    "postal": "V3H 3R5",
    "rating": 4.5,
    "ratings": 379,
    "status": "OPERATIONAL",
    "tel": "(604) 492-2731",
    "twitter": "ParksideBrewery",
    "website": "http://www.theparksidebrewery.com/"
  },
  {
    "address": "112, 1475 Fairview Rd #112, Penticton, BC V2A 7W5, Canada",
    "avatar": true,
    "banner": true,
    "city": "Penticton",
    "description": "The Tin Whistle is a small brewery located in Penticton, BC. Available throughout BC and Alberta. We brew it, we drink it, we sell what's left!",
    "lat": 49.4829967,
    "lng": -119.5944821,
    "name": "Tin Whistle Brewing Co",
    "postal": "V2A 7W5",
    "rating": 4.5,
    "ratings": 33,
    "status": "OPERATIONAL",
    "tel": "(250) 770-1122",
    "twitter": "TinWhistleBrew",
    "website": "https://www.tinwhistlebrewery.com/"
  },
  {
    "address": "1346 Water St, Kelowna, BC V1Y 9P4, Canada",
    "avatar": true,
    "banner": true,
    "city": "Kelowna",
    "description": "At Tree, we take craft brewing seriously. We brew in small batches using only water, malt, hops and yeast to produce the highest quality, award winning beer.",
    "lat": 49.8904673,
    "lng": -119.4969537,
    "name": "Tree Brewing Beer Institute",
    "postal": "V1Y 9P4",
    "rating": 4.5,
    "ratings": 275,
    "status": "OPERATIONAL",
    "tel": "(778) 484-0306",
    "twitter": "treebrewing",
    "website": "http://www.treebrewingbeerinstitute.com/"
  },
  {
    "address": "1160 5 Ave, Valemount, BC V0E, Canada",
    "avatar": true,
    "banner": true,
    "city": "Valemount",
    "description": "Three Ranges Brewing Company is dedicated to making small batches of quality hand crafted ales and lagers in the hinterlands of BC.",
    "lat": 52.8323306,
    "lng": -119.2632806,
    "name": "Three Ranges Brewing Company",
    "postal": "V0E",
    "rating": 4.8,
    "ratings": 60,
    "status": "OPERATIONAL",
    "tel": "(250) 566-0024",
    "twitter": "threeranges",
    "website": "http://www.threeranges.com/"
  },
  {
    "address": "691 Industrial Way, Tofino, BC V0R 2Z0, Canada",
    "avatar": false,
    "banner": false,
    "city": "Tofino",
    "lat": 49.1393078,
    "lng": -125.8912572,
    "name": "Tofino Brewing Co",
    "postal": "V0R 2Z0",
    "rating": 4.7,
    "ratings": 291,
    "status": "OPERATIONAL",
    "tel": "(250) 725-2899",
    "website": "http://www.tofinobrewingco.com/"
  },
  {
    "address": "125 Hall St, Nelson, BC V1L 7B4, Canada",
    "avatar": true,
    "banner": true,
    "city": "Nelson",
    "description": "TORCHLIGHT BREWING CO IS A MICROBREWERY IN NELSON B.C COMMITTED TO MAKING HIGH QUALITY AND INNOVATIVE ALL NATURAL CRAFT BEER.",
    "lat": 49.49563329999999,
    "lng": -117.2930361,
    "name": "Torchlight Brewing Co.",
    "postal": "V1L 7B4",
    "rating": 4.4,
    "ratings": 108,
    "status": "OPERATIONAL",
    "tel": "(250) 352-0094",
    "twitter": "Brew_Torchlight",
    "website": "http://www.torchlightbrewing.com/"
  },
  {
    "address": "5824 Ash Ave, Powell River, BC V8A 4R4, Canada",
    "avatar": false,
    "banner": false,
    "city": "Powell River",
    "lat": 49.874028,
    "lng": -124.551094,
    "name": "Townsite Brewing Inc",
    "postal": "V8A 4R4",
    "rating": 4.7,
    "ratings": 139,
    "status": "OPERATIONAL",
    "tel": "(604) 483-2111",
    "website": "http://townsitebrewing.com/"
  },
  {
    "address": "20120 64 Ave #107, Langley City, BC V2Y 1M8, Canada",
    "avatar": true,
    "banner": true,
    "city": "Langley City",
    "description": "Langley‚Äôs locally-owned & operated craft brewery. Excited to share our passion for small-batch brewing with the community that we call home.",
    "lat": 49.1184938,
    "lng": -122.665114,
    "name": "Trading Post Brewery & Tasting Room",
    "postal": "V2Y 1M8",
    "rating": 4.7,
    "ratings": 203,
    "status": "OPERATIONAL",
    "tel": "(604) 343-2337",
    "twitter": "tradingpostbrew",
    "website": "https://tradingpostbrewing.com/locations/brewery-and-tasting-room/"
  },
  {
    "address": "1299 Bay Ave, Trail, BC V1R 4A5, Canada",
    "avatar": true,
    "banner": true,
    "city": "Trail",
    "description": "High quality beer served at our local taproom along with fantastic food. Proudly made in the Kootenays to be enjoyed at any occasion, any day of the week.",
    "lat": 49.09657869999999,
    "lng": -117.7080303,
    "name": "Trail Beer Refinery",
    "postal": "V1R 4A5",
    "rating": 4.4,
    "ratings": 264,
    "status": "OPERATIONAL",
    "tel": "(778) 456-2827",
    "twitter": "trailbeerbc",
    "website": "http://www.trailbeerrefinery.ca/"
  },
  {
    "address": "399 2 Ave, Prince George, BC V2L 2Z4, Canada",
    "avatar": false,
    "banner": false,
    "city": "Prince George",
    "lat": 53.91344729999999,
    "lng": -122.7309797,
    "name": "Trench Brewing & Distilling",
    "postal": "V2L 2Z4",
    "rating": 4.7,
    "ratings": 160,
    "status": "OPERATIONAL",
    "tel": "(236) 423-0065",
    "website": "https://www.trenchbrew.ca/"
  },
  {
    "address": "761 Enterprise Crescent, Victoria, BC V8Z 6P7, Canada",
    "avatar": true,
    "banner": true,
    "city": "Victoria",
    "description": "Brewery and Whisky Distillery now open at 761 Enterprise Crescent",
    "lat": 48.48458460000001,
    "lng": -123.3870722,
    "name": "Victoria Caledonian Distillery & Twa Dogs Brewery",
    "postal": "V8Z 6P7",
    "rating": 4.7,
    "ratings": 120,
    "status": "OPERATIONAL",
    "tel": "(778) 401-0410",
    "twitter": "VCaledonian",
    "website": "http://www.victoriacaledonian.com/"
  },
  {
    "address": "4503 Margaret St, Port Alberni, BC V9Y 6G8, Canada",
    "avatar": true,
    "banner": true,
    "city": "Port Alberni",
    "description": "Bringing people together in one space to drink meticulously crafted beer and enjoy thoughtfully prepared food. Port Alberni, Vancouver Island,BC. Come visit us!",
    "lat": 49.2570724,
    "lng": -124.8111099,
    "name": "Twin City Brewing Company",
    "postal": "V9Y 6G8",
    "rating": 4.9,
    "ratings": 198,
    "status": "OPERATIONAL",
    "tel": "(778) 419-2739",
    "twitter": "TwinCityBrewing",
    "website": "http://twincitybrewing.ca/"
  },
  {
    "address": "2821 Murray St, Port Moody, BC V3H 1X3, Canada",
    "avatar": true,
    "banner": true,
    "city": "Port Moody",
    "description": "A bunch of guys who love beer that decided to make it for others. - Tasting Room Hrs: Mon/Tues 2-9PM Wed/Thurs 2-10PM Fri 12-11PM Sun 12AM-10PM",
    "lat": 49.27854240000001,
    "lng": -122.8484471,
    "name": "Twin Sails Brewing",
    "postal": "V3H 1X3",
    "rating": 4.6,
    "ratings": 270,
    "status": "OPERATIONAL",
    "tel": "(604) 492-4234",
    "twitter": "TwinSailsBeer",
    "website": "http://twinsailsbrewing.com/"
  },
  {
    "address": "2330 Government St, Victoria, BC V8T 5G5, Canada",
    "avatar": false,
    "banner": false,
    "city": "Victoria",
    "lat": 48.4349119,
    "lng": -123.367684,
    "name": "Vancouver Island Brewery",
    "postal": "V8T 5G5",
    "rating": 4.5,
    "ratings": 80,
    "status": "OPERATIONAL",
    "tel": "(250) 361-0007",
    "website": "http://www.vibrewing.com/"
  },
  {
    "address": "1033 Richter St, Kelowna, BC V1Y 2K4, Canada",
    "avatar": true,
    "banner": false,
    "city": "Kelowna",
    "description": "",
    "lat": 49.896829,
    "lng": -119.488253,
    "name": "Vice & Virtue Brewing Co.",
    "postal": "V1Y 2K4",
    "rating": 4.7,
    "ratings": 332,
    "status": "OPERATIONAL",
    "tel": null,
    "twitter": "vicevirtuebeer",
    "website": "http://viceandvirtuebrewing.ca/"
  },
  {
    "address": "217 1 Ave E, Prince Rupert, BC V8J 1A7, Canada",
    "avatar": true,
    "banner": true,
    "city": "Prince Rupert",
    "description": "We are a little brewery at the end of the road on the left side of British Columbia.",
    "lat": 54.317998,
    "lng": -130.320587,
    "name": "Wheelhouse Brewing",
    "postal": "V8J 1A7",
    "rating": 4.9,
    "ratings": 61,
    "status": "OPERATIONAL",
    "tel": "(250) 624-2739",
    "twitter": "wheelhousebeer",
    "website": "https://www.wheelhousebrewing.com/"
  },
  {
    "address": "1045 Millar Creek Rd, Whistler, BC V8E 0W5, Canada",
    "avatar": true,
    "banner": true,
    "city": "Whistler",
    "description": "Proudly British Columbian. 100% BC owned & brewed. Come visit the brewery in Function Junction!",
    "lat": 50.0880526,
    "lng": -123.0401658,
    "name": "Whistler Brewing Company",
    "postal": "V8E 0W5",
    "rating": 4.4,
    "ratings": 169,
    "status": "OPERATIONAL",
    "tel": "(604) 962-8889",
    "twitter": "Whistlerbrewing",
    "website": "http://www.whistlerbeer.com/"
  },
  {
    "address": "15181 Russell Ave, White Rock, BC V4B 3Z6, Canada",
    "avatar": true,
    "banner": true,
    "city": "White Rock",
    "description": "Because Beaches and Beer Go Better Together",
    "lat": 49.0294444,
    "lng": -122.8019444,
    "name": "White Rock Beach Beer Company",
    "postal": "V4B 3Z6",
    "rating": 4.6,
    "ratings": 79,
    "status": "OPERATIONAL",
    "tel": "(604) 319-4378",
    "twitter": "WRBeachBeer",
    "website": "http://www.whiterockbeachbeer.com/"
  },
  {
    "address": "125 Comox Rd, Nanaimo, BC V9R 3H9, Canada",
    "avatar": true,
    "banner": true,
    "city": "Nanaimo",
    "description": "A local craft brewery and taproom offering tastings, brewery tours, live music and community events.",
    "lat": 49.1700081,
    "lng": -123.9397546,
    "name": "White Sails Brewing",
    "postal": "V9R 3H9",
    "rating": 4.5,
    "ratings": 222,
    "status": "OPERATIONAL",
    "tel": "(250) 754-2337",
    "twitter": "whitesailsbeer",
    "website": "http://www.whitesailsbrewing.com/"
  },
  {
    "address": "623 8th Ave N, Golden, BC V0A 1H0, Canada",
    "avatar": true,
    "banner": true,
    "city": "Golden",
    "description": "Whitetooth Brewing Company crafts small batch Belgian-inspired and West Coast influenced beers in the town of Golden, BC.",
    "lat": 51.3019062,
    "lng": -116.9703233,
    "name": "Whitetooth Brewing Company",
    "postal": "V0A 1H0",
    "rating": 4.6,
    "ratings": 144,
    "status": "OPERATIONAL",
    "tel": "(250) 344-2838",
    "twitter": "whitetoothbrew",
    "website": "http://www.whitetoothbrewing.com/"
  },
  {
    "address": "1111 Mainland St, Vancouver, BC V6B 2T9, Canada",
    "avatar": true,
    "banner": false,
    "city": "Vancouver",
    "description": "The Yaletown Brewing Company is Vancouver's original and best Brewpub. Founded in 1994, With a 160-seat Restaurant & Large Patios + a Lively Pub.",
    "lat": 49.2756157,
    "lng": -123.1208191,
    "name": "Yaletown Brewing Company",
    "postal": "V6B 2T9",
    "rating": 4,
    "ratings": 714,
    "status": "OPERATIONAL",
    "tel": "(604) 681-2739",
    "twitter": "YaletownBrewing",
    "website": "http://www.mjg.ca/yaletown/"
  },
  {
    "address": "2817 Murray St #1, Port Moody, BC V3H 1X3, Canada",
    "avatar": true,
    "banner": true,
    "city": "Port Moody",
    "description": "-- Port Moody's Craft Brewery-- Providing the community with quality locally crafted beer",
    "lat": 49.278657,
    "lng": -122.8488629,
    "name": "Yellow Dog Brewing Co",
    "postal": "V3H 1X3",
    "rating": 4.6,
    "ratings": 835,
    "status": "OPERATIONAL",
    "tel": "(604) 492-0191",
    "twitter": "YellowDogBeer",
    "website": "http://www.yellowdogbeer.com/"
  },
  {
    "address": "1-54 E 4th Ave, Vancouver, BC V5T 1E8, Canada",
    "avatar": false,
    "banner": false,
    "city": "Vancouver",
    "lat": 49.2672357,
    "lng": -123.1033402,
    "name": "Vancovuer B Brewing",
    "postal": "V5T 1E8",
    "rating": 4.4,
    "ratings": 826,
    "status": "OPERATIONAL",
    "tel": "(604) 336-0275",
    "website": "http://www.randbbrewing.com/"
  },
  {
    "address": "1515 Johnston Rd, Surrey, BC V4B 3Z6, Canada",
    "avatar": false,
    "banner": false,
    "city": "Surrey",
    "lat": 49.029486,
    "lng": -122.8013487,
    "name": "3 Dogs Brewing",
    "postal": "V4B 3Z6",
    "rating": 4.5,
    "ratings": 173,
    "status": "OPERATIONAL",
    "tel": "(604) 385-1364",
    "website": "https://3dogsbrewing.com/"
  },
  {
    "address": "38927 Queens Way #1, Squamish, BC V8B 0K9, Canada",
    "avatar": true,
    "banner": true,
    "city": "Squamish",
    "description": "Now Open. Bringing the cabin to you. Join us & cultivate new memories in our, ‚Äòlakeside-meets-the-mountains‚Äô tasting room.  #nowcheerstothat",
    "lat": 49.71746049999999,
    "lng": -123.1556258,
    "name": "A FRAME Brewing Co",
    "postal": "V8B 0K9",
    "rating": 4.7,
    "ratings": 123,
    "status": "OPERATIONAL",
    "tel": "(604) 892-0777",
    "twitter": "aframebrewing",
    "website": "http://www.aframebrewing.com/"
  },
  {
    "address": "650 Victoria St, Kamloops, BC V2C 2B4, Canada",
    "avatar": true,
    "banner": false,
    "city": "Kamloops",
    "description": "Up and coming Craft brewery in Kamloops BC.  Wood fired pizza oven, made in house smoked meats and so much more.  Our brews are not your average beer.",
    "lat": 50.6759614,
    "lng": -120.3251661,
    "name": "Alchemy Brewing Company",
    "postal": "V2C 2B4",
    "rating": 4.3,
    "ratings": 143,
    "status": "OPERATIONAL",
    "tel": "(778) 471-0096",
    "twitter": "BrewingAlchemy",
    "website": "http://www.alchemybrewingcompany.ca/"
  },
  {
    "address": "312 Esplanade E, North Vancouver, BC V7L 1A4, Canada",
    "avatar": true,
    "banner": true,
    "city": "North Vancouver",
    "description": "Craft brewery and tasting room coming soon to North Vancouver.",
    "lat": 49.3083825,
    "lng": -123.0726913,
    "name": "Beere Brewing Company",
    "postal": "V7L 1A4",
    "rating": 4.7,
    "ratings": 184,
    "status": "OPERATIONAL",
    "tel": "(604) 983-2163",
    "twitter": "BeereBrewingCo",
    "website": "http://www.beerebrewing.com/"
  },
  {
    "address": "British Columbia, Canada",
    "avatar": true,
    "banner": false,
    "city": null,
    "description": "From the shores of Kelowna comes a local fresh, clean, delicious lager. Try one today!",
    "lat": 53.7266683,
    "lng": -127.6476205,
    "name": "Big Surf Beer Co",
    "postal": null,
    "rating": null,
    "ratings": null,
    "status": null,
    "tel": null,
    "twitter": "BigSurfBeer",
    "website": "http://www.gov.bc.ca/"
  },
  {
    "address": "1950 Triumph St, Vancouver, BC V5L 1K5, Canada",
    "avatar": true,
    "banner": true,
    "city": "Vancouver",
    "description": "Brewed in Vancouver BC.\nEnjoy our beers.\nBrewed at @parallel49beer 1950 Triumph St. Vancouver BC",
    "lat": 49.2837767,
    "lng": -123.0643972,
    "name": "Boombox Brewing Company",
    "postal": "V5L 1K5",
    "rating": 4.6,
    "ratings": 13,
    "status": "OPERATIONAL",
    "tel": null,
    "twitter": "boomboxbrewing",
    "website": "http://www.boomboxbrewing.com/"
  },
  {
    "address": "9503 Cedar Ave #104, Summerland, BC V0H 1Z2, Canada",
    "avatar": true,
    "banner": false,
    "city": "Summerland",
    "description": "Just want to brew some good beer. Tasting Room located #104-9503 Cedar Ave.",
    "lat": 49.5872533,
    "lng": -119.6779042,
    "name": "Detonate Brewing Company",
    "postal": "V0H 1Z2",
    "rating": 4.9,
    "ratings": 34,
    "status": "OPERATIONAL",
    "tel": "(778) 214-0891",
    "twitter": "DetonateBrewing",
    "website": "http://www.detonatebrewing.com/"
  },
  {
    "address": "8284 Sherbrooke St, Vancouver, BC V5X 4R6, Canada",
    "avatar": true,
    "banner": true,
    "city": "Vancouver",
    "description": "Vancouver's Organic Brewery.  \n8284 Sherbrooke St. V5X4R6\n\nMonday CLOSED \nTuesday and Wednesday 11am - 8pm\nThursday to Saturday 11am - 11pm Sunday 11am - 8pm",
    "lat": 49.209847,
    "lng": -123.0817443,
    "name": "Dogwood Brewing",
    "postal": "V5X 4R6",
    "rating": 4.6,
    "ratings": 136,
    "status": "OPERATIONAL",
    "tel": "(604) 325-3693",
    "twitter": "DogwoodBrew",
    "website": "http://www.dogwoodbrew.com/"
  },
  {
    "address": "Lonsdale Quay Market, 123 Carrie Cates Ct, North Vancouver, BC V7M 3K7, Canada",
    "avatar": true,
    "banner": true,
    "city": "North Vancouver",
    "description": "Locally sourced & crafted with care. Est. 2014",
    "lat": 49.3100228,
    "lng": -123.0823969,
    "name": "Green Leaf Brewing",
    "postal": "V7M 3K7",
    "rating": 4.2,
    "ratings": 197,
    "status": "OPERATIONAL",
    "tel": "(604) 984-8409",
    "twitter": "greenleafbrew",
    "website": "http://www.greenleafbrew.com/"
  },
  {
    "address": "2405 Main St, West Kelowna, BC V4T 2H9, Canada",
    "avatar": false,
    "banner": false,
    "city": "West Kelowna",
    "lat": 49.82936549999999,
    "lng": -119.6256897,
    "name": "Kind Brewing",
    "postal": "V4T 2H9",
    "rating": 4.7,
    "ratings": 66,
    "status": "OPERATIONAL",
    "tel": "(250) 768-6891",
    "website": "https://m.facebook.com/kindbrewer/"
  },
  {
    "address": "20901 Langley Bypass, Langley City, BC V3A 8G9, Canada",
    "avatar": false,
    "banner": false,
    "city": "Langley City",
    "lat": 49.11012359999999,
    "lng": -122.6464237,
    "name": "KPU Brewing Lab",
    "postal": "V3A 8G9",
    "rating": 5,
    "ratings": 3,
    "status": "OPERATIONAL",
    "tel": null,
    "website": "http://www.kpu.ca/brew"
  },
  {
    "address": "2582 Mount Lehman Rd UNIT #140, Abbotsford, BC V4X 2N3, Canada",
    "avatar": false,
    "banner": false,
    "city": "Abbotsford",
    "lat": 49.0490255,
    "lng": -122.3806576,
    "name": "Loudmouth Brewing Co.",
    "postal": "V4X 2N3",
    "rating": 4.7,
    "ratings": 124,
    "status": "OPERATIONAL",
    "tel": "(604) 809-1341",
    "website": "http://loudmouthbrewingcompany.ca/"
  },
  {
    "address": "22775 Dewdney Trunk Rd, Maple Ridge, BC V2X 3K4, Canada",
    "avatar": true,
    "banner": true,
    "city": "Maple Ridge",
    "description": "The BEST in town Maple Ridge Craft Beer! We are the first Craft Microbrewery in Maple Ridge. We are  MAPLE MEADOWS BREWING COMPANY!",
    "lat": 49.2207421,
    "lng": -122.5911428,
    "name": "Maple Meadows Brewing Co.",
    "postal": "V2X 3K4",
    "rating": 4.7,
    "ratings": 47,
    "status": "OPERATIONAL",
    "tel": "(604) 479-0999",
    "twitter": "MaplMeadBrewCo",
    "website": "http://www.maplemeadowsbrewing.com/"
  },
  {
    "address": "7160 Oliver St Suite #200, Mission, BC V2V 6K5, Canada",
    "avatar": true,
    "banner": false,
    "city": "Mission",
    "description": "The Mission Springs Brewing Company is proud to produce in-house craft beers and home made culinary creations. Let us tantalize your palate!",
    "lat": 49.1321832,
    "lng": -122.3416728,
    "name": "Mission Springs Brewing Company",
    "postal": "V2V 6K5",
    "rating": 4,
    "ratings": 1198,
    "status": "OPERATIONAL",
    "tel": "(604) 820-1009",
    "twitter": "MSBCBREWERY",
    "website": "https://springsgroup.ca/missionsprings/"
  },
  {
    "address": "1351 Adanac St, Vancouver, BC V5L 2C4, Canada",
    "avatar": true,
    "banner": true,
    "city": "Vancouver",
    "description": "Microbrewery proudly located in the heart of East Vancouver. Open 12-8 Sun-Thur, 12-10 Fri & Sat. #OTR",
    "lat": 49.27780560000001,
    "lng": -123.0760194,
    "name": "Off The Rail Brewing",
    "postal": "V5L 2C4",
    "rating": 4.4,
    "ratings": 142,
    "status": "OPERATIONAL",
    "tel": "(604) 563-5767",
    "twitter": "OffTheRailBeer",
    "website": "http://offtherailbrewing.com/"
  },
  {
    "address": "1086 Richter St, Kelowna, BC V1Y 2K5, Canada",
    "avatar": true,
    "banner": false,
    "city": "Kelowna",
    "description": "",
    "lat": 49.8958953,
    "lng": -119.4886332,
    "name": "Red Bird Brewing",
    "postal": "V1Y 2K5",
    "rating": 4.7,
    "ratings": 132,
    "status": "OPERATIONAL",
    "tel": "(250) 317-5468",
    "twitter": "redbirdbrewing",
    "website": "https://redbirdbrewing.com/"
  },
  {
    "address": "1990F Columbia Ave, Rossland, BC V0G 1Y0, Canada",
    "avatar": false,
    "banner": false,
    "city": "Rossland",
    "lat": 49.077461,
    "lng": -117.8007186,
    "name": "Rossland Beer Company",
    "postal": "V0G 1Y0",
    "rating": 4.7,
    "ratings": 72,
    "status": "OPERATIONAL",
    "tel": "(250) 362-2122",
    "website": "http://www.rosslandbeer.com/"
  },
  {
    "address": "5850 Spencer Rd, Grand Forks, BC V0H 1H5, Canada",
    "avatar": false,
    "banner": false,
    "city": "Grand Forks",
    "lat": 49.0179392,
    "lng": -118.5132977,
    "name": "Spencer Hill Cottage Brewery",
    "postal": "V0H 1H5",
    "rating": 5,
    "ratings": 2,
    "status": "CLOSED_PERMANENTLY",
    "tel": "(250) 442-6668",
    "website": null
  },
  {
    "address": "1-3314 Appaloosa Rd, Kelowna, BC V1V 2W5, Canada",
    "avatar": false,
    "banner": false,
    "city": "Kelowna",
    "lat": 49.9213699,
    "lng": -119.3928726,
    "name": "Wild Ambition Brewing",
    "postal": "V1V 2W5",
    "rating": 4.9,
    "ratings": 25,
    "status": "OPERATIONAL",
    "tel": null,
    "website": "http://wildambition.beer/"
  },
  {
    "address": "1385 Main St, North Vancouver, BC V7J 1C4, Canada",
    "avatar": true,
    "banner": true,
    "city": "North Vancouver",
    "description": "",
    "lat": 49.3057538,
    "lng": -123.0349652,
    "name": "Wildeye Brewing",
    "postal": "V7J 1C4",
    "rating": 4.4,
    "ratings": 85,
    "status": "OPERATIONAL",
    "tel": "(604) 988-1900",
    "twitter": "wildeyebrewing",
    "website": "https://www.wildeyebrewing.ca/"
  },
  {
    "address": "940 Old Victoria Rd, Nanaimo, BC V9R 6Z8, Canada",
    "avatar": true,
    "banner": true,
    "city": "Nanaimo",
    "description": "Wolf Brewing Company: we make great beer. @WolfBrewingVan on the Mainland, @WolfBrewingVI over there.",
    "lat": 49.1418182,
    "lng": -123.9312287,
    "name": "Wolf Brewing Company",
    "postal": "V9R 6Z8",
    "rating": 4.6,
    "ratings": 68,
    "status": "OPERATIONAL",
    "tel": "(250) 716-2739",
    "twitter": "Wolfbrewingvan",
    "website": "http://www.wolfbrewingcompany.com/"
  },
  {
    "address": "355 Lansdowne St, Kamloops, BC V2C 1X9, Canada",
    "avatar": true,
    "banner": true,
    "city": "Kamloops",
    "description": "OPEN Tues- Thurs 3-9pm | Fri-Sat 1-9pm | Sunday 1-7pm //\nOrder online for pick up & home delivery here: https://t.co/foQOD7l98T",
    "lat": 50.6764497,
    "lng": -120.3328365,
    "name": "Red Collar Brewing Co.",
    "postal": "V2C 1X9",
    "rating": 4.6,
    "ratings": 189,
    "status": "OPERATIONAL",
    "tel": "(778) 471-0174",
    "twitter": "redcollarbrew",
    "website": "http://www.redcollar.ca/"
  },
  {
    "address": "2460 Skaha Lake Rd, Penticton, BC V2A 6E8, Canada",
    "avatar": true,
    "banner": false,
    "city": "Penticton",
    "description": "",
    "lat": 49.4697438,
    "lng": -119.5834585,
    "name": "Barley Mill Pub",
    "postal": "V2A 6E8",
    "rating": 4.2,
    "ratings": 287,
    "status": "OPERATIONAL",
    "tel": "(250) 493-8000",
    "twitter": "BarleyMillPub",
    "website": "http://www.barleymillpub.com/"
  },
  {
    "address": "199 Island Hwy, Victoria, BC V9B 1G1, Canada",
    "avatar": false,
    "banner": false,
    "city": "Victoria",
    "lat": 48.4523021,
    "lng": -123.433819,
    "name": "4Mile Brewing Company",
    "postal": "V9B 1G1",
    "rating": 4.1,
    "ratings": 28,
    "status": "OPERATIONAL",
    "tel": "(250) 479-3346",
    "website": "http://www.4milebrewingco.com/"
  },
  {
    "address": "481 Arrow Rd, Invermere, BC V0A 1K2, Canada",
    "avatar": true,
    "banner": true,
    "city": "Invermere",
    "description": "Craft brewery established in 2012. Producing small batch craft beer. Located in the heart of the Columbia Valley.",
    "lat": 50.51666669999999,
    "lng": -116.0074999,
    "name": "Arrowhead Brewing Company",
    "postal": "V0A 1K2",
    "rating": 4.5,
    "ratings": 107,
    "status": "OPERATIONAL",
    "tel": "(778) 526-2739",
    "twitter": "ArrowheadBrew",
    "website": "http://www.arrowheadbrewingcompany.ca/"
  },
  {
    "address": "11 Cliff St, Nanaimo, BC V9R 5E6, Canada",
    "avatar": true,
    "banner": false,
    "city": "Nanaimo",
    "description": "Craft Brewery in Nanaimo",
    "lat": 49.16967959999999,
    "lng": -123.9401871,
    "name": "Cliffside Brewing Company",
    "postal": "V9R 5E6",
    "rating": 4.1,
    "ratings": 21,
    "status": "OPERATIONAL",
    "tel": "(250) 591-0076",
    "twitter": "CliffsideBrewco",
    "website": "http://cliffsidebrewco.ca/"
  },
  {
    "address": "1810 8th Ave Unit A, Castlegar, BC V1N 2Y2, Canada",
    "avatar": false,
    "banner": false,
    "city": "Castlegar",
    "lat": 49.29999369999999,
    "lng": -117.6578443,
    "name": "Tailout Brewing",
    "postal": "V1N 2Y2",
    "rating": 5,
    "ratings": 13,
    "status": "OPERATIONAL",
    "tel": "(250) 304-9434",
    "website": "http://tailoutbrewing.com/"
  },
  {
    "address": "9360 Mill St #1, Chilliwack, BC V2P 4N2, Canada",
    "avatar": false,
    "banner": false,
    "city": "Chilliwack",
    "lat": 49.1721263,
    "lng": -121.9532848,
    "name": "Flashback Brewing Company",
    "postal": "V2P 4N2",
    "rating": 4,
    "ratings": 19,
    "status": "OPERATIONAL",
    "tel": "(604) 391-1000",
    "website": "http://flashbackbrewing.ca/"
  },
  {
    "address": "Market Square, Lower Courtyard, #63, 560 Johnson St, Victoria, BC V8W 3C6, Canada",
    "avatar": false,
    "banner": false,
    "city": "Victoria",
    "lat": 48.4281449,
    "lng": -123.3685871,
    "name": "Whistle Buoy Brewing Company",
    "postal": "V8W 3C6",
    "rating": 4.8,
    "ratings": 109,
    "status": "OPERATIONAL",
    "tel": null,
    "website": "http://www.whistlebuoybrewing.com/"
  },
  {
    "address": "2617 Murray St, Port Moody, BC V3H 1X1, Canada",
    "avatar": true,
    "banner": false,
    "city": "Port Moody",
    "description": "",
    "lat": 49.27856490000001,
    "lng": -122.8532587,
    "name": "The Bakery Brewing",
    "postal": "V3H 1X1",
    "rating": 4.4,
    "ratings": 43,
    "status": "OPERATIONAL",
    "tel": "(604) 492-4905",
    "twitter": "thebakerybrews",
    "website": "http://www.thebakerybrewing.com/"
  },
  {
    "address": "1851 Kirschner Rd #102, Kelowna, BC V1Y 4N7, Canada",
    "avatar": false,
    "banner": false,
    "city": "Kelowna",
    "lat": 49.880315,
    "lng": -119.4577682,
    "name": "Copper Brewing Company",
    "postal": "V1Y 4N7",
    "rating": 4.9,
    "ratings": 32,
    "status": "OPERATIONAL",
    "tel": "(250) 762-8850",
    "website": "http://www.copperbrewingco.com/"
  },
  {
    "address": "218 Martin St, Penticton, BC V2A 5K3, Canada",
    "avatar": true,
    "banner": true,
    "city": "Penticton",
    "description": "Okanagan Fest of Ale 2019 - People‚Äôs Choice ‚ÄòBest Beer‚Äô & Great Okanagan Beer Festival 2019 - People‚Äôs Choice ‚ÄòBest Brewery‚Äô",
    "lat": 49.4998887,
    "lng": -119.5940781,
    "name": "Slackwater Brewing",
    "postal": "V2A 5K3",
    "rating": 4.4,
    "ratings": 165,
    "status": "OPERATIONAL",
    "tel": "(236) 422-0812",
    "twitter": "slackwaterbeer",
    "website": "http://www.slackwaterbrewing.com/"
  },
  {
    "address": "975 Academy Way #121, Kelowna, BC V1V 3A4, Canada",
    "avatar": true,
    "banner": true,
    "city": "Kelowna",
    "description": "Independent and locally-owned & operated craft brewery in Kelowna, BC. We love to share our passion for craft beer, delicious food, & warm hospitality!",
    "lat": 49.9350416,
    "lng": -119.3987251,
    "name": "Kelowna Brewing Company",
    "postal": "V1V 3A4",
    "rating": 4.4,
    "ratings": 59,
    "status": "OPERATIONAL",
    "tel": "(778) 753-1968",
    "twitter": "BNABrewing",
    "website": "https://www.kelownabrewingcompany.com/"
  },
  {
    "address": "4629 Lakeshore Rd #102, Kelowna, BC V1W 1X3, Canada",
    "avatar": true,
    "banner": true,
    "city": "Kelowna",
    "description": "",
    "lat": 49.8168558,
    "lng": -119.4939028,
    "name": "Barn Owl Brewing",
    "postal": "V1W 1X3",
    "rating": 4.7,
    "ratings": 68,
    "status": "OPERATIONAL",
    "tel": "(778) 760-9349",
    "twitter": "BarnOwlBrewing",
    "website": "http://barnowlbrewing.ca/"
  },
  {
    "address": "2190 Voght St, Merritt, BC V1K 1C1, Canada",
    "avatar": false,
    "banner": false,
    "city": "Merritt",
    "lat": 50.112348,
    "lng": -120.787658,
    "name": "Empty Keg Brew House Ltd.",
    "postal": "V1K 1C1",
    "rating": 5,
    "ratings": 20,
    "status": "OPERATIONAL",
    "tel": "(250) 315-2337",
    "website": "http://emptykegbrewhouse.ca/"
  },
  {
    "address": "550 Sherling Pl #2140, Port Coquitlam, BC V3B 0J6, Canada",
    "avatar": false,
    "banner": false,
    "city": "Port Coquitlam",
    "lat": 49.2512541,
    "lng": -122.7328056,
    "name": "Tinhouse Brewing Co.",
    "postal": "V3B 0J6",
    "rating": 4.8,
    "ratings": 42,
    "status": "OPERATIONAL",
    "tel": "(604) 474-3434",
    "website": "http://www.tinhousebrewing.ca/"
  },
  {
    "address": "1123 Venables St, Vancouver, BC V6A 2C6, Canada",
    "avatar": true,
    "banner": true,
    "city": "Vancouver",
    "description": "A brewing & blending project dedicated to creating beers via fermentation in oak.",
    "lat": 49.2769065,
    "lng": -123.0805212,
    "name": "Temporal Artisan Ales",
    "postal": "V6A 2C6",
    "rating": null,
    "ratings": null,
    "status": "OPERATIONAL",
    "tel": null,
    "twitter": "TemporalAles",
    "website": "http://temporalales.com/"
  },
  {
    "address": "2286 Holdom Ave, Burnaby, BC V5B 4Y5, Canada",
    "avatar": true,
    "banner": true,
    "city": "Burnaby",
    "description": "Botanically Brewed, Exquisitely Crafted Soft Drinks & Mixers Since 1905.",
    "lat": 49.2630983,
    "lng": -122.9802304,
    "name": "Fentimans North America",
    "postal": "V5B 4Y5",
    "rating": 5,
    "ratings": 1,
    "status": "OPERATIONAL",
    "tel": "(877) 326-3248",
    "twitter": "DrinkFentimans",
    "website": "http://www.drinkfentimans.com/#!contact/c24vq"
  },
  {
    "address": "1441 Cartwright St, Vancouver, BC V6H 3R7, Canada",
    "avatar": true,
    "banner": true,
    "city": "Vancouver",
    "description": "Brewmaster at Granville Island Brewing, Drummer @THCdeath, Singer/Songwriter at https://t.co/wXY0W4G33B",
    "lat": 49.270502,
    "lng": -123.135661,
    "name": "Granville Island Brewing",
    "postal": "V6H 3R7",
    "rating": 4.3,
    "ratings": 702,
    "status": "OPERATIONAL",
    "tel": "(604) 687-2739",
    "twitter": "KevinEmms",
    "website": "http://www.gib.ca/"
  },
  {
    "address": "215 Port Augusta St Unit 11, Comox, BC V9M 3M9, Canada",
    "avatar": true,
    "banner": true,
    "city": "Comox",
    "description": "traditional beers and new creations",
    "lat": 49.6733531,
    "lng": -124.9240319,
    "name": "New Tradition Brewing Company",
    "postal": "V9M 3M9",
    "rating": 4.7,
    "ratings": 28,
    "status": "OPERATIONAL",
    "tel": "(778) 984-1531",
    "twitter": "NTBrewing",
    "website": "https://newtraditionbrewing.com/"
  },
  {
    "address": "3141 3rd Ave, Port Alberni, BC V9Y 4C7, Canada",
    "avatar": true,
    "banner": true,
    "city": "Port Alberni",
    "description": "Central Michigan Alumni. Red Wings. Detroit. Deshi Basara. Beer slinger at Mountain Town Brewing Co. My dog is coolest thing about me.",
    "lat": 49.2353821,
    "lng": -124.8071963,
    "name": "Dog Mountain Brewing",
    "postal": "V9Y 4C7",
    "rating": 4.9,
    "ratings": 9,
    "status": "OPERATIONAL",
    "tel": "(250) 731-8810",
    "twitter": "erichafochty",
    "website": "http://www.dogmountainbrew.com/"
  },
  {
    "address": "760 Vaughan Ave, Kelowna, BC V1Y 7E4, Canada",
    "avatar": true,
    "banner": true,
    "city": "Kelowna",
    "description": "Rustic Reel Brewing Company is a community minded craft brewery in the heart of Kelowna BC. #GetReel",
    "lat": 49.8945936,
    "lng": -119.4857648,
    "name": "Rustic Reel Brewing Company",
    "postal": "V1Y 7E4",
    "rating": 4.5,
    "ratings": 46,
    "status": "OPERATIONAL",
    "tel": "(250) 862-3737",
    "twitter": "Rustic_Reel",
    "website": "http://www.rusticreel.com/"
  },
  {
    "address": "727 Baillie Ave, Kelowna, BC V1Y 7E9, Canada",
    "avatar": false,
    "banner": false,
    "city": "Kelowna",
    "lat": 49.8962908,
    "lng": -119.487426,
    "name": "Jackknife Brewing",
    "postal": "V1Y 7E9",
    "rating": 5,
    "ratings": 27,
    "status": "OPERATIONAL",
    "tel": "(250) 712-5225",
    "website": "http://www.jackknife.beer/"
  },
  {
    "address": "2332 Marpole Ave, Port Coquitlam, BC V3C 2A2, Canada",
    "avatar": true,
    "banner": true,
    "city": "Port Coquitlam",
    "description": "Patina Brewing Co. Craft Beer and amazing Southern-style BBQ founded in Port Coquitlam. #FriendshipsForged",
    "lat": 49.2613429,
    "lng": -122.78363,
    "name": "Patina Brewing",
    "postal": "V3C 2A2",
    "rating": 4.5,
    "ratings": 57,
    "status": "OPERATIONAL",
    "tel": "(604) 474-0025",
    "twitter": "PatinaBrewing",
    "website": "http://patinabrewing.com/"
  },
  {
    "address": "2057 Otter Point Rd, Sooke, BC V9Z 1H7, Canada",
    "avatar": true,
    "banner": true,
    "city": "Sooke",
    "description": "An award-winning craft brewing company located in the heart of #Sooke BC.",
    "lat": 48.3784391,
    "lng": -123.7247842,
    "name": "Sooke Brewing Company",
    "postal": "V9Z 1H7",
    "rating": 4.8,
    "ratings": 113,
    "status": "OPERATIONAL",
    "tel": "(250) 642-0106",
    "twitter": "SookeBrewingCo",
    "website": "https://sookebrewing.com/"
  },
  {
    "address": "8324 Pemberton Meadows Rd, Pemberton, BC V0N 2L2, Canada",
    "avatar": false,
    "banner": false,
    "city": "Pemberton",
    "lat": 50.4038015,
    "lng": -122.8862895,
    "name": "The Beer Farmers",
    "postal": "V0N 2L2",
    "rating": 4.9,
    "ratings": 31,
    "status": "OPERATIONAL",
    "tel": "(778) 879-4033",
    "website": "https://www.thebeerfarmers.com/"
  },
  {
    "address": "1830 Powell St, Vancouver, BC V5L 1H9, Canada",
    "avatar": false,
    "banner": false,
    "city": "Vancouver",
    "lat": 49.2842084,
    "lng": -123.0672461,
    "name": "Slow Hand Beer Company",
    "postal": "V5L 1H9",
    "rating": 4.9,
    "ratings": 11,
    "status": "CLOSED_TEMPORARILY",
    "tel": "(778) 819-2252",
    "website": "http://www.slowhandbeer.com/"
  },
  {
    "address": "8901 Stanley Park Dr, Vancouver, BC V6G 3E2, Canada",
    "avatar": true,
    "banner": true,
    "city": "Vancouver",
    "description": "Let your taste buds wander!",
    "lat": 49.2923231,
    "lng": -123.1464802,
    "name": "Stanley Park Brewing Restaurant & Brewpub",
    "postal": "V6G 3E2",
    "rating": 4.2,
    "ratings": 340,
    "status": "OPERATIONAL",
    "tel": "(604) 681-0460",
    "twitter": "StanleyParkBrew",
    "website": "https://www.stanleyparkbrewing.com/brewpub/"
  },
  {
    "address": "650 Victoria St, Kamloops, BC V2C 2B4, Canada",
    "avatar": true,
    "banner": true,
    "city": "Kamloops",
    "description": "Inspired Food. Unique Brew.",
    "lat": 50.67597,
    "lng": -120.3259771,
    "name": "The Noble Pig",
    "postal": "V2C 2B4",
    "rating": 4.4,
    "ratings": 1400,
    "status": "OPERATIONAL",
    "tel": "(778) 471-5999",
    "twitter": "thenoblepigbrew",
    "website": "http://www.thenoblepig.ca/"
  },
  {
    "address": "1780 Mills Rd, North Saanich, BC V8L 5S9, Canada",
    "avatar": false,
    "banner": false,
    "city": "North Saanich",
    "lat": 48.656318,
    "lng": -123.426064,
    "name": "Howl Brewing",
    "postal": "V8L 5S9",
    "rating": 4.9,
    "ratings": 18,
    "status": "OPERATIONAL",
    "tel": "(778) 977-4695",
    "website": "http://www.howlbrewing.ca/"
  },
  {
    "address": "Vancouver, BC V6A 1P6, Canada",
    "avatar": true,
    "banner": true,
    "city": "Vancouver",
    "description": "Proudly serving all natural, preservative-free beer brewed on-site plus a selection of local micro-brews. Join us for great food, sports and tons of live music.",
    "lat": 49.2813981,
    "lng": -123.0949983,
    "name": "Hastings Mill Brewing Co.",
    "postal": "V6A 1P6",
    "rating": 3.3,
    "ratings": 3,
    "status": "OPERATIONAL",
    "tel": "(604) 255-4301",
    "twitter": "Hastings_Mill",
    "website": "https://www.patspub.ca/brew/"
  },
  {
    "address": "175 BC-97, 100 Mile House, BC V0K 2E0, Canada",
    "avatar": false,
    "banner": false,
    "city": "100 Mile House",
    "lat": 51.64587239999999,
    "lng": -121.295879,
    "name": "Jackson's Social Club & Brewhouse",
    "postal": "V0K 2E0",
    "rating": 4.3,
    "ratings": 77,
    "status": "OPERATIONAL",
    "tel": "(778) 482-5225",
    "website": "https://www.facebook.com/JacksonsBrewery/"
  },
  {
    "address": "86 Semisch Ave, North Vancouver, BC V7M 3H8, Canada",
    "avatar": false,
    "banner": false,
    "city": "North Vancouver",
    "lat": 49.3136111,
    "lng": -123.0833333,
    "name": "Sailor Hagar's Brew Pub",
    "postal": "V7M 3H8",
    "rating": 4.1,
    "ratings": 493,
    "status": "OPERATIONAL",
    "tel": "(604) 984-3087",
    "website": "http://www.sailorhagarspub.com/"
  },
  {
    "address": "13220 N, Victoria Rd N, Summerland, BC V0H 1Z0, Canada",
    "avatar": false,
    "banner": false,
    "city": "Summerland",
    "lat": 49.60225759999999,
    "lng": -119.683851,
    "name": "Breakaway Brewing",
    "postal": "V0H 1Z0",
    "rating": 4.4,
    "ratings": 10,
    "status": "OPERATIONAL",
    "tel": "(250) 328-4817",
    "website": "http://breakawaybrewingcompany.com/"
  },
  {
    "address": "3044 St Johns St, Port Moody, BC V3H 2C5, Canada",
    "avatar": true,
    "banner": true,
    "city": "Port Moody",
    "description": "Metro Vancouver's largest craft brewing supply store.",
    "lat": 49.2769141,
    "lng": -122.8433429,
    "name": "Fraser Mills Fermentation Company",
    "postal": "V3H 2C5",
    "rating": 5,
    "ratings": 5,
    "status": "OPERATIONAL",
    "tel": "(604) 461-8891",
    "twitter": "frasermillsfs",
    "website": "http://frasermillsfermentation.com/"
  },
  {
    "address": "4355 Blackcomb Way, Whistler, BC V0N 1B4, Canada",
    "avatar": false,
    "banner": false,
    "city": "Whistler",
    "lat": 50.1181583,
    "lng": -122.9545,
    "name": "The High Mountain Brewing Company, The Brewhouse",
    "postal": "V0N 1B4",
    "rating": 3.7,
    "ratings": 511,
    "status": "OPERATIONAL",
    "tel": "(604) 905-2739",
    "website": "https://www.mjg.ca/brewhouse/"
  },
  {
    "address": "2933a 30th Ave, Vernon, BC V1T 2B8, Canada",
    "avatar": true,
    "banner": true,
    "city": "Vernon",
    "description": "Micro-Brewery Pub, Bar & Grill  We pride ourselves in our artisanal offerings, handcrafted food and Beverage. We put RAW first! #bccraftbeer #craftbeer #brewery",
    "lat": 50.26403800000001,
    "lng": -119.2705691,
    "name": "Marten Brewpub",
    "postal": "V1T 2B8",
    "rating": 4,
    "ratings": 185,
    "status": "OPERATIONAL",
    "tel": "(778) 475-5115",
    "twitter": "MartenBrewpub",
    "website": "https://www.martenbrewpub.com/"
  },
  {
    "address": "292 Tranquille Rd, Kamloops, BC V2B 3G3, Canada",
    "avatar": true,
    "banner": true,
    "city": "Kamloops",
    "description": "New brewery in Kamloops BC with a focus on quality, community and collaboration.  Cheers!",
    "lat": 50.6873744,
    "lng": -120.3569456,
    "name": "Bright Eye Brewing",
    "postal": "V2B 3G3",
    "rating": 4.6,
    "ratings": 80,
    "status": "OPERATIONAL",
    "tel": null,
    "twitter": "brighteyebrew",
    "website": "http://www.brighteyebrewing.com/"
  },
  {
    "address": "1253 Johnston St, Vancouver, BC V6H 3R9, Canada",
    "avatar": true,
    "banner": true,
    "city": "Vancouver",
    "description": "COMING SOON! The Dockside Brewing Company and Social Eatery. Great beer, great food, great company. Stay tuned for the date of our grand opening!",
    "lat": 49.26948609999999,
    "lng": -123.131177,
    "name": "Dockside Brewing Company",
    "postal": "V6H 3R9",
    "rating": 4,
    "ratings": 589,
    "status": "OPERATIONAL",
    "tel": "(604) 685-7070",
    "twitter": "DocksideBrewCo",
    "website": "http://www.docksidevancouver.com/"
  },
  {
    "address": "20 E 4th Ave, Vancouver, BC V5T 1E8, Canada",
    "avatar": true,
    "banner": true,
    "city": "Vancouver",
    "description": "Beer, Nerd, Dogs -\nHead Brewer - Electric Bicycle Brewing",
    "lat": 49.267229,
    "lng": -123.104256,
    "name": "Electric Bicycle Brewing",
    "postal": "V5T 1E8",
    "rating": 4.4,
    "ratings": 185,
    "status": "OPERATIONAL",
    "tel": "(604) 709-9939",
    "twitter": "Drewsinden",
    "website": "http://electricbicyclebrewing.com/"
  },
  {
    "address": "1123 Venables St, Vancouver, BC V6A 2C6, Canada",
    "avatar": true,
    "banner": true,
    "city": "Vancouver",
    "description": "To-Go: Tuesday to Saturday 12-8pm, Sunday 12-6pm, Monday Closed                       Delivery at https://t.co/WatPNxGGMT",
    "lat": 49.27702559999999,
    "lng": -123.0806085,
    "name": "Luppolo Brewing Co.",
    "postal": "V6A 2C6",
    "rating": 4.6,
    "ratings": 183,
    "status": "OPERATIONAL",
    "tel": "(604) 255-4997",
    "twitter": "Luppolo_Brewing",
    "website": "http://luppolobrewing.ca/"
  },
  {
    "address": "46128 Yale Rd, Chilliwack, BC V2P 2P1, Canada",
    "avatar": false,
    "banner": false,
    "city": "Chilliwack",
    "lat": 49.17100869999999,
    "lng": -121.9520367,
    "name": "Bricklayer Brewing",
    "postal": "V2P 2P1",
    "rating": null,
    "ratings": null,
    "status": "OPERATIONAL",
    "tel": "(778) 868-3957",
    "website": "http://bricklayerbrewing.com/"
  },
  {
    "address": "506 Herald St, Victoria, BC V8W 3N8, Canada",
    "avatar": false,
    "banner": false,
    "city": "Victoria",
    "lat": 48.4303219,
    "lng": -123.3692456,
    "name": "Herald St. Beer Works",
    "postal": "V8W 3N8",
    "rating": 5,
    "ratings": 2,
    "status": "OPERATIONAL",
    "tel": null,
    "website": "http://heraldstreet.com/"
  },
  {
    "address": "334 Market Ave, Grand Forks, BC V0H 1H0, Canada",
    "avatar": true,
    "banner": true,
    "city": "Grand Forks",
    "description": "Opening 2020.",
    "lat": 49.0317903,
    "lng": -118.4381737,
    "name": "Grand Forks Beer Co",
    "postal": "V0H 1H0",
    "rating": null,
    "ratings": null,
    "status": "OPERATIONAL",
    "tel": null,
    "twitter": "grandforksbeer",
    "website": "http://grandforksbeerco.com/"
  },
  {
    "address": "266 1st St E, North Vancouver, BC V7L 1B3, Canada",
    "avatar": true,
    "banner": true,
    "city": "North Vancouver",
    "description": "Award-winning independent craft brewery in San Diego, CA. Visit our North Park brewery & Point Loma Waterfront Biergarten üçª",
    "lat": 49.3096898,
    "lng": -123.0729687,
    "name": "North Point Brewing Co",
    "postal": "V7L 1B3",
    "rating": 4.7,
    "ratings": 37,
    "status": "OPERATIONAL",
    "tel": "(778) 340-4677",
    "twitter": "EppigBrewing",
    "website": "http://www.northpointbrewing.com/"
  },
  {
    "address": "5559 Wharf Ave, Sechelt, BC V0N 3A0, Canada",
    "avatar": false,
    "banner": false,
    "city": "Sechelt",
    "lat": 49.4739263,
    "lng": -123.7551078,
    "name": "Batch 44 Brewery and Kitchen",
    "postal": "V0N 3A0",
    "rating": 4.5,
    "ratings": 36,
    "status": "OPERATIONAL",
    "tel": "(604) 740-3805",
    "website": "https://www.batch44brewery.com/"
  },
  {
    "address": "1601 Peninsula Rd, Ucluelet, BC V0R 3A0, Canada",
    "avatar": true,
    "banner": false,
    "city": "Ucluelet",
    "description": "craft beer in beautiful downtown ucluelet coming in 2019",
    "lat": 48.9420364,
    "lng": -125.5466517,
    "name": "Ucluelet Brewing Company",
    "postal": "V0R 3A0",
    "rating": 4.9,
    "ratings": 16,
    "status": "OPERATIONAL",
    "tel": "(250) 726-0499",
    "twitter": "BrewUkee",
    "website": "http://www.uclueletbrewing.ca/"
  },
  {
    "address": "2323 Millstream Rd, Victoria, BC V9B 3R4, Canada",
    "avatar": true,
    "banner": false,
    "city": "Victoria",
    "description": "We are a very unique veterans nonprofit brewing Company. Our mission is to brew beer, sell it and donate to military and first responder veterans PTSD programs.",
    "lat": 48.4646422,
    "lng": -123.5002106,
    "name": "V2V Black Hops Brewing",
    "postal": "V9B 3R4",
    "rating": 5,
    "ratings": 5,
    "status": "OPERATIONAL",
    "tel": "(778) 677-3012",
    "twitter": "HopsV2v",
    "website": "https://v2vblackhopsbrewing.ca/"
  },
  {
    "address": "117 Fourth St, Salmo, BC V0G 1Z0, Canada",
    "avatar": false,
    "banner": false,
    "city": "Salmo",
    "lat": 49.194639,
    "lng": -117.2780732,
    "name": "Erie Creek Brewing Company",
    "postal": "V0G 1Z0",
    "rating": 4.3,
    "ratings": 6,
    "status": "OPERATIONAL",
    "tel": "(250) 357-2479",
    "website": "https://www.eriecreekbrewingco.com/"
  },
  {
    "address": "3477 Lakeshore Rd #116, Kelowna, BC V1W 1V3, Canada",
    "avatar": false,
    "banner": false,
    "city": "Kelowna",
    "lat": 49.8551315,
    "lng": -119.4899735,
    "name": "Shore Line Brewing Co.",
    "postal": "V1W 1V3",
    "rating": 4.2,
    "ratings": 22,
    "status": "OPERATIONAL",
    "tel": "(778) 940-6802",
    "website": "http://www.shorelinebrewing.com/"
  },
  {
    "address": "6385 Lickman Rd Lot 2southsumas, Chilliwack, BC V2R 4A9, Canada",
    "avatar": false,
    "banner": false,
    "city": "Chilliwack",
    "lat": 49.1181317,
    "lng": -122.0070596,
    "name": "Farmhouse Brewing co.",
    "postal": "V2R 4A9",
    "rating": null,
    "ratings": null,
    "status": "OPERATIONAL",
    "tel": null,
    "website": "https://farmhousebrewingco.ca/"
  },
  {
    "address": "1616 Clark Dr, Vancouver, BC V5L 4Y2, Canada",
    "avatar": false,
    "banner": false,
    "city": "Vancouver",
    "lat": 49.2702997,
    "lng": -123.0770632,
    "name": "Terminal City Brewing",
    "postal": "V5L 4Y2",
    "rating": 4.8,
    "ratings": 38,
    "status": "OPERATIONAL",
    "tel": "(604) 875-0600",
    "website": "http://tcbrewing.com/"
  }
]