[
  {
    "address": "595 Wall St, Winnipeg, MB R3G 2T5, Canada",
    "avatar": true,
    "banner": true,
    "city": "Winnipeg",
    "description": "Independently owned neighbourhood brewery & taproom at home in the West End. Tues to Sat 12-6pm | Order Curbside Pickup | Home Delivery",
    "lat": 49.8847678,
    "lng": -97.1825078,
    "name": "Barn Hammer Brewing Company",
    "postal": "R3G 2T5",
    "rating": 4.7,
    "ratings": 172,
    "status": "OPERATIONAL",
    "tel": null,
    "twitter": "BarnHammerBeer",
    "website": "http://barnhammerbrewing.ca/"
  },
  {
    "address": "800 Pembina Hwy, Winnipeg, MB R3M 2M7, Canada",
    "avatar": false,
    "banner": false,
    "city": "Winnipeg",
    "lat": 49.85738689999999,
    "lng": -97.1512061,
    "name": "Brazen Hall Kitchen & Brewery",
    "postal": "R3M 2M7",
    "rating": 4.4,
    "ratings": 869,
    "status": "OPERATIONAL",
    "tel": "(204) 453-7980",
    "website": "http://www.brazenhall.ca/"
  },
  {
    "address": "1832 King Edward St, Winnipeg, MB R2R 0N1, Canada",
    "avatar": false,
    "banner": false,
    "city": "Winnipeg",
    "lat": 49.92418929999999,
    "lng": -97.20754579999999,
    "name": "Minhas Creek Craft Brewing Company Inc",
    "postal": "R2R 0N1",
    "rating": 2,
    "ratings": 2,
    "status": "OPERATIONAL",
    "tel": null,
    "website": null
  },
  {
    "address": "1832 King Edward St, Winnipeg, MB R2R 0N1, Canada",
    "avatar": false,
    "banner": false,
    "city": "Winnipeg",
    "lat": 49.92418929999999,
    "lng": -97.20754579999999,
    "name": "Minhas Creek Craft Brewing Company Inc.",
    "postal": "R2R 0N1",
    "rating": 2,
    "ratings": 2,
    "status": "OPERATIONAL",
    "tel": null,
    "website": null
  },
  {
    "address": "1875 Pembina Hwy Unit 9, Winnipeg, MB R3T 2G7, Canada",
    "avatar": true,
    "banner": true,
    "city": "Winnipeg",
    "description": "Wickedly independent craft brewery in Winnipeg, MB. Creative, irreverent, and boundary-pushing. Est. 2018. #BrewItTo11",
    "lat": 49.8216586,
    "lng": -97.15459240000001,
    "name": "Devil May Care Brewing Company",
    "postal": "R3T 2G7",
    "rating": 4,
    "ratings": 1,
    "status": "OPERATIONAL",
    "tel": "(204) 955-6258",
    "twitter": "devilmaybeer",
    "website": "http://devilmaycarebrewing.com/"
  },
  {
    "address": "130 Lowson Cres, Winnipeg, MB R3P 2H8, Canada",
    "avatar": true,
    "banner": true,
    "city": "Winnipeg",
    "description": "Producing beer for the most loyal beer drinkers in the world!",
    "lat": 49.8361619,
    "lng": -97.2084508,
    "name": "Fort Garry Brewing",
    "postal": "R3P 2H8",
    "rating": 4.4,
    "ratings": 17,
    "status": "OPERATIONAL",
    "tel": "(204) 487-3678",
    "twitter": "fortgarrybeer",
    "website": "http://www.fortgarry.com/"
  },
  {
    "address": "550 Roseberry St, Winnipeg, MB R3H 0T1, Canada",
    "avatar": true,
    "banner": true,
    "city": "Winnipeg",
    "description": "Winnipeg's original independent brewery since 2006. 550 Roseberry Street. Open 11am-7pm(Tues to Sat) Brew Tours Cancelled Until Further Notice",
    "lat": 49.8916114,
    "lng": -97.2158932,
    "name": "Half Pints Brewing Company",
    "postal": "R3H 0T1",
    "rating": 4.7,
    "ratings": 130,
    "status": "OPERATIONAL",
    "tel": "(204) 832-7468",
    "twitter": "HalfPintsBrewCo",
    "website": "http://www.halfpintsbrewing.com/"
  },
  {
    "address": "1180 Sanford St, Winnipeg, MB R3E 2Z9, Canada",
    "avatar": true,
    "banner": true,
    "city": "Winnipeg",
    "description": "Craft brewery and taproom in Winnipeg. Beers available at Liquor Marts and beer vendors across Manitoba.\nBuy online at https://t.co/il80rRv6ft.",
    "lat": 49.9006194,
    "lng": -97.1937143,
    "name": "Oxus Brewing Company",
    "postal": "R3E 2Z9",
    "rating": 4.9,
    "ratings": 10,
    "status": "OPERATIONAL",
    "tel": null,
    "twitter": "oxusbrewing",
    "website": "http://oxusbrewing.com/"
  },
  {
    "address": "336 William Ave, Winnipeg, MB R3A 0H7, Canada",
    "avatar": false,
    "banner": false,
    "city": "Winnipeg",
    "lat": 49.90004219999999,
    "lng": -97.143059,
    "name": "Little Brown Jug",
    "postal": "R3A 0H7",
    "rating": 4.6,
    "ratings": 323,
    "status": "OPERATIONAL",
    "tel": "(204) 500-0441",
    "website": "https://littlebrownjug.ca/"
  },
  {
    "address": "125 Pacific Ave, Winnipeg, MB R3B 0M1, Canada",
    "avatar": true,
    "banner": true,
    "city": "Winnipeg",
    "description": "Proudly crafting beer in Winnipeg, Manitoba. Fiers de produire de la bi√®re √† Winnipeg, au Manitoba. Taproom open 4-11pm, Tues-Sat. Home delivery available.",
    "lat": 49.9003246,
    "lng": -97.13410879999999,
    "name": "Nonsuch Brewing Co.",
    "postal": "R3B 0M1",
    "rating": 4.9,
    "ratings": 264,
    "status": "OPERATIONAL",
    "tel": "(204) 666-7824",
    "twitter": "NonsuchBeer",
    "website": "http://www.nonsuch.beer/"
  },
  {
    "address": "1596 Ness Ave, Winnipeg, MB R3J 3W6, Canada",
    "avatar": true,
    "banner": true,
    "city": "Winnipeg",
    "description": "We are independent. We measure success one pint at a time. We give back. We love our neighborhood and city. We believe that great beer makes the journey.",
    "lat": 49.8831901,
    "lng": -97.20325369999999,
    "name": "One Great City Brewing Company",
    "postal": "R3J 3W6",
    "rating": 4.6,
    "ratings": 599,
    "status": "OPERATIONAL",
    "tel": "(204) 779-2337",
    "twitter": "MigrationBrew",
    "website": "http://ogcbrewingco.com/"
  },
  {
    "address": "479-B Warsaw Ave, Winnipeg, MB R3L 0R2, Canada",
    "avatar": true,
    "banner": true,
    "city": "Winnipeg",
    "description": "Family owned craft brewery & taproom in Fort Rouge - located two blocks south of Confusion Corner. üéü Hours: Wed - Fri 2-6 | Sat 12-6",
    "lat": 49.8727124,
    "lng": -97.1419736,
    "name": "Sookram's Brewing Company",
    "postal": "R3L 0R2",
    "rating": 4.9,
    "ratings": 69,
    "status": "OPERATIONAL",
    "tel": null,
    "twitter": "sookramsbrewing",
    "website": "http://sookrams.com/"
  },
  {
    "address": "1875 Pembina Hwy #9, Winnipeg, MB R3T 2G7, Canada",
    "avatar": true,
    "banner": true,
    "city": "Winnipeg",
    "description": "Taproom and patio now open Monday - Saturday, Noon-10pm, Sunday 2-6. Visit and stay for a while. Order for pickup or delivery. Tag us #stoneangelbeer",
    "lat": 49.8216341,
    "lng": -97.1546322,
    "name": "Stone Angel Brewing Co.",
    "postal": "R3T 2G7",
    "rating": 4.7,
    "ratings": 118,
    "status": "OPERATIONAL",
    "tel": "(204) 226-1361",
    "twitter": "stoneangelbeer",
    "website": "https://stoneangelbrewing.com/"
  },
  {
    "address": "480 MB-5, Neepawa, MB R0J 1H0, Canada",
    "avatar": true,
    "banner": true,
    "city": "Neepawa",
    "description": "In the heart of the Great Canadian prairies, visit Farmery Estate Brewery and our family farm where hops and barley that go into our beer are grown.",
    "lat": 50.2285484,
    "lng": -99.4792813,
    "name": "Farmery Estate Brewery",
    "postal": "R0J 1H0",
    "rating": 4.8,
    "ratings": 48,
    "status": "OPERATIONAL",
    "tel": "(204) 777-0909",
    "twitter": "FarmeryBrewery",
    "website": "http://www.farmery.ca/"
  },
  {
    "address": "330-830 King Edward St, Winnipeg, MB R3H 0P4, Canada",
    "avatar": true,
    "banner": true,
    "city": "Winnipeg",
    "description": "Sophisticated Brewers @ Torque Brewing Company, Winnipeg, Manitoba.. Drink Local!",
    "lat": 49.90271,
    "lng": -97.2073882,
    "name": "Torque Brewing",
    "postal": "R3H 0P4",
    "rating": 4.8,
    "ratings": 170,
    "status": "OPERATIONAL",
    "tel": "(204) 410-2124",
    "twitter": "Torque_Beer",
    "website": "https://torquebrewing.beer/"
  },
  {
    "address": "1290 Kenaston Blvd #1, Winnipeg, MB R3P 0R7, Canada",
    "avatar": true,
    "banner": false,
    "city": "Winnipeg",
    "description": "",
    "lat": 49.8324491,
    "lng": -97.2084986,
    "name": "Trans Canada Brewing Co.",
    "postal": "R3P 0R7",
    "rating": 4.7,
    "ratings": 303,
    "status": "OPERATIONAL",
    "tel": "(204) 666-2337",
    "twitter": "transcanadabrew",
    "website": "http://www.tcb.beer/"
  },
  {
    "address": "450 Rue Deschambault, Winnipeg, MB R2H 0K1, Canada",
    "avatar": true,
    "banner": true,
    "city": "Winnipeg",
    "description": "Inventive beer brewed with love in Winnipeg. Taproom opening once world is safe ü¶©‚òÄÔ∏èüå¥",
    "lat": 49.8896145,
    "lng": -97.10702909999999,
    "name": "Kilter Brewing",
    "postal": "R2H 0K1",
    "rating": 5,
    "ratings": 5,
    "status": "OPERATIONAL",
    "tel": null,
    "twitter": "kilterbrewing",
    "website": "http://www.kilterbrewing.co/"
  },
  {
    "address": "Manitoba, Canada",
    "avatar": false,
    "banner": false,
    "city": null,
    "lat": 53.7608608,
    "lng": -98.8138762,
    "name": "Winterlong Brewing Co.",
    "postal": null,
    "rating": null,
    "ratings": null,
    "status": null,
    "tel": null,
    "website": "http://www.gov.mb.ca/"
  },
  {
    "address": "True North Square, 242 Hargrave St, Winnipeg, MB R3R 0T8, Canada",
    "avatar": false,
    "banner": false,
    "city": "Winnipeg",
    "lat": 49.891268,
    "lng": -97.1441693,
    "name": "Lake of the Woods Brewing Company Winnipeg",
    "postal": "R3R 0T8",
    "rating": 5,
    "ratings": 3,
    "status": "OPERATIONAL",
    "tel": "(833) 321-2337",
    "website": "http://lowbrewco.com/"
  }
]