[
  {
    "address": "537 Otis Dr, Nackawic, NB E6G 1H5, Canada",
    "avatar": true,
    "banner": true,
    "city": "Nackawic",
    "description": "537 Otis Drive Nackawic NB\r\n506-575-1093",
    "lat": 45.9735903,
    "lng": -67.2415875,
    "name": "Big Axe Brewery",
    "postal": "E6G 1H5",
    "rating": 4.9,
    "ratings": 51,
    "status": "OPERATIONAL",
    "tel": "(506) 575-1093",
    "twitter": "BigAxeBrewery",
    "website": "https://bigaxe.ca/"
  },
  {
    "address": "47 Princess St, Saint John, NB E2L 1K1, Canada",
    "avatar": false,
    "banner": false,
    "city": "Saint John",
    "lat": 45.27152900000001,
    "lng": -66.06117499999999,
    "name": "Big Tide Brewing",
    "postal": "E2L 1K1",
    "rating": 4.3,
    "ratings": 204,
    "status": "OPERATIONAL",
    "tel": "(506) 214-3311",
    "website": "http://www.bigtidebrew.com/"
  },
  {
    "address": "3216 Rue Principale, Tracadie-Sheila, NB E1X 1A3, Canada",
    "avatar": true,
    "banner": true,
    "city": "Tracadie-Sheila",
    "description": "",
    "lat": 47.5309778,
    "lng": -64.9104858,
    "name": "Brasseux d'la Côte",
    "postal": "E1X 1A3",
    "rating": 4.7,
    "ratings": 74,
    "status": "OPERATIONAL",
    "tel": "(506) 395-4476",
    "twitter": "brasseuxdlacote",
    "website": "http://brasseuxdlacote.ca/"
  },
  {
    "address": "250 Dieppe Blvd, Dieppe, NB E1A 6P8, Canada",
    "avatar": true,
    "banner": true,
    "city": "Dieppe",
    "description": "Microbrasserie Artisanale situé à Dieppe NB, Canada. Prononcé : 'CAV-OH-KAY'. Craft Brewery located in Dieppe NB, Canada. It's pronounced 'CAV-OH-KAY'.",
    "lat": 46.1054,
    "lng": -64.7075,
    "name": "CAVOK Brewing Co.",
    "postal": "E1A 6P8",
    "rating": 4.7,
    "ratings": 95,
    "status": "OPERATIONAL",
    "tel": "(506) 961-5835",
    "twitter": "CAVOKBrewingCO",
    "website": "http://cavokbrewing.ca/"
  },
  {
    "address": "23 Biggs Dr, Riverview, NB E1B 3H5, Canada",
    "avatar": false,
    "banner": false,
    "city": "Riverview",
    "lat": 46.0619969,
    "lng": -64.8169793,
    "name": "Celtic Knot Brewing",
    "postal": "E1B 3H5",
    "rating": 4.5,
    "ratings": 24,
    "status": "OPERATIONAL",
    "tel": "(506) 988-2553",
    "website": null
  },
  {
    "address": "143 Union St, Saint John, NB E2L 1A7, Canada",
    "avatar": false,
    "banner": false,
    "city": "Saint John",
    "lat": 45.2749827,
    "lng": -66.0601223,
    "name": "First City Brewery",
    "postal": "E2L 1A7",
    "rating": 4.3,
    "ratings": 29,
    "status": "OPERATIONAL",
    "tel": "(506) 693-1215",
    "website": "https://www.facebook.com/FirstCityBrewing/"
  },
  {
    "address": "700 Malenfant Blvd, Dieppe, NB E1A 5V8, Canada",
    "avatar": true,
    "banner": false,
    "city": "Dieppe",
    "description": "",
    "lat": 46.102959,
    "lng": -64.719841,
    "name": "Flying Boats Brewing Company",
    "postal": "E1A 5V8",
    "rating": 4.8,
    "ratings": 65,
    "status": "OPERATIONAL",
    "tel": null,
    "twitter": "FlyingBoatsBrew",
    "website": "http://flyingboatsbrewing.com/"
  },
  {
    "address": "47 Clark Rd, Rothesay, NB E2E 2K8, Canada",
    "avatar": true,
    "banner": true,
    "city": "Rothesay",
    "description": "Craft brewery; the first of its kind located in the heart of the Kennebecasis Valley, NB; in the business of crafting beer, making merry and creating community.",
    "lat": 45.39786609999999,
    "lng": -65.984404,
    "name": "Foghorn Brewing Company",
    "postal": "E2E 2K8",
    "rating": 4.8,
    "ratings": 29,
    "status": "OPERATIONAL",
    "tel": "(506) 216-7000",
    "twitter": "drinkfoghorn",
    "website": "http://www.drinkfoghorn.ca/"
  },
  {
    "address": "335 Murray Ave, Bathurst, NB E2A 1T4, Canada",
    "avatar": false,
    "banner": false,
    "city": "Bathurst",
    "lat": 47.6191888,
    "lng": -65.6495354,
    "name": "Four Rivers Brewing Co.",
    "postal": "E2A 1T4",
    "rating": 4.9,
    "ratings": 43,
    "status": "OPERATIONAL",
    "tel": "(506) 350-2800",
    "website": "https://www.facebook.com/four.rivers.brew/"
  },
  {
    "address": "221 King St, Fredericton, NB E3B 1J4, Canada",
    "avatar": true,
    "banner": true,
    "city": "Fredericton",
    "description": "Brewing small batches of hand crafted, west coast style ales. Over 20 NB craft brews available. Crowlers to go & pints onsite. 221 King St, downtown F'ton.",
    "lat": 45.963999,
    "lng": -66.6477938,
    "name": "Graystone Brewing",
    "postal": "E3B 1J4",
    "rating": 4.7,
    "ratings": 179,
    "status": "OPERATIONAL",
    "tel": "(506) 459-7710",
    "twitter": "GrayStoneBeer",
    "website": "http://graystonebrewing.com/"
  },
  {
    "address": "600 Bishop Dr, Fredericton, NB E3C 0B4, Canada",
    "avatar": true,
    "banner": true,
    "city": "Fredericton",
    "description": "Inspired ales and lagers crafted in the Maritimes.       \nFacebook: https://t.co/ekRDcoPeU4…",
    "lat": 45.9409037,
    "lng": -66.6736188,
    "name": "Grimross Brewing",
    "postal": "E3C 0B4",
    "rating": 4.8,
    "ratings": 135,
    "status": "OPERATIONAL",
    "tel": "(506) 454-4810",
    "twitter": "GrimrossBrewing",
    "website": "http://www.grimross.com/"
  },
  {
    "address": "141 Hampton Rd, Rothesay, NB E2E 2N6, Canada",
    "avatar": true,
    "banner": true,
    "city": "Rothesay",
    "description": "Brewery and Beer Bar in the Heart of The Kennebecasis River Valley!",
    "lat": 45.4006386,
    "lng": -65.9777056,
    "name": "Hammond River Brewing Company",
    "postal": "E2E 2N6",
    "rating": 4.5,
    "ratings": 113,
    "status": "OPERATIONAL",
    "tel": "(506) 847-2996",
    "twitter": "HRBrewing",
    "website": "http://hrbrewing.ca/"
  },
  {
    "address": "8576 Main St, Alma, NB E4H 1N4, Canada",
    "avatar": true,
    "banner": true,
    "city": "Alma",
    "description": "Purveyors of fine beer, roasters of delicious coffee and host to top-notch musical talent. \n2018 shows: June 14 - Sept 15\nThurs 7pm, Fri & Sat 9pm",
    "lat": 45.60241569999999,
    "lng": -64.94287539999999,
    "name": "Holy Whale Brewery",
    "postal": "E4H 1N4",
    "rating": 4.8,
    "ratings": 193,
    "status": "OPERATIONAL",
    "tel": "(506) 887-1999",
    "twitter": "holywhalebrew",
    "website": "https://facebook.com/pages/Holy-Whale-Brewery/1446845835331820"
  },
  {
    "address": "45 Rue de l'Église, Edmundston, NB E3V 1J4, Canada",
    "avatar": false,
    "banner": false,
    "city": "Edmundston",
    "lat": 47.3661914,
    "lng": -68.3271616,
    "name": "Les Brasseurs du Petit-Sault",
    "postal": "E3V 1J4",
    "rating": 4.5,
    "ratings": 39,
    "status": "OPERATIONAL",
    "tel": "(506) 733-1313",
    "website": "http://petitsault.com/"
  },
  {
    "address": "82 Marr Rd, Rothesay, NB E2E 3J9, Canada",
    "avatar": false,
    "banner": false,
    "city": "Rothesay",
    "lat": 45.3903556,
    "lng": -65.9692287,
    "name": "Long Bay Brewery",
    "postal": "E2E 3J9",
    "rating": 4.9,
    "ratings": 23,
    "status": "OPERATIONAL",
    "tel": "(506) 847-4677",
    "website": "https://www.facebook.com/longbaybrewery/"
  },
  {
    "address": "60 Water St, Saint John, NB E2L 5G1, Canada",
    "avatar": false,
    "banner": false,
    "city": "Saint John",
    "lat": 45.2710236,
    "lng": -66.0622427,
    "name": "Loyalist City Brewing Co.",
    "postal": "E2L 5G1",
    "rating": 5,
    "ratings": 8,
    "status": "OPERATIONAL",
    "tel": "(855) 404-2337",
    "website": "http://loyalistcitybrewing.ca/"
  },
  {
    "address": "500 Brookside Dr, Fredericton, NB E3A 8V2, Canada",
    "avatar": true,
    "banner": true,
    "city": "Fredericton",
    "description": "Mama’s Brew Pub is located in the West Hills Village just off Brookside Drive, right across from the Brookside Mall.",
    "lat": 45.991811,
    "lng": -66.649687,
    "name": "Mama's Brew Pub",
    "postal": "E3A 8V2",
    "rating": 4.5,
    "ratings": 489,
    "status": "OPERATIONAL",
    "tel": "(506) 450-4303",
    "twitter": "MamasPub",
    "website": "http://www.mamasbrewpub.com/"
  },
  {
    "address": "559 Wilsey Rd #4, Fredericton, NB E3B 7K1, Canada",
    "avatar": true,
    "banner": true,
    "city": "Fredericton",
    "description": "Maybee Brew is a craft brewery in Fredericton, New Brunswick.\nHome of the Work Horse IPA.",
    "lat": 45.91490599999999,
    "lng": -66.6160055,
    "name": "Maybee Brew Co",
    "postal": "E3B 7K1",
    "rating": 4.7,
    "ratings": 36,
    "status": "OPERATIONAL",
    "tel": "(506) 450-2739",
    "twitter": "maybeebrew",
    "website": "http://www.maybeebrew.com/"
  },
  {
    "address": "89 Main St W, Saint John, NB E2M 3H2, Canada",
    "avatar": true,
    "banner": true,
    "city": "Saint John",
    "description": "Since 1867, defying the odds has been in our DNA. While others back down, we #outlast.",
    "lat": 45.2569168,
    "lng": -66.096606,
    "name": "Moosehead Breweries Ltd.",
    "postal": "E2M 3H2",
    "rating": 4.4,
    "ratings": 47,
    "status": "OPERATIONAL",
    "tel": "(877) 888-2337",
    "twitter": "MooseheadLager",
    "website": "http://www.moosehead.ca/"
  },
  {
    "address": "280 Main St, Fredericton, NB E3A 1C9, Canada",
    "avatar": true,
    "banner": true,
    "city": "Fredericton",
    "description": "",
    "lat": 45.97540679999999,
    "lng": -66.6495913,
    "name": "Trailway Brewing Co.",
    "postal": "E3A 1C9",
    "rating": 4.8,
    "ratings": 96,
    "status": "OPERATIONAL",
    "tel": "(506) 455-8246",
    "twitter": "trailwaybrewing",
    "website": "http://www.trailwaybrewing.com/"
  },
  {
    "address": "912 Union St, Fredericton, NB E3A 3P7, Canada",
    "avatar": true,
    "banner": true,
    "city": "Fredericton",
    "description": "PICAROONS TRADITIONAL ALES BREWERY & TAPROOM! Beer for here - and beer to go!",
    "lat": 45.9585946,
    "lng": -66.62443979999999,
    "name": "Picaroons Traditional Ales",
    "postal": "E3A 3P7",
    "rating": 4.5,
    "ratings": 59,
    "status": "OPERATIONAL",
    "tel": "(506) 457-9082",
    "twitter": "PicsRoundhouse",
    "website": "http://picaroons.ca/"
  },
  {
    "address": "5 Orange Ln, Moncton, NB E1C 4L6, Canada",
    "avatar": false,
    "banner": false,
    "city": "Moncton",
    "lat": 46.089788,
    "lng": -64.77440299999999,
    "name": "Pump House - Brewpub & Restaurant",
    "postal": "E1C 4L6",
    "rating": 4.5,
    "ratings": 1496,
    "status": "OPERATIONAL",
    "tel": "(506) 855-2337",
    "website": "http://restaurant.pumphousebrewery.ca/"
  },
  {
    "address": "694 Perth Main St, Perth-Andover, NB E7H 2W7, Canada",
    "avatar": true,
    "banner": true,
    "city": "Perth-Andover",
    "description": "1.5 BBL Nano Brewery",
    "lat": 46.73649400000001,
    "lng": -67.7026614,
    "name": "Railcar Brewing Company",
    "postal": "E7H 2W7",
    "rating": 4.6,
    "ratings": 10,
    "status": "OPERATIONAL",
    "tel": "(506) 392-6620",
    "twitter": "RCBrewing",
    "website": null
  },
  {
    "address": "700 Main St, Moncton, NB E1C 1E4, Canada",
    "avatar": true,
    "banner": false,
    "city": "Moncton",
    "description": "Gastro=amazing food. Pub=public house. Gastropub=A place to go to experience affordable and amazing food, service and drinks in a relaxed social enviroment.",
    "lat": 46.0887082,
    "lng": -64.77585309999999,
    "name": "Tide & Boar",
    "postal": "E1C 1E4",
    "rating": 4.4,
    "ratings": 1163,
    "status": "OPERATIONAL",
    "tel": "(506) 857-9118",
    "twitter": "TideandBoar",
    "website": "http://www.tideandboar.com/"
  },
  {
    "address": "Shediac, NB E1H 3H4, Canada",
    "avatar": false,
    "banner": false,
    "city": null,
    "lat": 46.2706232,
    "lng": -64.67987289999999,
    "name": "Valonray Farmhouse Brewery",
    "postal": "E1H 3H4",
    "rating": 5,
    "ratings": 2,
    "status": "CLOSED_PERMANENTLY",
    "tel": "(506) 988-9339",
    "website": null
  },
  {
    "address": "New Brunswick, Canada",
    "avatar": false,
    "banner": false,
    "city": null,
    "lat": 46.5653163,
    "lng": -66.46191639999999,
    "name": "O'Creek Brewing",
    "postal": null,
    "rating": null,
    "ratings": null,
    "status": null,
    "tel": null,
    "website": "http://www.gnb.ca/"
  },
  {
    "address": "215 Cunard St, Bathurst, NB E2A 0C4, Canada",
    "avatar": true,
    "banner": true,
    "city": "Bathurst",
    "description": "Family owned & operated craft brewery on the Bathurst, New Brunswick waterfront.",
    "lat": 47.6216878,
    "lng": -65.6535413,
    "name": "13 Barrels Brewing",
    "postal": "E2A 0C4",
    "rating": 4.6,
    "ratings": 23,
    "status": "OPERATIONAL",
    "tel": "(506) 546-5300",
    "twitter": "13Barrels",
    "website": "https://www.13barrels.ca/"
  },
  {
    "address": "597b Main St, Sussex, NB E4E 7H5, Canada",
    "avatar": false,
    "banner": false,
    "city": "Sussex",
    "lat": 45.7229717,
    "lng": -65.50847259999999,
    "name": "Sussex Ale Works",
    "postal": "E4E 7H5",
    "rating": 4.9,
    "ratings": 11,
    "status": "OPERATIONAL",
    "tel": "(506) 432-1124",
    "website": "https://www.facebook.com/SussexAleWorks/"
  },
  {
    "address": "599 Chemin Principale, Petit-Paquetville, NB E8R 1G7, Canada",
    "avatar": false,
    "banner": false,
    "city": "Petit-Paquetville",
    "lat": 47.6953234,
    "lng": -65.06188139999999,
    "name": "Distillerie Fils du Roy",
    "postal": "E8R 1G7",
    "rating": 4.7,
    "ratings": 35,
    "status": "OPERATIONAL",
    "tel": "(506) 764-2046",
    "website": "http://distilleriefilsduroy.com/"
  },
  {
    "address": "100 Main St, Bathurst, NB E2A 1A4, Canada",
    "avatar": false,
    "banner": false,
    "city": "Bathurst",
    "lat": 47.6202446,
    "lng": -65.6563534,
    "name": "AKA Beer",
    "postal": "E2A 1A4",
    "rating": 5,
    "ratings": 1,
    "status": "OPERATIONAL",
    "tel": "(506) 440-8736",
    "website": "http://www.akabeer.ca/"
  },
  {
    "address": "281 Restigouche Rd, Oromocto, NB E2V 2H1, Canada",
    "avatar": false,
    "banner": false,
    "city": "Oromocto",
    "lat": 45.8423221,
    "lng": -66.5041973,
    "name": "Johnny Jacks Brewery",
    "postal": "E2V 2H1",
    "rating": 5,
    "ratings": 2,
    "status": "OPERATIONAL",
    "tel": "(226) 606-3668",
    "website": "http://facebook.com/johnnyjacks"
  },
  {
    "address": "190 John St, Moncton, NB E1C 2H9, Canada",
    "avatar": false,
    "banner": false,
    "city": "Moncton",
    "lat": 46.0929484,
    "lng": -64.79300309999999,
    "name": "Tire Shack Brewing Co",
    "postal": "E1C 2H9",
    "rating": 4.9,
    "ratings": 21,
    "status": "OPERATIONAL",
    "tel": "(506) 830-4321",
    "website": "http://facebook.com/tireshackbrewing/"
  },
  {
    "address": "74 St James St, Hampton, NB E5N 5W5, Canada",
    "avatar": false,
    "banner": false,
    "city": "Hampton",
    "lat": 45.5382352,
    "lng": -65.8381638,
    "name": "Gridiron Brewing",
    "postal": "E5N 5W5",
    "rating": 5,
    "ratings": 2,
    "status": "OPERATIONAL",
    "tel": "(506) 607-3252",
    "website": "http://www.gridironbrewing.com/"
  },
  {
    "address": "651 Rue Main Street, Grand-Sault, NB E3Z 2W6, Canada",
    "avatar": true,
    "banner": false,
    "city": "Grand-Sault",
    "description": "",
    "lat": 47.0550833,
    "lng": -67.76152379999999,
    "name": "Grand Falls Brewing Co.",
    "postal": "E3Z 2W6",
    "rating": null,
    "ratings": null,
    "status": "OPERATIONAL",
    "tel": "(506) 473-4322",
    "twitter": "grandfalls_brew",
    "website": "http://www.grandfallsbrewing.com/"
  }
]