[
  {
    "address": "1 Conception Bay Hwy, Bay Roberts, NL A0A 1G0, Canada",
    "avatar": false,
    "banner": false,
    "city": "Bay Roberts",
    "lat": 47.5955476,
    "lng": -53.2822296,
    "name": "Baccalieu Trail Brewing Co",
    "postal": "A0A 1G0",
    "rating": 4.5,
    "ratings": 20,
    "status": "OPERATIONAL",
    "tel": "(709) 788-2090",
    "website": "https://www.facebook.com/baccalieutrailbrewco/"
  },
  {
    "address": "92 West St, Corner Brook, NL A2H 2Z3, Canada",
    "avatar": true,
    "banner": false,
    "city": "Corner Brook",
    "description": "",
    "lat": 48.950609,
    "lng": -57.94036599999999,
    "name": "Bootleg Brew Co.",
    "postal": "A2H 2Z3",
    "rating": 4.7,
    "ratings": 149,
    "status": "OPERATIONAL",
    "tel": "(709) 634-2964",
    "twitter": "BootlegBrewCo",
    "website": "http://facebook.com/bootlegbrewco"
  },
  {
    "address": "351 Veterans Dr, Cormack, NL A8A 2N1, Canada",
    "avatar": false,
    "banner": false,
    "city": "Cormack",
    "lat": 49.3087225,
    "lng": -57.38614020000001,
    "name": "Crooked Feeder Brewing Co.",
    "postal": "A8A 2N1",
    "rating": 5,
    "ratings": 9,
    "status": "OPERATIONAL",
    "tel": "(709) 636-3383",
    "website": "http://www.crookedfeederbrewingco.com/"
  },
  {
    "address": "181 Commonwealth Ave, Mount Pearl, NL A1N 4L3, Canada",
    "avatar": true,
    "banner": true,
    "city": "Mount Pearl",
    "description": "Craft Brewery selling cans and growlers and taproom with food by @saucymouthtruck.\n181 Commonwealth, Mount Pearl, NL. \nT/F 4-10, Sat 12-10, Sun 12-6",
    "lat": 47.5080413,
    "lng": -52.7945438,
    "name": "Landwash Brewery",
    "postal": "A1N 4L3",
    "rating": 4.7,
    "ratings": 57,
    "status": "OPERATIONAL",
    "tel": "(709) 368-0220",
    "twitter": "landwashbrewery",
    "website": "http://landwashbrewery.com/"
  },
  {
    "address": "119 Main St, Twillingate, NL A0G 4M0, Canada",
    "avatar": false,
    "banner": false,
    "city": "Twillingate",
    "lat": 49.6474736,
    "lng": -54.7699653,
    "name": "Split Rock Brewing Co.",
    "postal": "A0G 4M0",
    "rating": 4.6,
    "ratings": 185,
    "status": "OPERATIONAL",
    "tel": "(709) 893-2228",
    "website": "https://www.splitrockbrewing.ca/"
  },
  {
    "address": "555 Wellington St, Ottawa, ON K1R 1C5, Canada",
    "avatar": true,
    "banner": true,
    "city": "Ottawa",
    "description": "135 harbour drive. Your one stop shop for GREAT BEER. Brewpub and retail store available all under the one roof. Stay tune for new local beer!",
    "lat": 45.41968199999999,
    "lng": -75.712687,
    "name": "Mill Street BrewPub",
    "postal": "K1R 1C5",
    "rating": 4.2,
    "ratings": 2955,
    "status": "OPERATIONAL",
    "tel": "(613) 567-2337",
    "twitter": "MillStreetYYT",
    "website": "http://ottawa.millstreetbrewpub.ca/"
  },
  {
    "address": "23 Stentaford Ave, Pasadena, NL A0L, Canada",
    "avatar": true,
    "banner": false,
    "city": "Pasadena",
    "description": "Western Newfoundland Brewing Company! Better than a puffin riding a whale while watching icebergs. Beer from the West coast best coast!",
    "lat": 49.0210867,
    "lng": -57.59685179999999,
    "name": "Western Newfoundland Brewing Company Ltd.",
    "postal": "A0L",
    "rating": null,
    "ratings": null,
    "status": "OPERATIONAL",
    "tel": "(709) 630-0119",
    "twitter": "WNLBrewing",
    "website": "http://westernnewfoundlandbrewing.ca/"
  },
  {
    "address": "6 Ship Cove Rd, Port Rexton, NL A0C 2H0, Canada",
    "avatar": false,
    "banner": false,
    "city": "Port Rexton",
    "lat": 48.389399,
    "lng": -53.330575,
    "name": "Port Rexton Brewery + Tap Room",
    "postal": "A0C 2H0",
    "rating": 4.6,
    "ratings": 386,
    "status": "OPERATIONAL",
    "tel": "(709) 464-2337",
    "website": "http://www.portrextonbrewing.com/"
  },
  {
    "address": "288 Water St, St. John's, NL A1C 5J9, Canada",
    "avatar": true,
    "banner": true,
    "city": "St. John's",
    "description": "Five floors of character-filled brewery, pub, dining & meeting space. Offering unmatched historical atmosphere fused with forward-thinking cuisine. #YYT",
    "lat": 47.56225209999999,
    "lng": -52.7097493,
    "name": "YellowBelly Brewery",
    "postal": "A1C 5J9",
    "rating": 4.2,
    "ratings": 1648,
    "status": "OPERATIONAL",
    "tel": "(709) 757-3784",
    "twitter": "Yellowbellybrew",
    "website": "http://www.yellowbellybrewery.com/"
  },
  {
    "address": "35 Barrows Rd, St. John's, NL A1A 1G8, Canada",
    "avatar": false,
    "banner": false,
    "city": "St. John's",
    "lat": 47.581457,
    "lng": -52.676236,
    "name": "Quidi Vidi Brewing Company",
    "postal": "A1A 1G8",
    "rating": 4.7,
    "ratings": 289,
    "status": "OPERATIONAL",
    "tel": "(709) 738-4040",
    "website": "http://www.quidividibrewery.ca/"
  },
  {
    "address": "92-96 Main St, Port au Port, NL A0N 1T0, Canada",
    "avatar": true,
    "banner": true,
    "city": "Port au Port",
    "description": "Microbrewery 800KM west of George Street, inspired by a secluded cove, on the beautiful West Coast of Newfoundland.",
    "lat": 48.55650000000001,
    "lng": -58.689507,
    "name": "Secret Cove Brewing Company",
    "postal": "A0N 1T0",
    "rating": 4.9,
    "ratings": 73,
    "status": "OPERATIONAL",
    "tel": "(709) 648-2683",
    "twitter": "SecretCoveBrew",
    "website": "http://www.secretcovebrewing.com/"
  },
  {
    "address": "75 Conception Bay Hwy, Conception Bay South, NL A1W 3A3, Canada",
    "avatar": true,
    "banner": true,
    "city": "Conception Bay South",
    "description": "Ninepenny Brewing blends craft style and brewing science to create beers that are easy to drink and hard to forget. #nlcraftbeer #craftbeer #YYT",
    "lat": 47.5195052,
    "lng": -52.9531836,
    "name": "Ninepenny Brewing",
    "postal": "A1W 3A3",
    "rating": 4.9,
    "ratings": 33,
    "status": "OPERATIONAL",
    "tel": "(709) 240-5000",
    "twitter": "NinepennyBrew",
    "website": "http://ninepennybrewing.ca/"
  },
  {
    "address": "1 Front Rd, Dildo, NL A0B 1P0, Canada",
    "avatar": true,
    "banner": true,
    "city": "Dildo",
    "description": "Opened July 1st, 2018",
    "lat": 47.5684577,
    "lng": -53.5560268,
    "name": "Dildo Brewing Co. & Museum",
    "postal": "A0B 1P0",
    "rating": 4.7,
    "ratings": 178,
    "status": "OPERATIONAL",
    "tel": "(709) 582-3335",
    "twitter": "DildoBrewingCo",
    "website": "http://dildobrewingco.com/"
  },
  {
    "address": "90 Duckworth St, St. John's, NL A1C 1E7, Canada",
    "avatar": true,
    "banner": true,
    "city": "St. John's",
    "description": "Good things are brewing. See you soon. \n90 Duckworth St, St. John’s, NL.",
    "lat": 47.5704875,
    "lng": -52.7011554,
    "name": "Bannerman Brewing Co.",
    "postal": "A1C 1E7",
    "rating": 4.4,
    "ratings": 66,
    "status": "OPERATIONAL",
    "tel": "(709) 747-2337",
    "twitter": "bannermanbrewco",
    "website": "http://www.bannermanbrewing.com/"
  },
  {
    "address": "118 Humphrey Rd, Labrador City, NL A2V 2J8, Canada",
    "avatar": true,
    "banner": false,
    "city": "Labrador City",
    "description": "Brewery under development in Labrador City, NL. Looking forward to providing Lab West locally brewed craft beer in mid-2019.",
    "lat": 52.94701689999999,
    "lng": -66.8989435,
    "name": "Iron Rock Brewing Co.",
    "postal": "A2V 2J8",
    "rating": 5,
    "ratings": 13,
    "status": "OPERATIONAL",
    "tel": "(709) 288-0441",
    "twitter": "IronRockBrewing",
    "website": "http://ironrockbrewing.com/"
  },
  {
    "address": "227 West St, St. Anthony, NL A0K 4S0, Canada",
    "avatar": true,
    "banner": true,
    "city": "Saint Anthony",
    "description": "A Craft Brewery now open in St Anthony, Northern Newfoundland",
    "lat": 51.3620352,
    "lng": -55.5838456,
    "name": "RagnaRöck Northern Brewing Co",
    "postal": "A0K 4S0",
    "rating": 5,
    "ratings": 2,
    "status": "OPERATIONAL",
    "tel": "(709) 454-3136",
    "twitter": "NorthernLtd",
    "website": "http://ragnarockbrewing.com/"
  },
  {
    "address": "83 Wights Rd, Deer Lake, NL A8A 2J1, Canada",
    "avatar": false,
    "banner": false,
    "city": "Deer Lake",
    "lat": 49.1874901,
    "lng": -57.4230653,
    "name": "Rough Waters Brewing Company",
    "postal": "A8A 2J1",
    "rating": 5,
    "ratings": 2,
    "status": "CLOSED_TEMPORARILY",
    "tel": "(709) 635-2017",
    "website": "http://www.roughwatersbrewing.com/"
  },
  {
    "address": "55 West St, Corner Brook, NL A2H 2Y6, Canada",
    "avatar": false,
    "banner": false,
    "city": "Corner Brook",
    "lat": 48.9517873,
    "lng": -57.9418951,
    "name": "Boomstick Brewing Co.",
    "postal": "A2H 2Y6",
    "rating": 5,
    "ratings": 2,
    "status": "OPERATIONAL",
    "tel": "(709) 388-3300",
    "website": "http://boomstickbrewing.ca/"
  }
]