[
  {
    "address": "1932 Brunswick St, Halifax, NS B3J 2G7, Canada",
    "avatar": true,
    "banner": true,
    "city": "Halifax",
    "description": "Nova Scotian brewery focused on modern, fun, funky, wood aged & sour beers. 1932 Brunswick Street. Open Sundays‚ÄìWednesdays: 2-8pm, Thursdays‚ÄìSaturdays: 12‚Äì10pm",
    "lat": 44.649938,
    "lng": -63.57866070000001,
    "name": "2 Crows Brewing Co.",
    "postal": "B3J 2G7",
    "rating": 4.6,
    "ratings": 170,
    "status": "OPERATIONAL",
    "tel": "(902) 422-0222",
    "twitter": "2CrowsBrewing",
    "website": "http://2crowsbrewing.com/"
  },
  {
    "address": "75 Ferry Rd, Guysborough, NS B0H 1N0, Canada",
    "avatar": true,
    "banner": true,
    "city": "Guysborough",
    "description": "Oak-matured and craft-blended at our distillery on the historic Guysborough Harbour, Sea Fever captures the unique spirit of Nova Scotia‚Äôs Authentic Seacoast.",
    "lat": 45.4015684,
    "lng": -61.5034184,
    "name": "Authentic Seacoast Distillery & Brewery",
    "postal": "B0H 1N0",
    "rating": 4.3,
    "ratings": 10,
    "status": "OPERATIONAL",
    "tel": "(902) 533-3904",
    "twitter": "seafeverrum",
    "website": "http://www.authenticseacoast.com/"
  },
  {
    "address": "37 Bridge Ave, Stellarton, NS B0K 1S0, Canada",
    "avatar": true,
    "banner": true,
    "city": "Stellarton",
    "description": "",
    "lat": 45.562335,
    "lng": -62.657945,
    "name": "Backstage Brewing",
    "postal": "B0K 1S0",
    "rating": 4.9,
    "ratings": 22,
    "status": "OPERATIONAL",
    "tel": "(902) 755-9371",
    "twitter": "BackstageBrew",
    "website": "https://www.facebook.com/BackstageBrewingCo/"
  },
  {
    "address": "218 Water St, Shelburne, NS B0T 1W0, Canada",
    "avatar": true,
    "banner": true,
    "city": "Shelburne",
    "description": "Small, independent, (un)traditional.  Our beer is legendary.",
    "lat": 43.7684442,
    "lng": -65.32561129999999,
    "name": "Boxing Rock Brewing Company",
    "postal": "B0T 1W0",
    "rating": 4.8,
    "ratings": 44,
    "status": "OPERATIONAL",
    "tel": "(902) 494-9233",
    "twitter": "boxingrockbeer",
    "website": "http://www.boxingrock.ca/"
  },
  {
    "address": "515 Parker Condon Rd, Berwick, NS B0P 1E0, Canada",
    "avatar": true,
    "banner": true,
    "city": "Berwick",
    "description": "Craft Beers with attitude!",
    "lat": 45.060539,
    "lng": -64.731292,
    "name": "Bad Apple Brewhouse",
    "postal": "B0P 1E0",
    "rating": 4.5,
    "ratings": 36,
    "status": "OPERATIONAL",
    "tel": "(902) 679-8986",
    "twitter": "BadAppleBrewing",
    "website": "http://badapplebrewhouse.ca/"
  },
  {
    "address": "62 Main St, Sackville, NB E4L 4A7, Canada",
    "avatar": false,
    "banner": false,
    "city": "Sackville",
    "lat": 45.8960578,
    "lng": -64.3705792,
    "name": "Bagtown Brewing Company",
    "postal": "E4L 4A7",
    "rating": 4.8,
    "ratings": 8,
    "status": "OPERATIONAL",
    "tel": "(902) 221-4034",
    "website": "https://www.facebook.com/bagtownbrewing/"
  },
  {
    "address": "364 Keltic Dr, Sydney, NS B1R 1V7, Canada",
    "avatar": true,
    "banner": true,
    "city": "Sydney",
    "description": "Locally owned and operated Craft Brewery in Cape Breton. Come by our tap room Mon-Wed: 10am-8pm. Thur-Sat: 10am-11pm. Sun: 12-5pm",
    "lat": 46.1193657,
    "lng": -60.23222490000001,
    "name": "Breton Brewing Co. - Craft Beer - Growlers - Live Music - Trivia",
    "postal": "B1R 1V7",
    "rating": 4.8,
    "ratings": 74,
    "status": "OPERATIONAL",
    "tel": "(902) 270-4677",
    "twitter": "bretonbrewing",
    "website": "http://bretonbrewing.ca/"
  },
  {
    "address": "35 - A Portland St, Dartmouth, NS B2Y 1H1, Canada",
    "avatar": true,
    "banner": true,
    "city": "Dartmouth",
    "description": "Brewed for you in Dartmouth,  Nova Scotia  \nNow Delivering! Order online at:\nhttps://t.co/p3TLIdp3IV",
    "lat": 44.6649987,
    "lng": -63.56752299999999,
    "name": "Brightwood Brewery",
    "postal": "B2Y 1H1",
    "rating": 4.5,
    "ratings": 40,
    "status": "OPERATIONAL",
    "tel": "(902) 466-6006",
    "twitter": "Brightwoodbeer",
    "website": "https://www.brightwoodbrewery.com/"
  },
  {
    "address": "200 - 269, NS-214, Elmsdale, NS B2S 1K1, Canada",
    "avatar": true,
    "banner": true,
    "city": "Elmsdale",
    "description": "Chill Street is a fresh retail #craftbeer and cider experience at Sobeys, Elmsdale, Nova Scotia.",
    "lat": 44.9769044,
    "lng": -63.5051494,
    "name": "Chill Street Brewing",
    "postal": "B2S 1K1",
    "rating": 4.5,
    "ratings": 103,
    "status": "OPERATIONAL",
    "tel": "(902) 259-2553",
    "twitter": "ChillStElmsdale",
    "website": "https://chillstreetcraftbeverageco.com/"
  },
  {
    "address": "673 King St, Bridgewater, NS B4V 1B4, Canada",
    "avatar": true,
    "banner": true,
    "city": "Bridgewater",
    "description": "Not so typical, creative, small, hardworking brewery, trying to spread its wings",
    "lat": 44.37893,
    "lng": -64.52083499999999,
    "name": "FirkinStein Brewing",
    "postal": "B4V 1B4",
    "rating": 4.6,
    "ratings": 142,
    "status": "OPERATIONAL",
    "tel": "(902) 530-5400",
    "twitter": "Firkin_Stein",
    "website": "http://firkinstein.ca/"
  },
  {
    "address": "5239 Sackville St, Halifax, NS B3J 3Y3, Canada",
    "avatar": true,
    "banner": true,
    "city": "Halifax",
    "description": "Our Beer - Made Here",
    "lat": 44.6459968,
    "lng": -63.5746311,
    "name": "Gahan House",
    "postal": "B3J 3Y3",
    "rating": 4.3,
    "ratings": 1181,
    "status": "OPERATIONAL",
    "tel": "(902) 444-3060",
    "twitter": "GahanHalifax",
    "website": "https://gahan.ca/"
  },
  {
    "address": "1149 Marginal Rd, Halifax, NS B3H 4P7, Canada",
    "avatar": true,
    "banner": true,
    "city": "Halifax",
    "description": "Award-winning, independent microbrewery selling craft beer throughout the Maritimes and beyond üçª See our website for all COVID-19 updates",
    "lat": 44.6397653,
    "lng": -63.56636019999999,
    "name": "Garrison Brewing Company",
    "postal": "B3H 4P7",
    "rating": 4.6,
    "ratings": 289,
    "status": "OPERATIONAL",
    "tel": "(902) 453-5343",
    "twitter": "GarrisonBrewing",
    "website": "http://www.garrisonbrewing.com/"
  },
  {
    "address": "2736 Robie St, Halifax, NS B3K 4P2, Canada",
    "avatar": false,
    "banner": false,
    "city": "Halifax",
    "lat": 44.6565194,
    "lng": -63.5977778,
    "name": "Good Robot Brewing Company",
    "postal": "B3K 4P2",
    "rating": 4.7,
    "ratings": 366,
    "status": "OPERATIONAL",
    "tel": "(902) 446-1692",
    "website": "http://goodrobotbrewing.ca/"
  },
  {
    "address": "1290 NS-245, Antigonish, NS B2G 2L1, Canada",
    "avatar": true,
    "banner": true,
    "city": "Antigonish",
    "description": "Micro-brewery in North Grant, Nova Scotia. Open Thur 4-7,Sat 2-5. Great view from the patio along scenic hwy 245",
    "lat": 45.6679918,
    "lng": -62.0337811,
    "name": "Half Cocked Brewing Company",
    "postal": "B2G 2L1",
    "rating": 4.8,
    "ratings": 6,
    "status": "OPERATIONAL",
    "tel": "(902) 735-2090",
    "twitter": "halfcockedbeer",
    "website": "https://www.facebook.com/halfcockedbrewing/"
  },
  {
    "address": "38 Legion St, Liverpool, NS B0T 1K0, Canada",
    "avatar": true,
    "banner": false,
    "city": "Liverpool",
    "description": "We are a small locally owned and operated Craft Brewery located in Cherry Hill, Nova Scotia (Lunenburg County).",
    "lat": 44.0382983,
    "lng": -64.7174663,
    "name": "Hell Bay Brewing Company",
    "postal": "B0T 1K0",
    "rating": 4.7,
    "ratings": 48,
    "status": "OPERATIONAL",
    "tel": "(902) 356-3556",
    "twitter": "HellBayBrewing",
    "website": "http://www.hellbaybrewing.com/"
  },
  {
    "address": "250 Main St, Yarmouth, NS B5A 1C9, Canada",
    "avatar": false,
    "banner": false,
    "city": "Yarmouth",
    "lat": 43.834021,
    "lng": -66.12051,
    "name": "Heritage Brewing",
    "postal": "B5A 1C9",
    "rating": 4.7,
    "ratings": 116,
    "status": "OPERATIONAL",
    "tel": "(902) 881-2777",
    "website": "http://www.heritagebrewing.beer/"
  },
  {
    "address": "120 W Old Post Rd, Smiths Cove, NS B0S 1S0, Canada",
    "avatar": true,
    "banner": true,
    "city": "Smiths Cove",
    "description": "A food science and engineer husband and wife team crafting small batches of great beer!",
    "lat": 44.6070697,
    "lng": -65.7202144,
    "name": "Lazy Bear Brewing",
    "postal": "B0S 1S0",
    "rating": 4.8,
    "ratings": 16,
    "status": "OPERATIONAL",
    "tel": "(902) 440-0880",
    "twitter": "LazyBearBrewing",
    "website": "http://www.lazybearbrewing.ca/"
  },
  {
    "address": "515 Carleton Rd, Lawrencetown, NS B0S 1M0, Canada",
    "avatar": true,
    "banner": true,
    "city": "Lawrencetown",
    "description": "Craft beer in Lawrencetown, in Nova Scotia's Annapolis Valley",
    "lat": 44.874023,
    "lng": -65.16647809999999,
    "name": "Lunn's Mill Beer Company",
    "postal": "B0S 1M0",
    "rating": 4.8,
    "ratings": 82,
    "status": "CLOSED_TEMPORARILY",
    "tel": "(902) 584-2217",
    "twitter": "LunnsMill",
    "website": "http://www.lunnsmill.beer/"
  },
  {
    "address": "906 Woodville Rd, Newport, NS B0N 2A0, Canada",
    "avatar": true,
    "banner": true,
    "city": "Newport",
    "description": "Seasonal brews & ciders. Retail shop with handmade products from Farm resources, tasting room, bar & event venue. \nEst. 2014. \nShop online through link below!",
    "lat": 45.0060565,
    "lng": -63.92536759999999,
    "name": "Meander River Farm & Brewery",
    "postal": "B0N 2A0",
    "rating": 4.8,
    "ratings": 34,
    "status": "OPERATIONAL",
    "tel": "(902) 757-3484",
    "twitter": "MeanderRiver",
    "website": "http://www.meanderriverfarm.ca/"
  },
  {
    "address": "Mic Mac Place, 219 Waverley Rd, Dartmouth, NS B2X 2C3, Canada",
    "avatar": true,
    "banner": true,
    "city": "Dartmouth",
    "description": "Brewing up #NSCraftBeer in the heart of #Dartmouth NS. OPEN 10am-7pm Monday- Saturday! Sunday CLOSED",
    "lat": 44.695,
    "lng": -63.5477778,
    "name": "Nine Locks Brewing Company",
    "postal": "B2X 2C3",
    "rating": 4.7,
    "ratings": 136,
    "status": "OPERATIONAL",
    "tel": "(902) 434-4471",
    "twitter": "ninelocksbrew",
    "website": "http://ninelocksbrewing.ca/"
  },
  {
    "address": "275 Rocky Lake Dr Unit #3, Bedford, NS B4A 2T3, Canada",
    "avatar": true,
    "banner": true,
    "city": "Bedford",
    "description": "Bedford's Brewery located at 275 Rocky Lake Dr.  We are all about supporting craft beer and the community we call home! Stop in for flights, pints and growlers!",
    "lat": 44.7375253,
    "lng": -63.6473388,
    "name": "Off Track Brewing Ltd.",
    "postal": "B4A 2T3",
    "rating": 4.9,
    "ratings": 80,
    "status": "OPERATIONAL",
    "tel": "(902) 835-9292",
    "twitter": "OffTrackBedford",
    "website": "http://www.offtrackbrewing.ca/"
  },
  {
    "address": "82 Montague St, Lunenburg, NS B0J 2C0, Canada",
    "avatar": true,
    "banner": true,
    "city": "Lunenburg",
    "description": "Shipwright Brewing, a toast to our shipbuilding heritage, offering quality small batch brews that pair perfectly with our picturesque surroundings!",
    "lat": 44.3764704,
    "lng": -64.3113291,
    "name": "Shipwright Brewing Company",
    "postal": "B0J 2C0",
    "rating": 4.6,
    "ratings": 52,
    "status": "OPERATIONAL",
    "tel": "(902) 634-3300",
    "twitter": "ShipwrightBrew",
    "website": "http://www.shipwrightbrewing.com/"
  },
  {
    "address": "627 Prince St, Truro, NS B2N 1G5, Canada",
    "avatar": true,
    "banner": true,
    "city": "Truro",
    "description": "Eat, Drink, and Enjoy Local.",
    "lat": 45.365447,
    "lng": -63.28265700000001,
    "name": "The Nook and Cranny",
    "postal": "B2N 1G5",
    "rating": 4.4,
    "ratings": 713,
    "status": "OPERATIONAL",
    "tel": "(902) 895-0779",
    "twitter": "theNOOKnCRANNY",
    "website": "http://thenookandcranny.ca/"
  },
  {
    "address": "2015 Gottingen St, Halifax, NS B3K 3B1, Canada",
    "avatar": true,
    "banner": true,
    "city": "Halifax",
    "description": "Halifax's North End craft beerüöêHRM Home Delivery. Stores open daily. üìûGottingen 902-468-1026. üìûQuinpool 902-405-0105. üìûWindmill 902-377-4706.",
    "lat": 44.65086640000001,
    "lng": -63.5814019,
    "name": "Propeller Brewing Company",
    "postal": "B3K 3B1",
    "rating": 4.5,
    "ratings": 100,
    "status": "OPERATIONAL",
    "tel": "(902) 422-7767",
    "twitter": "PropellerBeer",
    "website": "http://www.drinkpropeller.ca/"
  },
  {
    "address": "5686 Spring Garden Rd, Halifax, NS B3J 1H5, Canada",
    "avatar": true,
    "banner": true,
    "city": "Halifax",
    "description": "Happy hour, daily specials and delicious craft beer. Check in often for all the latest updates on what's happening at the bottom. #Halifax #CraftBeer",
    "lat": 44.64233249999999,
    "lng": -63.57919889999999,
    "name": "Rockbottom Brewpub",
    "postal": "B3J 1H5",
    "rating": 4.4,
    "ratings": 584,
    "status": "CLOSED_PERMANENTLY",
    "tel": "(902) 423-2938",
    "twitter": "rockbotmbrewpub",
    "website": "http://www.rockbottombrewpub.ca/"
  },
  {
    "address": "363 Main St, Mahone Bay, NS B0J 2E0, Canada",
    "avatar": true,
    "banner": false,
    "city": "Mahone Bay",
    "description": "Chef-owned farm offering catering, cooking classes, cafe, and brewery.",
    "lat": 44.4506929,
    "lng": -64.3886365,
    "name": "Saltbox Brewery",
    "postal": "B0J 2E0",
    "rating": 4.7,
    "ratings": 112,
    "status": "OPERATIONAL",
    "tel": "(902) 624-0653",
    "twitter": "SaltboxFarm",
    "website": "http://www.saltboxbrewingcompany.ca/"
  },
  {
    "address": "40 Water St, Windsor, NS B0N 2T0, Canada",
    "avatar": true,
    "banner": false,
    "city": "Windsor",
    "description": "The smallest brewery in Nova Scoita. Soon to have its beers available in the Spitfire Pub in Windsor and The Library Pub in Wolfville.",
    "lat": 44.9955833,
    "lng": -64.1391683,
    "name": "Schoolhouse Brewery",
    "postal": "B0N 2T0",
    "rating": 4.7,
    "ratings": 84,
    "status": "OPERATIONAL",
    "tel": "(902) 472-4677",
    "twitter": "SHBPrincipal",
    "website": "http://www.schoolhousebrewery.ca/"
  },
  {
    "address": "980 Terrys Creek Rd, Port Williams, NS B0P 1T0, Canada",
    "avatar": true,
    "banner": true,
    "city": "Port Williams",
    "description": "Sea Level was the first Craft Brewery in the Annapolis Valley (2007). New brewery - increased production, retail and taproom in 2019. #nscraftbeer #microbrewery",
    "lat": 45.096576,
    "lng": -64.40607299999999,
    "name": "Sea Level Brewing",
    "postal": "B0P 1T0",
    "rating": 4.4,
    "ratings": 29,
    "status": "OPERATIONAL",
    "tel": "(902) 542-5544",
    "twitter": "SeaLevelBrewing",
    "website": "http://www.sealevelbrewing.com/"
  },
  {
    "address": "22462 Nova Scotia Trunk 7, Sheet Harbour, NS B0J 3B0, Canada",
    "avatar": true,
    "banner": true,
    "city": "Sheet Harbour",
    "description": "The #NSCraftBeer wave hits the Eastern Shore...A small town brewery with big ideas.",
    "lat": 44.92550749999999,
    "lng": -62.54109579999999,
    "name": "Sober Island Brewing Company",
    "postal": "B0J 3B0",
    "rating": 4.1,
    "ratings": 10,
    "status": "OPERATIONAL",
    "tel": "(902) 719-9463",
    "twitter": "SoberIslandBrew",
    "website": "http://www.soberislandbrewing.ca/"
  },
  {
    "address": "21 Frazee Ave, Dartmouth, NS B3B 1Z4, Canada",
    "avatar": true,
    "banner": true,
    "city": "Dartmouth",
    "description": "üåä Consistently Coastal. NS FREE Delivery schedule: Mon-Sat üöö Taproom/Retail: Mon - Fri (10-6pm), Sat (10-3pm) Sun CLOSED",
    "lat": 44.7139931,
    "lng": -63.58300119999999,
    "name": "Spindrift Brewing Co",
    "postal": "B3B 1Z4",
    "rating": 4.9,
    "ratings": 34,
    "status": "OPERATIONAL",
    "tel": "(902) 703-7438",
    "twitter": "SpindriftBrew",
    "website": "http://www.spindriftbrewing.com/"
  },
  {
    "address": "2580 Ridge Rd, Digby, NS B0V 1A0, Canada",
    "avatar": true,
    "banner": true,
    "city": null,
    "description": "Roof Hound Brewing is located in Digby, NS. Open Wednesday nights to Sunday.",
    "lat": 44.557234,
    "lng": -65.77429839999999,
    "name": "Roof Hound Brewing Co",
    "postal": "B0V 1A0",
    "rating": 4.6,
    "ratings": 175,
    "status": "OPERATIONAL",
    "tel": "(902) 245-8121",
    "twitter": "RoofHoundBrewCo",
    "website": "https://roofhound.ca/"
  },
  {
    "address": "50 Hiltz Rd, Chester Basin, NS B0J 1K0, Canada",
    "avatar": true,
    "banner": true,
    "city": "Chester Basin",
    "description": "Traditionally Different... Focusing on traditional German Ale recipes, yet keeping things interesting by experimenting with single batch nontraditional brews",
    "lat": 44.5781107,
    "lng": -64.3187201,
    "name": "Tanner & Co. Brewing Ltd.",
    "postal": "B0J 1K0",
    "rating": 4.9,
    "ratings": 14,
    "status": "OPERATIONAL",
    "tel": null,
    "twitter": "TannerBrewing",
    "website": "http://www.tannerbrewing.ca/"
  },
  {
    "address": "2-5187 Salter St, Halifax, NS B3J 1E6, Canada",
    "avatar": false,
    "banner": false,
    "city": "Halifax",
    "lat": 44.644946,
    "lng": -63.572474,
    "name": "Tidehouse Brewing Company",
    "postal": "B3J 1E6",
    "rating": 4.9,
    "ratings": 60,
    "status": "OPERATIONAL",
    "tel": "(902) 407-2550",
    "website": "https://www.facebook.com/tidehousebrewingcompany/"
  },
  {
    "address": "235 Main St, Tatamagouche, NS B0K 1V0, Canada",
    "avatar": false,
    "banner": false,
    "city": "Tatamagouche",
    "lat": 45.7123554,
    "lng": -63.2913375,
    "name": "Tatamagouche Brewery",
    "postal": "B0K 1V0",
    "rating": 4.8,
    "ratings": 147,
    "status": "OPERATIONAL",
    "tel": "(902) 657-4000",
    "website": "http://tatabrew.com/"
  },
  {
    "address": "46 Anson Ave #3, Amherst, NS B4H 4R3, Canada",
    "avatar": true,
    "banner": true,
    "city": "Amherst",
    "description": "Proudly brewed in Amherst, Nova Scotia, we focus on easy drinking craft beer for all to enjoy. Raise your glass to a beer worth sharing!",
    "lat": 45.8116036,
    "lng": -64.2147226,
    "name": "Trider's Craft Beer",
    "postal": "B4H 4R3",
    "rating": 4.9,
    "ratings": 29,
    "status": "OPERATIONAL",
    "tel": "(902) 614-8983",
    "twitter": "TridersBeer",
    "website": "http://www.triderscraftbeer.ca/"
  },
  {
    "address": "20 Slocomb Crescent, Tusket, NS B0W 3M0, Canada",
    "avatar": true,
    "banner": true,
    "city": "Tusket",
    "description": "",
    "lat": 43.8704217,
    "lng": -65.9682338,
    "name": "Tusket Falls Brewing Company",
    "postal": "B0W 3M0",
    "rating": 4.7,
    "ratings": 53,
    "status": "OPERATIONAL",
    "tel": "(902) 648-3340",
    "twitter": "TusketBrewing",
    "website": "http://www.tusketfallsbrewing.com/"
  },
  {
    "address": "2623 NS-376, Pictou, NS B0K 1H0, Canada",
    "avatar": true,
    "banner": true,
    "city": "Pictou",
    "description": "Uncle Leo's Brewery is a small craft brewery in Lyons Brook, NS. Hours of operation: Sun & Mon closed. Tues - Sat 10am to 6pm.",
    "lat": 45.674819,
    "lng": -62.769191,
    "name": "Uncle Leo's Brewery",
    "postal": "B0K 1H0",
    "rating": 4.9,
    "ratings": 26,
    "status": "OPERATIONAL",
    "tel": "(902) 382-2739",
    "twitter": "UncleLeosBrewer",
    "website": "http://www.uncleleosbrewery.ca/"
  },
  {
    "address": "6041 North St, Halifax, NS B3K 1P1, Canada",
    "avatar": true,
    "banner": false,
    "city": "Halifax",
    "description": "Open every day 12-9. Order online‚Äîtext/call the store when you‚Äôre out front. Shipping beer fucking everywhere‚Äîwhen we‚Äôve got enough to go around!",
    "lat": 44.6541667,
    "lng": -63.59611109999999,
    "name": "Unfiltered Brewing",
    "postal": "B3K 1P1",
    "rating": 4.5,
    "ratings": 328,
    "status": "OPERATIONAL",
    "tel": "(902) 717-8770",
    "twitter": "unfilteredbrews",
    "website": "http://unfuckingfiltered.com/"
  },
  {
    "address": "1116 Kars St, Port Williams, NS B0P 1T0, Canada",
    "avatar": false,
    "banner": false,
    "city": "Port Williams",
    "lat": 45.0966394,
    "lng": -64.4065738,
    "name": "Wayfarers' Ale Society",
    "postal": "B0P 1T0",
    "rating": 4.5,
    "ratings": 85,
    "status": "OPERATIONAL",
    "tel": "(902) 542-7462",
    "website": "http://www.wayfarersale.ca/"
  },
  {
    "address": "91 Alderney Dr, Dartmouth, NS B2Y 4W9, Canada",
    "avatar": true,
    "banner": true,
    "city": "Dartmouth",
    "description": "Mixed-fermentation sour brewery currently based in Dundee, Scotland. New Webshop now live!",
    "lat": 44.6642118,
    "lng": -63.5676506,
    "name": "New Scotland Brewing Co.",
    "postal": "B2Y 4W9",
    "rating": 4.9,
    "ratings": 78,
    "status": "OPERATIONAL",
    "tel": "(902) 406-2337",
    "twitter": "vaultcitybrew",
    "website": "http://www.newscotlandbrewing.ca/"
  },
  {
    "address": "302 St George St, Annapolis Royal, NS B0S 1A0, Canada",
    "avatar": true,
    "banner": true,
    "city": "Annapolis Royal",
    "description": "Brewing our craft beer in the Fort town of Annapolis Royal. We thank everyone for visiting from near and far and for drinking our beer.  #Cheers",
    "lat": 44.7430268,
    "lng": -65.5187463,
    "name": "Annapolis Brewing Company",
    "postal": "B0S 1A0",
    "rating": 4.6,
    "ratings": 14,
    "status": "OPERATIONAL",
    "tel": "(902) 286-2080",
    "twitter": "AnnapolisBrewCo",
    "website": "http://www.annapolisbrewing.com/"
  },
  {
    "address": "16030 Central Ave, Inverness, NS B0E 1N0, Canada",
    "avatar": true,
    "banner": true,
    "city": "Inverness",
    "description": "Open for take out 7 days a week from 12PM-7PM. Find our beer at select NSLCs & Private Liquor Stores",
    "lat": 46.2391063,
    "lng": -61.2991684,
    "name": "Route 19 Brewing",
    "postal": "B0E 1N0",
    "rating": 3.9,
    "ratings": 133,
    "status": "OPERATIONAL",
    "tel": "(902) 550-2739",
    "twitter": "Route19Brewing",
    "website": "http://www.route19brewing.com/"
  },
  {
    "address": "329 Main St, Wolfville, NS B4P 1C4, Canada",
    "avatar": false,
    "banner": false,
    "city": "Wolfville",
    "lat": 45.0916204,
    "lng": -64.3580392,
    "name": "The Church Brewing Co",
    "postal": "B4P 1C4",
    "rating": 4.2,
    "ratings": 137,
    "status": "OPERATIONAL",
    "tel": "(902) 542-2337",
    "website": "http://www.churchbrewing.ca/"
  },
  {
    "address": "96 Water St, Yarmouth, NS B5A 4P5, Canada",
    "avatar": false,
    "banner": false,
    "city": "Yarmouth",
    "lat": 43.836882,
    "lng": -66.12178349999999,
    "name": "Rudder's Seafood Restaurant-Brew",
    "postal": "B5A 4P5",
    "rating": 4.1,
    "ratings": 686,
    "status": "OPERATIONAL",
    "tel": "(902) 742-7311",
    "website": "http://www.ruddersbrewpub.com/"
  },
  {
    "address": "7232 Nova Scotia Trunk 14, Newport, NS B0N 2A0, Canada",
    "avatar": false,
    "banner": false,
    "city": "Newport",
    "lat": 44.9919059,
    "lng": -64.037459,
    "name": "Thanks for supporting HILL TOP HOPS",
    "postal": "B0N 2A0",
    "rating": 4.2,
    "ratings": 5,
    "status": "OPERATIONAL",
    "tel": "(902) 757-3510",
    "website": "https://hilltophops.ca/"
  },
  {
    "address": "62 Ochterloney St, Dartmouth, NS B2Y 1C2, Canada",
    "avatar": false,
    "banner": false,
    "city": "Dartmouth",
    "lat": 44.6668791,
    "lng": -63.56790189999999,
    "name": "North Brewing Company",
    "postal": "B2Y 1C2",
    "rating": 4.8,
    "ratings": 58,
    "status": "OPERATIONAL",
    "tel": "(902) 444-7765",
    "website": "http://www.northbrewing.ca/"
  },
  {
    "address": "75 Ferry Rd, Guysborough, NS B0H 1N0, Canada",
    "avatar": true,
    "banner": true,
    "city": "Guysborough",
    "description": "Traverse City's best Gastropub and Brewery.",
    "lat": 45.4015676,
    "lng": -61.5034234,
    "name": "Rare Bird Brewery",
    "postal": "B0H 1N0",
    "rating": 2.7,
    "ratings": 10,
    "status": "CLOSED_PERMANENTLY",
    "tel": "(902) 533-2078",
    "twitter": "RareBirdBrewpub",
    "website": "http://www.rarebirdbeer.com/taste-it/"
  },
  {
    "address": "169 Main St, Parrsboro, NS B0M 1S0, Canada",
    "avatar": false,
    "banner": false,
    "city": "Parrsboro",
    "lat": 45.403686,
    "lng": -64.3268751,
    "name": "Two Islands Brewing",
    "postal": "B0M 1S0",
    "rating": 4.9,
    "ratings": 13,
    "status": "OPERATIONAL",
    "tel": "(902) 728-2221",
    "website": "https://www.twoislandsbeer.ca/"
  },
  {
    "address": "961 Bedford Hwy, Bedford, NS B4A 1A9, Canada",
    "avatar": false,
    "banner": false,
    "city": "Bedford",
    "lat": 44.7160001,
    "lng": -63.676506,
    "name": "Brewsters Bar & Grill",
    "postal": "B4A 1A9",
    "rating": 3.9,
    "ratings": 270,
    "status": "OPERATIONAL",
    "tel": "(902) 832-0032",
    "website": "https://brewstersbarandgrill.ca/"
  },
  {
    "address": "612 Windmill Rd, Dartmouth, NS B3B 1B5, Canada",
    "avatar": true,
    "banner": true,
    "city": "Dartmouth",
    "description": "Authentic BBQ and awesome beer on Windmill Road in Dartmouth. From the folks at @Upstreetbrewing and @ChefInspired.",
    "lat": 44.6974159,
    "lng": -63.60248439999999,
    "name": "Upstreet BBQ Brewhouse",
    "postal": "B3B 1B5",
    "rating": 4.4,
    "ratings": 231,
    "status": "OPERATIONAL",
    "tel": "(902) 407-4344",
    "twitter": "UpstreetBBQBrew",
    "website": "https://upstreetbbqbrewhouse.com/"
  },
  {
    "address": "1496 Lower Water St, Halifax, NS B3J 3R5, Canada",
    "avatar": true,
    "banner": true,
    "city": "Halifax",
    "description": "Oldest continuously brewed beer in North America. \nOur content is for people of legal drinking age only. Enjoy responsibly. https://t.co/sK8uZbgvx8",
    "lat": 44.6440703,
    "lng": -63.57030049999999,
    "name": "Alexander Keith's",
    "postal": "B3J 3R5",
    "rating": 4.4,
    "ratings": 357,
    "status": "OPERATIONAL",
    "tel": "(902) 455-1474",
    "twitter": "AlexanderKeiths",
    "website": "http://www.alexanderkeithsbrewery.com/"
  },
  {
    "address": "7955 Nova Scotia Trunk 7, Musquodoboit Harbour, NS B0J 2L0, Canada",
    "avatar": false,
    "banner": false,
    "city": "Musquodoboit Harbour",
    "lat": 44.7884829,
    "lng": -63.14638859999999,
    "name": "The Harbour Brewing Company",
    "postal": "B0J 2L0",
    "rating": 4.9,
    "ratings": 13,
    "status": "OPERATIONAL",
    "tel": "(902) 410-8918",
    "website": "https://www.facebook.com/The-Harbour-Brewing-Company-137768880424877/"
  },
  {
    "address": "2504 Ridge Rd, Wolfville, NS B4P 2R3, Canada",
    "avatar": true,
    "banner": true,
    "city": "Wolfville",
    "description": "Organic Floor Malt From Here. Supplying local breweries and operating a taproom in the Annapolis Valley.",
    "lat": 45.1007087,
    "lng": -64.2853434,
    "name": "Horton Ridge Malt & Grain",
    "postal": "B4P 2R3",
    "rating": 4.7,
    "ratings": 93,
    "status": "OPERATIONAL",
    "tel": "(902) 697-3535",
    "twitter": "HortonRidge",
    "website": "http://www.hortonridgemalt.com/"
  },
  {
    "address": "64 Yankee Line Rd, Baddeck, NS B0E 1B0, Canada",
    "avatar": true,
    "banner": true,
    "city": "Baddeck",
    "description": "Certified Organic, farm based craft brewery and hop yard located just west of Baddeck at 64 Yankee Line Rd., Nyanza, Cape Breton. Tel: 902-295-ALES",
    "lat": 46.0859418,
    "lng": -60.9104347,
    "name": "Big Spruce Brewing",
    "postal": "B0E 1B0",
    "rating": 4.7,
    "ratings": 128,
    "status": "OPERATIONAL",
    "tel": "(902) 295-2537",
    "twitter": "BigSpruceBrew",
    "website": "http://www.bigspruce.ca/"
  },
  {
    "address": "615 Prince St, Truro, NS B2N 1G2, Canada",
    "avatar": true,
    "banner": false,
    "city": "Truro",
    "description": "Opening Winter 2020 in Truro NS!",
    "lat": 45.36541280000001,
    "lng": -63.28281269999999,
    "name": "Truro Brewing Company",
    "postal": "B2N 1G2",
    "rating": 4.2,
    "ratings": 34,
    "status": "OPERATIONAL",
    "tel": "(902) 895-2386",
    "twitter": "trurobrewco",
    "website": "http://www.saltydogbrewco.ca/"
  },
  {
    "address": "111 Cobequid Rd, Lower Sackville, NS B4C 2N1, Canada",
    "avatar": false,
    "banner": false,
    "city": "Lower Sackville",
    "lat": 44.7562112,
    "lng": -63.6613154,
    "name": "Ol' Biddy's Brew House",
    "postal": "B4C 2N1",
    "rating": 4.3,
    "ratings": 4,
    "status": "OPERATIONAL",
    "tel": "(902) 865-5379",
    "website": "https://olbiddys.square.site/"
  }
]