[
  {
    "address": "275 Brockville St, Smiths Falls, ON K7A 4Z6, Canada",
    "avatar": true,
    "banner": true,
    "city": "Smiths Falls",
    "description": "Food & Drink Entertainment Sports",
    "lat": 44.8826415,
    "lng": -76.015275,
    "name": "4 Degrees Brewing Company",
    "postal": "K7A 4Z6",
    "rating": 4.6,
    "ratings": 21,
    "status": "OPERATIONAL",
    "tel": "(613) 205-1564",
    "twitter": "4degreesbrewing",
    "website": "http://www.4degreesbrewing.com/"
  },
  {
    "address": "1390 Hopkins St #3, Whitby, ON L1N 2C3, Canada",
    "avatar": true,
    "banner": true,
    "city": "Whitby",
    "description": "5 Paddles Brewing Company brews a large variety of styles with a focus on big flavours and innovative brewing techniques.",
    "lat": 43.8719135,
    "lng": -78.9177134,
    "name": "5 Paddles Brewing Company",
    "postal": "L1N 2C3",
    "rating": 4.8,
    "ratings": 168,
    "status": "OPERATIONAL",
    "tel": "(905) 665-3042",
    "twitter": "5PaddlesBrewing",
    "website": "http://5paddlesbrewing.com/"
  },
  {
    "address": "124 Picton Main St, Picton, ON K0K 2T0, Canada",
    "avatar": true,
    "banner": false,
    "city": "Prince Edward",
    "description": "Brewed small. Deathly good. You be the judge.",
    "lat": 44.0057797,
    "lng": -77.1442587,
    "name": "555 Brewing Co",
    "postal": "K0K 2T0",
    "rating": 4.1,
    "ratings": 206,
    "status": "OPERATIONAL",
    "tel": "(613) 476-5556",
    "twitter": "Brewing555",
    "website": "http://www.555beer.com/"
  },
  {
    "address": "3600 Dundas St, Burlington, ON L7M 4B8, Canada",
    "avatar": false,
    "banner": false,
    "city": "Burlington",
    "lat": 43.3915421,
    "lng": -79.8235325,
    "name": "5West Brewpub and Kitchen",
    "postal": "L7M 4B8",
    "rating": 4.2,
    "ratings": 304,
    "status": "OPERATIONAL",
    "tel": "(905) 315-8782",
    "website": "http://www.5westbrewpubkitchen.ca/"
  },
  {
    "address": "The Tannery, 151 Charles St W, Kitchener, ON N2G 1H6, Canada",
    "avatar": false,
    "banner": false,
    "city": "Kitchener",
    "lat": 43.4513961,
    "lng": -80.4989851,
    "name": "Abe Erb Brewing Company - Kitchener",
    "postal": "N2G 1H6",
    "rating": 4.3,
    "ratings": 722,
    "status": "CLOSED_TEMPORARILY",
    "tel": "(519) 954-0151",
    "website": "http://www.abeerb.com/"
  },
  {
    "address": "15 King St S, Waterloo, ON N2J 1N9, Canada",
    "avatar": false,
    "banner": false,
    "city": "Waterloo",
    "lat": 43.4645435,
    "lng": -80.5225277,
    "name": "Abe Erb Brewing Company - Waterloo",
    "postal": "N2J 1N9",
    "rating": 4.3,
    "ratings": 1521,
    "status": "OPERATIONAL",
    "tel": "(519) 886-4518",
    "website": "http://abeerb.com/"
  },
  {
    "address": "5 Edinburgh Rd S, Guelph, ON N1G 4Y3, Canada",
    "avatar": false,
    "banner": false,
    "city": "Guelph",
    "lat": 43.53688229999999,
    "lng": -80.2598864,
    "name": "Abe Erb Brewing Company - Guelph",
    "postal": "N1G 4Y3",
    "rating": 3.2,
    "ratings": 87,
    "status": "CLOSED_TEMPORARILY",
    "tel": "(519) 265-8300",
    "website": "http://www.abeerb.com/"
  },
  {
    "address": "439 Ritson Rd S, Oshawa, ON L1H 5J8, Canada",
    "avatar": true,
    "banner": true,
    "city": "Oshawa",
    "description": "Instagram @allornothingbh  \nOpen 7 Days a week at 439 Ritson Road S, Oshawa for flights, pints and take home beers! Open @ 12pm daily",
    "lat": 43.88890290000001,
    "lng": -78.84799389999999,
    "name": "All or Nothing Brewhouse & Trafalgar Ales, Meads & Distillery",
    "postal": "L1H 5J8",
    "rating": 4.8,
    "ratings": 72,
    "status": "OPERATIONAL",
    "tel": "(905) 337-0133",
    "twitter": "AllorNothingBH",
    "website": "http://allornothing.beer/"
  },
  {
    "address": "130 Riviera Dr, Markham, ON L3R 5M1, Canada",
    "avatar": false,
    "banner": false,
    "city": "Markham",
    "lat": 43.833246,
    "lng": -79.3395132,
    "name": "Amber Brewery",
    "postal": "L3R 5M1",
    "rating": 4.4,
    "ratings": 15,
    "status": "OPERATIONAL",
    "tel": "(905) 305-8383",
    "website": "http://amberbrewery.ca/"
  },
  {
    "address": "245 Queens Quay W, Toronto, ON M5J 2K9, Canada",
    "avatar": true,
    "banner": true,
    "city": "Toronto",
    "description": "Brewing Beer in Toronto since 1986 #DamGoodBeer - Visit us at: BrewHouse located downtown & Barrel House located in Leaside #ABH",
    "lat": 43.6378724,
    "lng": -79.3847433,
    "name": "Amsterdam BrewHouse",
    "postal": "M5J 2K9",
    "rating": 4.1,
    "ratings": 3746,
    "status": "OPERATIONAL",
    "tel": "(416) 504-1020",
    "twitter": "amsterdambeer",
    "website": "https://www.amsterdambeer.com/brewhouse"
  },
  {
    "address": "87 Laird Dr, East York, ON M4G 3T7, Canada",
    "avatar": false,
    "banner": false,
    "city": "Toronto",
    "lat": 43.7060615,
    "lng": -79.3614035,
    "name": "Amsterdam Barrel House",
    "postal": "M4G 3T7",
    "rating": 4.1,
    "ratings": 239,
    "status": "OPERATIONAL",
    "tel": "(416) 504-1060",
    "website": "https://www.amsterdambeer.com/barrel-house/"
  },
  {
    "address": "45 Esandar Dr, Toronto, ON M4G 4C5, Canada",
    "avatar": false,
    "banner": false,
    "city": "Toronto",
    "lat": 43.7072467,
    "lng": -79.3568698,
    "name": "Amsterdam Brewing Company",
    "postal": "M4G 4C5",
    "rating": 4.4,
    "ratings": 159,
    "status": "OPERATIONAL",
    "tel": "(416) 504-1040",
    "website": "http://www.amsterdambeer.com/"
  },
  {
    "address": "1030 Elias St, London, ON N5W 3P6, Canada",
    "avatar": true,
    "banner": true,
    "city": "London",
    "description": "Proudly brewing small batch, handcrafted, premium beers in London's Old East Village! Taproom and retail store open Tuesday-Saturday 11-9 and Sunday 12-5.",
    "lat": 42.99817840000001,
    "lng": -81.2177011,
    "name": "Anderson Craft Ales",
    "postal": "N5W 3P6",
    "rating": 4.8,
    "ratings": 247,
    "status": "OPERATIONAL",
    "tel": "(548) 888-2537",
    "twitter": "AndersonCAles",
    "website": "http://andersoncraftales.ca/"
  },
  {
    "address": "113 Old Mill Rd, Ashton, ON K0A 1B0, Canada",
    "avatar": true,
    "banner": false,
    "city": null,
    "description": "We are an Ottawa Brewery with 40 plus years Publican experience. Family run, friend enjoyed. The Ashton Brewing Company.",
    "lat": 45.1566759,
    "lng": -76.0334404,
    "name": "Ashton Brewing Company",
    "postal": "K0A 1B0",
    "rating": 4.7,
    "ratings": 47,
    "status": "OPERATIONAL",
    "tel": "(613) 257-4423",
    "twitter": "AshtonBrew",
    "website": "http://www.ashtonbrewingcompany.com/"
  },
  {
    "address": "1042 Queen St E, Toronto, ON M4M 1K4, Canada",
    "avatar": false,
    "banner": false,
    "city": "Toronto",
    "lat": 43.66160120000001,
    "lng": -79.3381067,
    "name": "Avling Kitchen and Brewery",
    "postal": "M4M 1K4",
    "rating": 4.6,
    "ratings": 368,
    "status": "OPERATIONAL",
    "tel": "(416) 469-1010",
    "website": "http://www.avling.ca/"
  },
  {
    "address": "73463 ON-21, Zurich, ON N0M 2T0, Canada",
    "avatar": true,
    "banner": true,
    "city": "Zurich",
    "description": "We brew craft beer from our beautiful orchard located along the shores of Lake Huron. Come for a taste, leave with an experience.",
    "lat": 43.4438168,
    "lng": -81.7025917,
    "name": "Bad Apple Brewing Company Ltd.",
    "postal": "N0M 2T0",
    "rating": 4.7,
    "ratings": 92,
    "status": "OPERATIONAL",
    "tel": "(519) 476-7908",
    "twitter": "bad_applebrewin",
    "website": "http://badapplebrewingco.com/"
  },
  {
    "address": "13926 Chinguacousy Rd, Cheltenham, ON L7C 1Z3, Canada",
    "avatar": true,
    "banner": true,
    "city": "Caledon",
    "description": "An On-Farm Brewery in Caledon, Ontario - Open Saturdays 12-5 - A 1BBL IPA Factory - 13926 Chinguacousy, Caledon, Ontario",
    "lat": 43.7513066,
    "lng": -79.8978731,
    "name": "Badlands Brewing Company",
    "postal": "L7C 1Z3",
    "rating": 4.9,
    "ratings": 31,
    "status": "OPERATIONAL",
    "tel": null,
    "twitter": "badlandsbrewco",
    "website": "http://badlandsbrewing.ca/"
  },
  {
    "address": "15 Main St E, Kingsville, ON N9Y 1A1, Canada",
    "avatar": true,
    "banner": true,
    "city": "Kingsville",
    "description": "The Brewery & Tap Room that Jack built. JACKS GROUP's gift to our local craft beer lovers",
    "lat": 42.03765,
    "lng": -82.73881999999999,
    "name": "Banded Goose Brewing Co.",
    "postal": "N9Y 1A1",
    "rating": 5,
    "ratings": 10,
    "status": "OPERATIONAL",
    "tel": "(519) 733-9700",
    "twitter": "bgbrewing",
    "website": "http://www.bandedgoosebrewing.com/"
  },
  {
    "address": "4 Hastings St N, Bancroft, ON K0L, Canada",
    "avatar": true,
    "banner": true,
    "city": "Bancroft",
    "description": "",
    "lat": 45.0564128,
    "lng": -77.8534688,
    "name": "Bancroft Brewing",
    "postal": "K0L",
    "rating": 4.4,
    "ratings": 31,
    "status": "OPERATIONAL",
    "tel": "(613) 334-8154",
    "twitter": "BrewKru1",
    "website": "http://www.bancroftbrewing.ca/"
  },
  {
    "address": "2125 Dundas St W, Toronto, ON M6R 1X1, Canada",
    "avatar": true,
    "banner": true,
    "city": "Toronto",
    "description": "We offer free same day shipping for orders over $50+ in Toronto. Click üëáüëáüëá to start shopping.",
    "lat": 43.6525306,
    "lng": -79.4495393,
    "name": "Bandit Brewery",
    "postal": "M6R 1X1",
    "rating": 4.4,
    "ratings": 799,
    "status": "OPERATIONAL",
    "tel": "(647) 348-1002",
    "twitter": "banditbrewery",
    "website": "http://www.banditbrewery.ca/"
  },
  {
    "address": "137 Peter St, Toronto, ON M5V 2H3, Canada",
    "avatar": false,
    "banner": false,
    "city": "Toronto",
    "lat": 43.64888670000001,
    "lng": -79.3932995,
    "name": "Bar Hop Brewco",
    "postal": "M5V 2H3",
    "rating": 4.3,
    "ratings": 1960,
    "status": "CLOSED_TEMPORARILY",
    "tel": "(647) 348-1137",
    "website": "https://www.barhopbar.com/"
  },
  {
    "address": "13730 Loyalist Pkwy, Picton, ON K0K 2T0, Canada",
    "avatar": true,
    "banner": false,
    "city": "Prince Edward",
    "description": "Brewed in Prince Edward County.  \r\nWe use only the finest malts and hops, in small batches, to ensure quality and purity.",
    "lat": 43.9925443,
    "lng": -77.1873719,
    "name": "Barley Days Brewery",
    "postal": "K0K 2T0",
    "rating": 4,
    "ratings": 113,
    "status": "OPERATIONAL",
    "tel": "(613) 476-7468",
    "twitter": "BarleyDaysBrews",
    "website": "http://www.barleydaysbrewery.com/"
  },
  {
    "address": "1600 Industrial Rd B5, Cambridge, ON N3H 4W5, Canada",
    "avatar": true,
    "banner": true,
    "city": "Cambridge",
    "description": "Open 9 hours a week.                                                  \n  \n1600 industrial Road, Unit B5",
    "lat": 43.3919984,
    "lng": -80.3298379,
    "name": "Barncat Artisan Ales",
    "postal": "N3H 4W5",
    "rating": 4.9,
    "ratings": 85,
    "status": "OPERATIONAL",
    "tel": null,
    "twitter": "Barncatales",
    "website": "http://www.barncatales.com/"
  },
  {
    "address": "384 Yonge St #3, Barrie, ON L4N 4C8, Canada",
    "avatar": true,
    "banner": true,
    "city": "Barrie",
    "description": "Welcome aboard Barnstormer Brewing + Distilling Co. Find us in Barrie or ask for our all-natural ales at The Beer Store, LCBO and Grocery. #AirCraftBeer",
    "lat": 44.36695479999999,
    "lng": -79.6640243,
    "name": "Barnstormer Brewing & Distilling Co. Brewpub Restaurant",
    "postal": "L4N 4C8",
    "rating": 4.5,
    "ratings": 474,
    "status": "OPERATIONAL",
    "tel": "(705) 481-1701",
    "twitter": "BarnstormerBeer",
    "website": "http://www.barnstormerbrewing.com/"
  },
  {
    "address": "75 Victoria St, Toronto, ON M5C 2B1, Canada",
    "avatar": false,
    "banner": false,
    "city": "Toronto",
    "lat": 43.6515058,
    "lng": -79.3773365,
    "name": "Batch",
    "postal": "M5C 2B1",
    "rating": 4.1,
    "ratings": 1043,
    "status": "OPERATIONAL",
    "tel": "(416) 238-1484",
    "website": "http://batchhouse.ca/"
  },
  {
    "address": "970 Ross Lane, Erieau, ON N0P 1N0, Canada",
    "avatar": true,
    "banner": false,
    "city": "Erieau",
    "description": "We are a Craft Micro Brewery in South-Western Ontario, on the shores of Lake Erie. Crafting fine beer products for the sourrounding areas.",
    "lat": 42.2611111,
    "lng": -81.9172222,
    "name": "Bayside Brewing Company",
    "postal": "N0P 1N0",
    "rating": 4.4,
    "ratings": 638,
    "status": "OPERATIONAL",
    "tel": "(519) 676-8888",
    "twitter": "BaysideBrewery",
    "website": "http://www.baysidebrewing.com/"
  },
  {
    "address": "10 Terry Fox Dr, Vankleek Hill, ON K0B 1R0, Canada",
    "avatar": true,
    "banner": true,
    "city": "Vankleek Hill",
    "description": "Family run. Employee owned. Organic. Questions? email: ohyeah@beaus.ca Entreprise familiale. Employ√©s propri√©taires. Biologique.",
    "lat": 45.5169034,
    "lng": -74.6372445,
    "name": "Beau's Brewery",
    "postal": "K0B 1R0",
    "rating": 4.8,
    "ratings": 397,
    "status": "OPERATIONAL",
    "tel": "(613) 678-2799",
    "twitter": "beausallnatural",
    "website": "http://www.beaus.ca/"
  },
  {
    "address": "51 Woodyatt Dr #9, Brantford, ON N3R 7K3, Canada",
    "avatar": true,
    "banner": true,
    "city": "Brantford",
    "description": "Brewing award winning craft beer in Brantford, Ontario since 2012. Visit our Beer Bistro and Beer Store at 51 Woodyatt Drive. NEW Hours! Check Facebook, Google",
    "lat": 43.17040919999999,
    "lng": -80.23657240000001,
    "name": "Bell City Brewing Company",
    "postal": "N3R 7K3",
    "rating": 4.6,
    "ratings": 115,
    "status": "OPERATIONAL",
    "tel": "(519) 900-6204",
    "twitter": "bellcitybeer",
    "website": "http://www.bellcitybrewing.com/"
  },
  {
    "address": "20 Hafis Rd, North York, ON M6M 2V6, Canada",
    "avatar": true,
    "banner": true,
    "city": "Toronto",
    "description": "Our twitter account is sleeping. We regularly post to instagram, and you can also email us at info@bellwoodsbrewery.com with any questions.",
    "lat": 43.7065588,
    "lng": -79.4692901,
    "name": "Bellwoods Brewery",
    "postal": "M6M 2V6",
    "rating": 4.9,
    "ratings": 149,
    "status": "OPERATIONAL",
    "tel": "(416) 535-4586",
    "twitter": "bellwoodsbeer",
    "website": "http://www.bellwoodsbrewery.com/"
  },
  {
    "address": "20 Hafis Rd, North York, ON M6M 2V6, Canada",
    "avatar": true,
    "banner": true,
    "city": "Toronto",
    "description": "Our twitter account is sleeping. We regularly post to instagram, and you can also email us at info@bellwoodsbrewery.com with any questions.",
    "lat": 43.7065588,
    "lng": -79.4692901,
    "name": "Bellwoods Brewery",
    "postal": "M6M 2V6",
    "rating": 4.9,
    "ratings": 149,
    "status": "OPERATIONAL",
    "tel": "(416) 535-4586",
    "twitter": "bellwoodsbeer",
    "website": "http://www.bellwoodsbrewery.com/"
  },
  {
    "address": "54 Fire Rte 17, Havelock, ON K0L 1Z0, Canada",
    "avatar": false,
    "banner": false,
    "city": "Havelock",
    "lat": 44.5277062,
    "lng": -77.81509559999999,
    "name": "Belmont Lake Brewery",
    "postal": "K0L 1Z0",
    "rating": 4.9,
    "ratings": 33,
    "status": "CLOSED_TEMPORARILY",
    "tel": "(705) 803-3001",
    "website": "http://belmontlakebrewery.com/"
  },
  {
    "address": "3991 King St, Beamsville, ON L0R 1B1, Canada",
    "avatar": true,
    "banner": true,
    "city": "Lincoln",
    "description": "Taproom currently closed due to COVID-19\n\nBeer pick-up available Wed-Sun from 12pm-5pm\n\nLocal next day deliveries\n\nOrder online at https://t.co/KW096aVu2w",
    "lat": 43.1584896,
    "lng": -79.423838,
    "name": "Bench Brewing Company",
    "postal": "L0R 1B1",
    "rating": 4.6,
    "ratings": 410,
    "status": "OPERATIONAL",
    "tel": "(905) 562-3991",
    "twitter": "benchbrewing",
    "website": "http://benchbrewing.com/"
  },
  {
    "address": "250 City Centre Ave Bay 106, Ottawa, ON K1R 6K7, Canada",
    "avatar": true,
    "banner": true,
    "city": "Ottawa",
    "description": "Check out Retail @ 250 City Centre Ave.",
    "lat": 45.407762,
    "lng": -75.718492,
    "name": "Beyond the Pale Brewing Company",
    "postal": "K1R 6K7",
    "rating": 4.5,
    "ratings": 319,
    "status": "OPERATIONAL",
    "tel": "(613) 668-2337",
    "twitter": "BTPBrewing",
    "website": "http://www.btpshop.ca/"
  },
  {
    "address": "850 Industrial Ave #12, Ottawa, ON K1G 4K2, Canada",
    "avatar": true,
    "banner": true,
    "city": "Ottawa",
    "description": "Down to earth craft beer.",
    "lat": 45.4065899,
    "lng": -75.63227909999999,
    "name": "Bicycle Craft Brewery",
    "postal": "K1G 4K2",
    "rating": 4.6,
    "ratings": 114,
    "status": "OPERATIONAL",
    "tel": "(613) 733-2337",
    "twitter": "BicycleBrewery",
    "website": "https://bicyclecraftbrewery.ca/"
  },
  {
    "address": "103 Schneider Rd, Kanata, ON K2K 1Y3, Canada",
    "avatar": true,
    "banner": true,
    "city": "Ottawa",
    "description": "Award Winning Craft Brewery ‚Ä¢ Taproom open Tues-Thurs 11:30-6, Fri 11:30-8, Sat 12-4 ‚Ä¢ Beer by the glass, snacks, tours, event booking ‚Ä¢ For The Love Of Beer",
    "lat": 45.3396202,
    "lng": -75.90118509999999,
    "name": "Big Rig Brewery",
    "postal": "K2K 1Y3",
    "rating": 4.6,
    "ratings": 57,
    "status": "OPERATIONAL",
    "tel": "(613) 591-6262",
    "twitter": "BigRigBrewery",
    "website": "http://www.bigrigbrewery.com/%20%20%20www.bigrigdelivery.ca"
  },
  {
    "address": "1589 The Queensway, Etobicoke, ON M8Z 5W9, Canada",
    "avatar": true,
    "banner": true,
    "city": "Toronto",
    "description": "Canadian craft brewery with locations in Calgary, Vancouver, Etobicoke, and Toronto üçªüçÅ\n#bigrockbrewery\n#rockcreekcider",
    "lat": 43.6159774,
    "lng": -79.54213089999999,
    "name": "Big Rock Brewery",
    "postal": "M8Z 5W9",
    "rating": 4.3,
    "ratings": 40,
    "status": "OPERATIONAL",
    "tel": "(647) 351-7837",
    "twitter": "BigRockBrewery",
    "website": "https://bigrockbeer.com/"
  },
  {
    "address": "123 McIntyre St W, North Bay, ON P1B 2Y5, Canada",
    "avatar": false,
    "banner": false,
    "city": "North Bay",
    "lat": 46.311142,
    "lng": -79.46386690000001,
    "name": "Big Water Brewing Co.",
    "postal": "P1B 2Y5",
    "rating": 5,
    "ratings": 1,
    "status": "OPERATIONAL",
    "tel": null,
    "website": "http://www.bigwaterbrewing.ca/"
  },
  {
    "address": "68 Huron St, New Hamburg, ON N3A 1K1, Canada",
    "avatar": true,
    "banner": true,
    "city": "New Hamburg",
    "description": "Ontario‚Äôs smallest Craft Brewery. #NewHamburgON. Just a short drive from everywhere. Glass, Cans, Bottles. Open Fri 5-9pm & Sat 11:30-6:30. Stop by soon!",
    "lat": 43.3782639,
    "lng": -80.7109807,
    "name": "Bitte Sch√∂n Brauhaus",
    "postal": "N3A 1K1",
    "rating": 4.5,
    "ratings": 29,
    "status": "OPERATIONAL",
    "tel": "(519) 390-2000",
    "twitter": "Bitteschonbrau",
    "website": "http://www.bitteschonbrauhaus.com/"
  },
  {
    "address": "818 Eastern Ave, Toronto, ON M4L 1A1, Canada",
    "avatar": true,
    "banner": true,
    "city": "Toronto",
    "description": "Dog-friendly craft brewery at 818 Eastern Ave in Leslieville, Toronto.\nBottle Shop OPEN 12-9pm 7 days a week.\nOntario beer delivery via orders@blacklab.beer.",
    "lat": 43.6617873,
    "lng": -79.32909339999999,
    "name": "Black Lab Brewing",
    "postal": "M4L 1A1",
    "rating": 4.7,
    "ratings": 208,
    "status": "OPERATIONAL",
    "tel": "(647) 352-2525",
    "twitter": "BlackLabBeer",
    "website": "http://www.blacklab.beer/"
  },
  {
    "address": "75 Horner Ave, Etobicoke, ON M8Z 4X5, Canada",
    "avatar": true,
    "banner": true,
    "city": "Toronto",
    "description": "Pouring award winning brews since '99 üçª Visit our taproom, retail shop, or tour the brewery with Ken here in Etobicoke! #KNOWYOURROOTS",
    "lat": 43.613463,
    "lng": -79.516127,
    "name": "Black Oak Brewing Co. Ltd",
    "postal": "M8Z 4X5",
    "rating": 4.7,
    "ratings": 62,
    "status": "OPERATIONAL",
    "tel": "(416) 252-2739",
    "twitter": "BlackOakBrewing",
    "website": "http://www.blackoakbeer.com/"
  },
  {
    "address": "144 Downie St, Stratford, ON N5A 1X1, Canada",
    "avatar": true,
    "banner": true,
    "city": "Stratford",
    "description": "Black Swan Brewing Company is a microbrewery in Stratford, ON. Come visit us for a pint or bottles to go!",
    "lat": 43.3681802,
    "lng": -80.98112710000001,
    "name": "Black Swan Brewing Co.",
    "postal": "N5A 1X1",
    "rating": 4.7,
    "ratings": 83,
    "status": "OPERATIONAL",
    "tel": "(519) 814-7926",
    "twitter": "blackswanbeer",
    "website": "http://www.blackswanbrewing.ca/"
  },
  {
    "address": "1000 Murray Ross Pkwy, North York, ON M3J 2P3, Canada",
    "avatar": false,
    "banner": false,
    "city": "Toronto",
    "lat": 43.7734388,
    "lng": -79.5169094,
    "name": "Black Creek Historic Brewery",
    "postal": "M3J 2P3",
    "rating": 4.6,
    "ratings": 1699,
    "status": "CLOSED_TEMPORARILY",
    "tel": "(416) 736-1733",
    "website": "https://blackcreek.ca/?utm_medium=organic&utm_source=GMBlisting&utm_campaign=BlackCreek"
  },
  {
    "address": "2 King St N #1430, St. Jacobs, ON N0B 2N0, Canada",
    "avatar": true,
    "banner": true,
    "city": "St. Jacobs",
    "description": "We are Block Three Brewing Co. in the village of St. Jacobs, ON. Great things come in small batches! #BlockThree https://t.co/QmWkLbhn8r",
    "lat": 43.540262,
    "lng": -80.5527516,
    "name": "Block Three Brewing Company",
    "postal": "N0B 2N0",
    "rating": 4.8,
    "ratings": 333,
    "status": "OPERATIONAL",
    "tel": "(519) 664-1001",
    "twitter": "BlockThree",
    "website": "https://www.blockthreebrewing.com/"
  },
  {
    "address": "165 Geary Ave, Toronto, ON M6H 2B8, Canada",
    "avatar": true,
    "banner": true,
    "city": "Toronto",
    "description": "craft brewing company in toronto, ontario #jointhefamily info@bloodbrothersbrewing.com // bottle shop + tap room + kitchen",
    "lat": 43.6698901,
    "lng": -79.4366064,
    "name": "Blood Brothers Brewing",
    "postal": "M6H 2B8",
    "rating": 4.7,
    "ratings": 450,
    "status": "OPERATIONAL",
    "tel": "(647) 628-6062",
    "twitter": "BloodBrothersTO",
    "website": "http://www.bloodbrothersbrewing.com/"
  },
  {
    "address": "96 Norfolk St S, Simcoe, ON N3Y 2W2, Canada",
    "avatar": false,
    "banner": false,
    "city": "Simcoe",
    "lat": 42.83495449999999,
    "lng": -80.3035996,
    "name": "Blue Elephant Craft Brew House",
    "postal": "N3Y 2W2",
    "rating": 4.3,
    "ratings": 569,
    "status": "CLOSED_TEMPORARILY",
    "tel": "(519) 428-2886",
    "website": "http://blueelephant.ca/"
  },
  {
    "address": "20 Water St, Minden, ON K0M 2A1, Canada",
    "avatar": false,
    "banner": false,
    "city": "Minden",
    "lat": 44.9269006,
    "lng": -78.72340109999999,
    "name": "Boshkung Social by Boshkung Brewing Co.",
    "postal": "K0M 2A1",
    "rating": 4.5,
    "ratings": 113,
    "status": "OPERATIONAL",
    "tel": "(705) 286-2711",
    "website": "http://boshkungbrewing.com/"
  },
  {
    "address": "9201 ON-118, Algonquin Highlands, ON K0M 1J2, Canada",
    "avatar": true,
    "banner": true,
    "city": null,
    "description": "Boshkung Brewing Co. is a small batch brewery focused on cottage living, local fare and great tasting beer.",
    "lat": 45.0468771,
    "lng": -78.69691949999999,
    "name": "Boshkung Brewing Co",
    "postal": "K0M 1J2",
    "rating": 4.7,
    "ratings": 82,
    "status": "OPERATIONAL",
    "tel": "(705) 489-4554",
    "twitter": "BoshkungBrewing",
    "website": "http://www.boshkungbrewing.com/"
  },
  {
    "address": "19 Moore St, Carleton Place, ON K7C 2R4, Canada",
    "avatar": true,
    "banner": true,
    "city": "Carleton Place",
    "description": "Braumeister Brewing Co. is an authentic Bavarian brewery and taproom garden, offering a new experience for beer lovers in and around the Nation‚Äôs capital.",
    "lat": 45.1368969,
    "lng": -76.1408067,
    "name": "Braumeister Brewing Co.",
    "postal": "K7C 2R4",
    "rating": 4.9,
    "ratings": 50,
    "status": "OPERATIONAL",
    "tel": "(613) 492-2337",
    "twitter": "BraumeisterBeer",
    "website": "http://www.braumeister.ca/"
  },
  {
    "address": "46 Clarence St, Port Colborne, ON L3K 3E9, Canada",
    "avatar": false,
    "banner": false,
    "city": "Port Colborne",
    "lat": 42.8861144,
    "lng": -79.25186889999999,
    "name": "Breakwall Brewing Company",
    "postal": "L3K 3E9",
    "rating": 4.5,
    "ratings": 428,
    "status": "OPERATIONAL",
    "tel": "(289) 836-8181",
    "website": "http://www.breakwallbrewery.com/"
  },
  {
    "address": "635 University Ave E, Windsor, ON N9A 2Z6, Canada",
    "avatar": false,
    "banner": false,
    "city": "Windsor",
    "lat": 42.3196674,
    "lng": -83.0295041,
    "name": "BREW",
    "postal": "N9A 2Z6",
    "rating": 4.6,
    "ratings": 106,
    "status": "OPERATIONAL",
    "tel": "(226) 246-0720",
    "website": "http://www.brewwindsor.com/"
  },
  {
    "address": "209 Ridge Rd N, Ridgeway, ON L0S 1N0, Canada",
    "avatar": true,
    "banner": true,
    "city": "Fort Erie",
    "description": "An independent brewery, handcrafting distinct beer in a re-imagined 20th Century church. Embracing the exploration of good and evil in our attitude to brewing.",
    "lat": 42.88061630000001,
    "lng": -79.05218959999999,
    "name": "Brimstone Brewing Company",
    "postal": "L0S 1N0",
    "rating": 4.6,
    "ratings": 133,
    "status": "OPERATIONAL",
    "tel": "(289) 876-8657",
    "twitter": "BrimstoneBrew",
    "website": "http://www.brimstonebrewing.ca/"
  },
  {
    "address": "244 Brock St S, Whitby, ON L1N 4K1, Canada",
    "avatar": true,
    "banner": true,
    "city": "Whitby",
    "description": "The Most Refreshing Street In Canada‚Ñ¢\nMust Be Legal Drinking Age To Follow\nGet Free Beer Delivery Across Ontario",
    "lat": 43.8778318,
    "lng": -78.9416629,
    "name": "Brock Street Brewing Company",
    "postal": "L1N 4K1",
    "rating": 4.4,
    "ratings": 226,
    "status": "OPERATIONAL",
    "tel": "(833) 276-2578",
    "twitter": "BrockStBrewing",
    "website": "http://www.brockstreetbrewing.com/"
  },
  {
    "address": "15 Wyndham St N Unit A, Guelph, ON N1H 4E5, Canada",
    "avatar": true,
    "banner": true,
    "city": "Guelph",
    "description": "15 Wyndham Street North, Guelph Ontario",
    "lat": 43.5450408,
    "lng": -80.2480952,
    "name": "Brothers Brewing Company",
    "postal": "N1H 4E5",
    "rating": 4.6,
    "ratings": 180,
    "status": "OPERATIONAL",
    "tel": null,
    "twitter": "BrothersBrewery",
    "website": "http://www.brothersbrewingcompany.ca/"
  },
  {
    "address": "25 Curity Ave, East York, ON M4B 0A2, Canada",
    "avatar": false,
    "banner": false,
    "city": "Toronto",
    "lat": 43.7100328,
    "lng": -79.3170134,
    "name": "Brunswick Bierworks",
    "postal": "M4B 0A2",
    "rating": 4.8,
    "ratings": 93,
    "status": "OPERATIONAL",
    "tel": "(647) 567-9459",
    "website": "http://www.brunswickbierworks.com/"
  },
  {
    "address": "1184 Bloor St W, Toronto, ON M6H 1N2, Canada",
    "avatar": true,
    "banner": true,
    "city": "Toronto",
    "description": "Microbrewery, Music Venue, and Restaurant",
    "lat": 43.6594923,
    "lng": -79.4377542,
    "name": "Burdock Brewery",
    "postal": "M6H 1N2",
    "rating": 4.5,
    "ratings": 1139,
    "status": "OPERATIONAL",
    "tel": "(416) 546-4033",
    "twitter": "BurdockBrewery",
    "website": "http://www.burdockbrewery.com/"
  },
  {
    "address": "12612 Lanark Rd, Calabogie, ON K0J 1H0, Canada",
    "avatar": true,
    "banner": true,
    "city": "Calabogie",
    "description": "Born into a rich home of history and pride, The Calabogie Brewing Company is proud to serve the local area with an unrivaled passion and love for beer.",
    "lat": 45.3000319,
    "lng": -76.72195459999999,
    "name": "Calabogie Brewing Co.",
    "postal": "K0J 1H0",
    "rating": 4.4,
    "ratings": 57,
    "status": "OPERATIONAL",
    "tel": "(613) 752-2739",
    "twitter": "CalabogieBrewCo",
    "website": "http://calabogiebrewing.com/"
  },
  {
    "address": "1165 Invicta Dr, Oakville, ON L6H 4M1, Canada",
    "avatar": true,
    "banner": true,
    "city": "Oakville",
    "description": "Brewing All Natural Award Winning Beer Since 1997 in Oakville, Ontario. Retail Hours: Mon-Tue 9AM-4PM/ Wed-Fri 9AM-6PM / Sat-Sun: 10AM-5PM",
    "lat": 43.47484679999999,
    "lng": -79.6769217,
    "name": "CAMERON'S Brewing Company",
    "postal": "L6H 4M1",
    "rating": 4.6,
    "ratings": 84,
    "status": "OPERATIONAL",
    "tel": "(905) 849-8282",
    "twitter": "CameronsBrewing",
    "website": "http://www.cameronsbrewing.com/"
  },
  {
    "address": "239 Deer Run Rd, Pakenham, ON K0A 2X0, Canada",
    "avatar": true,
    "banner": false,
    "city": "Pakenham",
    "description": "Cartwright Springs Brewery - Small town, BIG BREWS",
    "lat": 45.34754230000001,
    "lng": -76.34460810000002,
    "name": "Cartwright Springs Brewery",
    "postal": "K0A 2X0",
    "rating": 5,
    "ratings": 84,
    "status": "OPERATIONAL",
    "tel": "(613) 295-3377",
    "twitter": "CSBbeer",
    "website": "http://csbeer.ca/"
  },
  {
    "address": "2 Racine St, Casselman, ON K0A 1M0, Canada",
    "avatar": true,
    "banner": true,
    "city": "Casselman",
    "description": "Microbrewery in Casselman ON run by passionate craft beer lovers! \r\nMicrobrasserie √† Casselman ON dirig√© par des passionn√©s de la bi√®re artisanal!",
    "lat": 45.3059987,
    "lng": -75.08093649999999,
    "name": "Microbrasserie Cassel Brewery",
    "postal": "K0A 1M0",
    "rating": 4.7,
    "ratings": 166,
    "status": "OPERATIONAL",
    "tel": "(613) 369-4394",
    "twitter": "CasselBrewery",
    "website": "http://casselbrewery.ca/"
  },
  {
    "address": "2345 Edna St, Windsor, ON N8Y 4W8bg, Canada",
    "avatar": false,
    "banner": false,
    "city": "Windsor",
    "lat": 42.3218241,
    "lng": -83.0064872,
    "name": "Chapter Two Brewing Company",
    "postal": "N8Y 4W8bg",
    "rating": 4.6,
    "ratings": 77,
    "status": "OPERATIONAL",
    "tel": "(519) 915-3118",
    "website": "http://www.chaptertwobrewing.com/"
  },
  {
    "address": "1207 Charlotteville West Quarter Line, Simcoe, ON N3Y 4K1, Canada",
    "avatar": false,
    "banner": false,
    "city": "Simcoe",
    "lat": 42.750496,
    "lng": -80.4289111,
    "name": "Charlotteville Brewing Company",
    "postal": "N3Y 4K1",
    "rating": 4.9,
    "ratings": 70,
    "status": "OPERATIONAL",
    "tel": "(519) 619-7868",
    "website": "https://www.charlottevillebrewingcompany.ca/"
  },
  {
    "address": "955 Middlefield Rd, Scarborough, ON M1V 5E2, Canada",
    "avatar": false,
    "banner": false,
    "city": "Toronto",
    "lat": 43.8310181,
    "lng": -79.2661694,
    "name": "Cheetah International Brewers Inc.",
    "postal": "M1V 5E2",
    "rating": 4.7,
    "ratings": 6,
    "status": "OPERATIONAL",
    "tel": "(416) 292-3434",
    "website": "http://www.cheetahbeer.com"
  },
  {
    "address": "422 Lake Rd #3, Bowmanville, ON L1A 4P8, Canada",
    "avatar": true,
    "banner": true,
    "city": "Bowmanville",
    "description": "We chronicle the handcrafted beer, cider, & spirits scene in the DMV & nearby. We cover new breweries, what's tapping, & drink-related events.",
    "lat": 43.8980945,
    "lng": -78.659309,
    "name": "Chronicle Brewing Company",
    "postal": "L1A 4P8",
    "rating": 4.9,
    "ratings": 68,
    "status": "OPERATIONAL",
    "tel": "(905) 697-7722",
    "twitter": "whatsbrewingdmv",
    "website": "http://www.chroniclebeer.com/"
  },
  {
    "address": "1678 County Rd 38, Campbellford, ON K0L 1L0, Canada",
    "avatar": true,
    "banner": false,
    "city": "Campbellford",
    "description": "Church-Key is located on the outskirts of the town of Campbellford, Ontario, Canada.  We are open daily from 10am until dark.",
    "lat": 44.3537646,
    "lng": -77.73553430000001,
    "name": "Church-Key Brewing Company",
    "postal": "K0L 1L0",
    "rating": 4.6,
    "ratings": 86,
    "status": "OPERATIONAL",
    "tel": "(705) 653-9950",
    "twitter": "churchkeybeer",
    "website": "http://www.churchkeybrewing.com/"
  },
  {
    "address": "4651 Southwood Rd, Torrance, ON P0C 1M0, Canada",
    "avatar": false,
    "banner": false,
    "city": "Torrance",
    "lat": 44.990196,
    "lng": -79.571264,
    "name": "Clear Lake Brewing Co.",
    "postal": "P0C 1M0",
    "rating": 4.4,
    "ratings": 77,
    "status": "OPERATIONAL",
    "tel": "(705) 571-1814",
    "website": "http://clearlakebrewing.co/"
  },
  {
    "address": "398 Nash Rd N #1, Hamilton, ON L8H 7P5, Canada",
    "avatar": true,
    "banner": true,
    "city": "Hamilton",
    "description": "Brewery and Taproom - 398 Nash Rd. N. Hamilton, ON - 2019 Canadian Brewery of the Year",
    "lat": 43.2427778,
    "lng": -79.7683333,
    "name": "Clifford Brewing Company",
    "postal": "L8H 7P5",
    "rating": 4.8,
    "ratings": 178,
    "status": "OPERATIONAL",
    "tel": "(905) 560-5444",
    "twitter": "CliffordBrewing",
    "website": "http://cliffordbrewing.com/"
  },
  {
    "address": "575 Bank St, Ottawa, ON K1S 5L7, Canada",
    "avatar": false,
    "banner": false,
    "city": "Ottawa",
    "lat": 45.40835999999999,
    "lng": -75.691138,
    "name": "Clocktower Brew Pub Glebe",
    "postal": "K1S 5L7",
    "rating": 4.1,
    "ratings": 708,
    "status": "OPERATIONAL",
    "tel": "(613) 233-7849",
    "website": "http://clocktower.ca/"
  },
  {
    "address": "207 Burlington St E, Hamilton, ON L8L 4H2, Canada",
    "avatar": true,
    "banner": true,
    "city": "Hamilton",
    "description": "Fusing the creativity of brewing with the inspired talents of emerging artists & musicians.  #artplusbrewing",
    "lat": 43.2712612,
    "lng": -79.8528457,
    "name": "Collective Arts Brewing",
    "postal": "L8L 4H2",
    "rating": 4.7,
    "ratings": 493,
    "status": "OPERATIONAL",
    "tel": "(289) 426-2374",
    "twitter": "CollectiveBrew",
    "website": "http://www.collectiveartsbrewing.com/"
  },
  {
    "address": "162 Mississaga St E, Orillia, ON L3V 1V9, Canada",
    "avatar": false,
    "banner": false,
    "city": "Orillia",
    "lat": 44.6101707,
    "lng": -79.4156308,
    "name": "Couchiching Craft Brewing Co.",
    "postal": "L3V 1V9",
    "rating": 5,
    "ratings": 5,
    "status": "OPERATIONAL",
    "tel": "(705) 558-2337",
    "website": "http://www.couchichingbrewing.com/"
  },
  {
    "address": "475 Ellesmere Rd, Scarborough, ON M1R 4E5, Canada",
    "avatar": true,
    "banner": false,
    "city": "Toronto",
    "description": "475 Ellesmere Rd \nScarborough M1R4E5",
    "lat": 43.76198180000001,
    "lng": -79.29589899999999,
    "name": "Common Good Beer Co.",
    "postal": "M1R 4E5",
    "rating": 4.8,
    "ratings": 129,
    "status": "OPERATIONAL",
    "tel": "(416) 639-6579",
    "twitter": "commongoodbeer",
    "website": "http://commongoodbeer.com/"
  },
  {
    "address": "1885 Clements Rd, Pickering, ON L1W 3V4, Canada",
    "avatar": false,
    "banner": false,
    "city": "Pickering",
    "lat": 43.8266651,
    "lng": -79.0555636,
    "name": "County Durham Brewing Co.",
    "postal": "L1W 3V4",
    "rating": 4.5,
    "ratings": 2,
    "status": "OPERATIONAL",
    "tel": "(905) 686-3022",
    "website": null
  },
  {
    "address": "1300 Riverside Dr unit 20, Timmins, ON P4R 1A5, Canada",
    "avatar": true,
    "banner": true,
    "city": "Timmins",
    "description": "Now Open!! Founded by Kevin Patriquin, Corey McLister,Mael Girard and Joel Bradette who bring years of brewing experience to the table.",
    "lat": 48.473009,
    "lng": -81.375072,
    "name": "Compass Brewing",
    "postal": "P4R 1A5",
    "rating": 4.8,
    "ratings": 32,
    "status": "OPERATIONAL",
    "tel": "(705) 268-1010",
    "twitter": "timminsbrewery",
    "website": "http://www.compassbrewing.com/"
  },
  {
    "address": "17 Talbot St E #4, Jarvis, ON N0A 1J0, Canada",
    "avatar": true,
    "banner": true,
    "city": "Jarvis",
    "description": "Haldimand County‚Äôs first and only craft brewery focused on small batch handcrafted ales! üëçüçªüëå",
    "lat": 42.8843495,
    "lng": -80.1124359,
    "name": "Concession Road Brewing Company",
    "postal": "N0A 1J0",
    "rating": 4.9,
    "ratings": 70,
    "status": "OPERATIONAL",
    "tel": "(905) 928-5880",
    "twitter": "ConcessionBrew",
    "website": "http://www.concessionroadbrew.com/"
  },
  {
    "address": "2172 Robertson Rd, Nepean, ON K2H 5Z1, Canada",
    "avatar": false,
    "banner": false,
    "city": "Ottawa",
    "lat": 45.3190532,
    "lng": -75.83919039999999,
    "name": "Conspiracy Theory Brewing Company",
    "postal": "K2H 5Z1",
    "rating": 4.9,
    "ratings": 17,
    "status": "OPERATIONAL",
    "tel": "(613) 796-8882",
    "website": "http://www.ctbrewing.ca/"
  },
  {
    "address": "164 Evans Ave, Etobicoke, ON M8Z 1J4, Canada",
    "avatar": true,
    "banner": true,
    "city": "Toronto",
    "description": "Independent Microbrewery Brewing 3 Award Winning, Easy Drinking Lagers Since '97. \nCool Lager | Buzz Hemp Beer | Stonewall Light\nHOME DELIVERY AVAILABLE ONLINE",
    "lat": 43.6191518,
    "lng": -79.51067460000002,
    "name": "Cool Beer Brewing Company",
    "postal": "M8Z 1J4",
    "rating": 4.1,
    "ratings": 69,
    "status": "OPERATIONAL",
    "tel": "(416) 255-7100",
    "twitter": "CoolBeerBrewery",
    "website": "https://coolbeerbrewery.business.site/?utm_source=gmb&utm_medium=referral"
  },
  {
    "address": "935 Frederick St #4, Kitchener, ON N2B 2B9, Canada",
    "avatar": true,
    "banner": true,
    "city": "Kitchener",
    "description": "ONLINE RETAIL ONLY. Parking lot pick-up hours: Wed-Thu: 4-6, Fri-Sat: 2-5. Same-day delivery on these days on orders in before 3pm. üçª",
    "lat": 43.4660101,
    "lng": -80.4568322,
    "name": "Counterpoint Brewing Company",
    "postal": "N2B 2B9",
    "rating": 4.9,
    "ratings": 56,
    "status": "OPERATIONAL",
    "tel": "(226) 507-4274",
    "twitter": "CounterpointKit",
    "website": "http://www.counterpointbrewing.ca/"
  },
  {
    "address": "3659 Stanley Ave, Niagara Falls, ON L2E 0A6, Canada",
    "avatar": false,
    "banner": false,
    "city": "Niagara Falls",
    "lat": 43.1197769,
    "lng": -79.0870089,
    "name": "Counterpart Brewing",
    "postal": "L2E 0A6",
    "rating": 4.8,
    "ratings": 164,
    "status": "OPERATIONAL",
    "tel": "(905) 354-2739",
    "website": "http://www.counterpartbrewing.com/"
  },
  {
    "address": "119 Iber Rd #6, Stittsville, ON K2S 1E7, Canada",
    "avatar": true,
    "banner": true,
    "city": "Ottawa",
    "description": "For great beer, we've got you covered! Your local Stittsville/Kanata Microbrewery.",
    "lat": 45.27732,
    "lng": -75.9037475,
    "name": "Covered Bridge Brewing",
    "postal": "K2S 1E7",
    "rating": 4.7,
    "ratings": 64,
    "status": "OPERATIONAL",
    "tel": "(613) 915-2337",
    "twitter": "CBBeer",
    "website": "http://www.coveredbridgebrewing.com/"
  },
  {
    "address": "40035 Blyth Rd, Blyth, ON N0M 1H0, Canada",
    "avatar": true,
    "banner": true,
    "city": "Blyth",
    "description": "Craft beer that rings true. We brew quality craft beer that celebrates our rural roots of Blyth, Ontario in Huron County.",
    "lat": 43.730377,
    "lng": -81.433421,
    "name": "Cowbell Brewing Co.",
    "postal": "N0M 1H0",
    "rating": 4.5,
    "ratings": 927,
    "status": "OPERATIONAL",
    "tel": "(844) 523-4724",
    "twitter": "CowbellBrewing",
    "website": "https://cowbellbrewing.com/"
  },
  {
    "address": "89 University Ave W, Windsor, ON N9A 5N8, Canada",
    "avatar": true,
    "banner": true,
    "city": "Windsor",
    "description": "Beer. Good beer. Craft beer. Craft Heads Brewing Company is a nano brewery startup from Windsor, On focusing on small batch, over the top brews full of flavour.",
    "lat": 42.3172234,
    "lng": -83.03980609999999,
    "name": "Craft Heads Brewing Company",
    "postal": "N9A 5N8",
    "rating": 4.6,
    "ratings": 210,
    "status": "OPERATIONAL",
    "tel": "(226) 246-3925",
    "twitter": "CraftHeadsBrew",
    "website": "http://www.craftheads.ca/"
  },
  {
    "address": "453 Ottawa St Unit 3, Almonte, ON K0A 1A0, Canada",
    "avatar": true,
    "banner": true,
    "city": "Mississippi Mills",
    "description": "Carefully crafted British style ales in the heart of Almonte, Ontario.",
    "lat": 45.2351648,
    "lng": -76.1807893,
    "name": "Crooked Mile Brewing Company",
    "postal": "K0A 1A0",
    "rating": 4.9,
    "ratings": 52,
    "status": "OPERATIONAL",
    "tel": "(613) 256-7468",
    "twitter": "CrookedMileBeer",
    "website": "http://crookedmile.ca/"
  },
  {
    "address": "1634 Hyde Park Rd, London, ON N6H 5L7, Canada",
    "avatar": false,
    "banner": false,
    "city": "London",
    "lat": 43.0000187,
    "lng": -81.33312389999999,
    "name": "Curley Brewing Company",
    "postal": "N6H 5L7",
    "rating": 4.8,
    "ratings": 95,
    "status": "OPERATIONAL",
    "tel": null,
    "website": "http://www.curleybrewing.com/"
  },
  {
    "address": "905 Copper Crescent, Thunder Bay, ON P7B 6G1, Canada",
    "avatar": false,
    "banner": false,
    "city": "Thunder Bay",
    "lat": 48.4129487,
    "lng": -89.2547307,
    "name": "Dawson Trail Craft Brewery",
    "postal": "P7B 6G1",
    "rating": 4.8,
    "ratings": 52,
    "status": "OPERATIONAL",
    "tel": "(807) 623-2337",
    "website": "http://www.dawsontrailcraftbrewery.com/"
  },
  {
    "address": "319 Victoria St N, Kitchener, ON N2H 5E1, Canada",
    "avatar": false,
    "banner": false,
    "city": "Kitchener",
    "lat": 43.457974,
    "lng": -80.483746,
    "name": "Descendants Beer & Beverage Co.",
    "postal": "N2H 5E1",
    "rating": 4.4,
    "ratings": 404,
    "status": "OPERATIONAL",
    "tel": "(226) 241-3700",
    "website": "http://www.descendantsbeer.com/"
  },
  {
    "address": "5510 Canotek Rd Unit 15, Gloucester, ON K1J 9J4, Canada",
    "avatar": true,
    "banner": true,
    "city": "Ottawa",
    "description": "Makers of very good beer. Swing by our bottleshop and tasting bar at #15-5510 Canotek Rd. Open Mon-Thurs & Sun 11am-9pm, Fri-Sat 11am-11pm.",
    "lat": 45.4572202,
    "lng": -75.5855965,
    "name": "Dominion City Brewing Co.",
    "postal": "K1J 9J4",
    "rating": 4.8,
    "ratings": 322,
    "status": "OPERATIONAL",
    "tel": "(613) 688-6207",
    "twitter": "dominioncitybc",
    "website": "http://www.dominioncity.ca/"
  },
  {
    "address": "1346 Queen St W, Toronto, ON M6K 1L4, Canada",
    "avatar": true,
    "banner": true,
    "city": "Toronto",
    "description": "1346 Queen St West at Brock Ave. 416-890-7339",
    "lat": 43.6417075,
    "lng": -79.4321922,
    "name": "Duggan's Brewery Parkdale",
    "postal": "M6K 1L4",
    "rating": 3.8,
    "ratings": 130,
    "status": "OPERATIONAL",
    "tel": "(416) 890-7339",
    "twitter": "duggansbrewery",
    "website": "http://www.duggansbrewery.com/"
  },
  {
    "address": "400 Adelaide St N, London, ON N6B 3H6, Canada",
    "avatar": true,
    "banner": false,
    "city": "London",
    "description": "",
    "lat": 42.9885268,
    "lng": -81.2312687,
    "name": "Dundas & Sons Brewing Brewing Company",
    "postal": "N6B 3H6",
    "rating": 4.6,
    "ratings": 63,
    "status": "OPERATIONAL",
    "tel": "(519) 601-6151",
    "twitter": "DundasAndSons",
    "website": null
  },
  {
    "address": "700 Queen St E, Toronto, ON M4M 1G9, Canada",
    "avatar": true,
    "banner": false,
    "city": "Toronto",
    "description": "Brewery|Kitchen|Beer Shop. 700 Queen Street East Toronto. Beer shop/Taproom open M: 1-9p T-Su 11a-11p. Brewpub open T-W 4p-mid Th-Su 11a-mid.",
    "lat": 43.658899,
    "lng": -79.35019659999999,
    "name": "Eastbound Brewing Company",
    "postal": "M4M 1G9",
    "rating": 4.6,
    "ratings": 515,
    "status": "OPERATIONAL",
    "tel": "(416) 901-1299",
    "twitter": "EastboundBeer",
    "website": "http://www.eastboundbeer.com/"
  },
  {
    "address": "107 Geddes St, Elora, ON N0B 1S0, Canada",
    "avatar": true,
    "banner": true,
    "city": "Elora",
    "description": "Craft Beer and farm to table gastro fare in the heart of downtown Elora, Ontario.",
    "lat": 43.6834854,
    "lng": -80.43019249999999,
    "name": "Elora Brewing Company",
    "postal": "N0B 1S0",
    "rating": 4.4,
    "ratings": 844,
    "status": "OPERATIONAL",
    "tel": "(519) 805-2829",
    "twitter": "EloraBrewingCo",
    "website": "http://elorabrewingcompany.ca/"
  },
  {
    "address": "893 Notre Dame St, Embrun, ON K0A 1W1, Canada",
    "avatar": true,
    "banner": true,
    "city": "Embrun",
    "description": "Brasserie situ√©e √† Embrun, ON, mettant l'accent sur les saveurs locales. Brewery in Embrun, ON. Focused on delivering traditional flavours and local eats.",
    "lat": 45.2716862,
    "lng": -75.289354,
    "name": "Brasserie √âtienne Br√ªl√© Brewery",
    "postal": "K0A 1W1",
    "rating": 4.5,
    "ratings": 251,
    "status": "OPERATIONAL",
    "tel": "(613) 370-3000",
    "twitter": "BrasserieEb",
    "website": "http://www.etiennebrule.ca/"
  },
  {
    "address": "5 Ofield Rd Unit #1, Hamilton, ON L8S 2M4, Canada",
    "avatar": true,
    "banner": false,
    "city": "Hamilton",
    "description": "",
    "lat": 43.2552438,
    "lng": -79.9318124,
    "name": "Fairweather Brewing Company",
    "postal": "L8S 2M4",
    "rating": 4.8,
    "ratings": 337,
    "status": "OPERATIONAL",
    "tel": "(905) 570-0606",
    "twitter": "FairweatherBrew",
    "website": "http://fairweatherbrewing.com/"
  },
  {
    "address": "30 Barr Rd, Ajax, ON L1S 7H1, Canada",
    "avatar": true,
    "banner": true,
    "city": "Ajax",
    "description": "Microbrewery and Tap Room located in South Ajax",
    "lat": 43.8299615,
    "lng": -79.02299289999999,
    "name": "Falcon Brewing Company",
    "postal": "L1S 7H1",
    "rating": 4.6,
    "ratings": 272,
    "status": "OPERATIONAL",
    "tel": "(905) 686-6686",
    "twitter": "falconbrewingco",
    "website": "http://www.falconbrewingcompany.com/"
  },
  {
    "address": "20 Alma St S, Guelph, ON N1H 5W5, Canada",
    "avatar": true,
    "banner": true,
    "city": "Guelph",
    "description": "Craft beer in the heart of Guelph‚Äôs Junction neighbourhood.",
    "lat": 43.5356234,
    "lng": -80.261983,
    "name": "Fixed Gear Brewing Co.",
    "postal": "N1H 5W5",
    "rating": 4.7,
    "ratings": 144,
    "status": "OPERATIONAL",
    "tel": "(519) 265-7025",
    "twitter": "FixedGBrewing",
    "website": "http://fixedgearbrewing.com/"
  },
  {
    "address": "37 Flora St, Ottawa, ON K2P 1A7, Canada",
    "avatar": true,
    "banner": true,
    "city": "Ottawa",
    "description": "Craft brewery, kitchen, tap room, beer shop. Retail shop & kitchen open 1 to 9 p.m. daily for takeout and delivery during public health shutdown. See you soon!",
    "lat": 45.4107812,
    "lng": -75.693246,
    "name": "Flora Hall Brewing",
    "postal": "K2P 1A7",
    "rating": 4.6,
    "ratings": 795,
    "status": "OPERATIONAL",
    "tel": "(613) 695-2339",
    "twitter": "florahallbeer",
    "website": "http://florahallbrewing.ca/"
  },
  {
    "address": "107 Dunlop St E, Barrie, ON L4M 1A6, Canada",
    "avatar": false,
    "banner": false,
    "city": "Barrie",
    "lat": 44.3889241,
    "lng": -79.68670809999999,
    "name": "Flying Monkeys Craft Brewery",
    "postal": "L4M 1A6",
    "rating": 4.6,
    "ratings": 449,
    "status": "OPERATIONAL",
    "tel": "(705) 721-8989",
    "website": "http://www.flyingmonkeys.ca/"
  },
  {
    "address": "928 College St, Toronto, ON M6H 1A4, Canada",
    "avatar": true,
    "banner": false,
    "city": "Toronto",
    "description": "See @FollyBrewing for our main account.",
    "lat": 43.6538722,
    "lng": -79.42586109999999,
    "name": "Folly Brewpub",
    "postal": "M6H 1A4",
    "rating": 4.6,
    "ratings": 169,
    "status": "OPERATIONAL",
    "tel": "(416) 533-7272",
    "twitter": "FollyBrewpub",
    "website": "http://www.follybrewing.com/"
  },
  {
    "address": "45 Pacific Ct #4, London, ON N5V 3N4, Canada",
    "avatar": true,
    "banner": false,
    "city": "London",
    "description": "London's microbrewery, since 2013",
    "lat": 43.010335,
    "lng": -81.175682,
    "name": "Forked River Brewing Company",
    "postal": "N5V 3N4",
    "rating": 4.6,
    "ratings": 336,
    "status": "OPERATIONAL",
    "tel": "(519) 913-2337",
    "twitter": "forkedriverbrew",
    "website": "http://www.forkedriverbrewing.com/"
  },
  {
    "address": "1120 Bruce Rd 12, Formosa, ON N0G 1W0, Canada",
    "avatar": true,
    "banner": true,
    "city": "Formosa",
    "description": "Brewing amazingly drinkable, crisp, traditional lager in beautiful Formosa, Ontario since 1870",
    "lat": 44.057581,
    "lng": -81.211556,
    "name": "Formosa Springs Brewery Inc.",
    "postal": "N0G 1W0",
    "rating": 4.3,
    "ratings": 14,
    "status": "OPERATIONAL",
    "tel": "(519) 367-3300",
    "twitter": "FormosaSprings",
    "website": "http://formosabrewery.ca/"
  },
  {
    "address": "125 Guelph Ave, Cambridge, ON N3C 1A5, Canada",
    "avatar": true,
    "banner": true,
    "city": "Cambridge",
    "description": "Not all beers are created equal.",
    "lat": 43.4356693,
    "lng": -80.3113918,
    "name": "Four Fathers Brewing Co.",
    "postal": "N3C 1A5",
    "rating": 4.5,
    "ratings": 657,
    "status": "OPERATIONAL",
    "tel": "(519) 658-4434",
    "twitter": "FourFathersBrew",
    "website": "http://fourfathersbrewing.ca/"
  },
  {
    "address": "12000 Tecumseh Rd E, Windsor, ON N8N 1L9, Canada",
    "avatar": false,
    "banner": false,
    "city": "Windsor",
    "lat": 42.3122206,
    "lng": -82.8915894,
    "name": "Frank Beer",
    "postal": "N8N 1L9",
    "rating": 4.6,
    "ratings": 236,
    "status": "OPERATIONAL",
    "tel": "(519) 956-9822",
    "website": "http://frankbeer.ca/"
  },
  {
    "address": "219 Wilson Ave, Timmins, ON P4N 2T3, Canada",
    "avatar": true,
    "banner": true,
    "city": "Timmins",
    "description": "Full Beard Brewing is a new craft brewery located in Timmins Ontario.",
    "lat": 48.4751387,
    "lng": -81.3416451,
    "name": "Full Beard Brewing Co.",
    "postal": "P4N 2T3",
    "rating": 4.8,
    "ratings": 87,
    "status": "OPERATIONAL",
    "tel": "(705) 268-0444",
    "twitter": "fullbeardbrew",
    "website": "http://fullbeardbrewing.com/"
  },
  {
    "address": "1A Elgin St, Georgetown, ON L7G 3M2, Canada",
    "avatar": true,
    "banner": true,
    "city": "Halton Hills",
    "description": "The Brewery of Halton Hills! CoVid-19 Hours: Mon-Fri: 12-6, Sat/Sun: 12-4.",
    "lat": 43.655708,
    "lng": -79.91672,
    "name": "Furnace Room Brewery",
    "postal": "L7G 3M2",
    "rating": 4.9,
    "ratings": 103,
    "status": "OPERATIONAL",
    "tel": "(905) 702-7372",
    "twitter": "FurnaceRoomBrew",
    "website": "http://www.furnaceroombrewery.ca/"
  },
  {
    "address": "9 King St E, Gananoque, ON K7G 2Y5, Canada",
    "avatar": true,
    "banner": true,
    "city": "Gananoque",
    "description": "Serving Eastern Ont from our brewery in Gananoque. Naughty Otter, Black Bear Bock, Thursty Pike Pilsner, Gael Ale Irish Red, Highland Bull Scottish Ale",
    "lat": 44.3279189,
    "lng": -76.1643236,
    "name": "Gananoque Brewing",
    "postal": "K7G 2Y5",
    "rating": 4.5,
    "ratings": 77,
    "status": "OPERATIONAL",
    "tel": "(613) 463-9131",
    "twitter": "GanBrewingCo",
    "website": "http://www.ganbeer.com/"
  },
  {
    "address": "600-612 Gormanville Rd Unit 206, North Bay, ON P1B 9S7, Canada",
    "avatar": true,
    "banner": true,
    "city": "North Bay",
    "description": "Brewed in North Bay, ON! Taproom and On-site retail shop!",
    "lat": 46.329802,
    "lng": -79.4898619,
    "name": "Gateway City Brewery",
    "postal": "P1B 9S7",
    "rating": 4.9,
    "ratings": 39,
    "status": "OPERATIONAL",
    "tel": "(705) 478-0809",
    "twitter": "gatewaycitybrew",
    "website": "http://www.gatewaycity.ca/"
  },
  {
    "address": "8728 Howard Avenue, Essex Rd 9, Amherstburg, ON N9V 0C8, Canada",
    "avatar": true,
    "banner": true,
    "city": "Amherstburg",
    "description": "Fri 2-7, Sat 9-5, Sun 12-5  Awarded Amherstburg's New Business of the Year, family-owned, agricultural brewery, & location of the Amherstburg Farmers Market.",
    "lat": 42.060953,
    "lng": -83.005279,
    "name": "GL Heritage Brewing Company",
    "postal": "N9V 0C8",
    "rating": 4.7,
    "ratings": 82,
    "status": "OPERATIONAL",
    "tel": "(519) 736-7361",
    "twitter": "GLHeritageBrew",
    "website": "http://glheritagebrewing.ca/"
  },
  {
    "address": "242 Coxwell Ave, Toronto, ON M4L 3B2, Canada",
    "avatar": true,
    "banner": false,
    "city": "Toronto",
    "description": "Retail Hours: 12pm-9pm daily - Toronto home delivery through @BoozerDelivery & our web shop. Now shipping Ontario-wide.",
    "lat": 43.6724786,
    "lng": -79.319419,
    "name": "Godspeed Brewery",
    "postal": "M4L 3B2",
    "rating": 4.5,
    "ratings": 332,
    "status": "OPERATIONAL",
    "tel": "(416) 551-2282",
    "twitter": "godspeedbrewery",
    "website": "https://godspeedbrewery.com/"
  },
  {
    "address": "71 King St N, Waterloo, ON N2J 2X2, Canada",
    "avatar": false,
    "banner": false,
    "city": "Waterloo",
    "lat": 43.467299,
    "lng": -80.52329800000001,
    "name": "Gold Crown Brewery",
    "postal": "N2J 2X2",
    "rating": 4.3,
    "ratings": 10,
    "status": "OPERATIONAL",
    "tel": "(519) 886-2071",
    "website": "https://m.facebook.com/pages/Gold-Crown-Brewery/103638233059914"
  },
  {
    "address": "18825 Shaws Creek Rd, Alton, ON L7K 1L3, Canada",
    "avatar": true,
    "banner": true,
    "city": "Caledon",
    "description": "Hop Farm and Brewery in Caledon, ON. #hyperlocalbeer, #farmraisedbeer inspired by our land and community.     \n\nFarm Bottle Shop Now Open:  \nFri to Sun 12p - 6p",
    "lat": 43.819725,
    "lng": -80.06087099999999,
    "name": "GoodLot Farm & GoodLot Farmstead Brewing Co.",
    "postal": "L7K 1L3",
    "rating": 4.9,
    "ratings": 66,
    "status": "OPERATIONAL",
    "tel": "(519) 927-5881",
    "twitter": "Goodlotbeer",
    "website": "http://goodlot.beer/"
  },
  {
    "address": "70 The Esplanade, Toronto, ON M5E 1M1, Canada",
    "avatar": false,
    "banner": false,
    "city": "Toronto",
    "lat": 43.6472946,
    "lng": -79.37350599999999,
    "name": "Goose Island Brewhouse Toronto",
    "postal": "M5E 1M1",
    "rating": 4.2,
    "ratings": 289,
    "status": "OPERATIONAL",
    "tel": "(416) 862-7575",
    "website": "https://www.gooseisland.com/international-locations/toronto-brewhouse"
  },
  {
    "address": "11 Ewen Rd, Hamilton, ON L8S 3C3, Canada",
    "avatar": true,
    "banner": true,
    "city": "Hamilton",
    "description": "A new brewery in west Hamilton. We brew unique beers in small batches, with a focus on serving our community & neighbourhood first.",
    "lat": 43.2567224,
    "lng": -79.9316348,
    "name": "Grain & Grit Beer Co.",
    "postal": "L8S 3C3",
    "rating": 4.8,
    "ratings": 234,
    "status": "OPERATIONAL",
    "tel": "(905) 769-1320",
    "twitter": "ggbeerco",
    "website": "http://grainandgritbeer.com/"
  },
  {
    "address": "295 Ainslie St S, Cambridge, ON N1R 3L3, Canada",
    "avatar": true,
    "banner": true,
    "city": "Cambridge",
    "description": "One of Ontario's finest Craft Brewers.  Proud member of OCB.  Find us in LCBO's & licensed establishments all over Ont & across borders! \r\nFollow Us!",
    "lat": 43.3511526,
    "lng": -80.3131717,
    "name": "Grand River Brewing",
    "postal": "N1R 3L3",
    "rating": 4.5,
    "ratings": 118,
    "status": "OPERATIONAL",
    "tel": "(519) 620-3233",
    "twitter": "GrandRiverBeer",
    "website": "http://grandriverbrewing.com/"
  },
  {
    "address": "245 Eglinton Ave E, Toronto, ON M4P 3B7, Canada",
    "avatar": true,
    "banner": true,
    "city": "Toronto",
    "description": "Brewery, Tied House and Retail Store. We Brew All Natural, Open Fermented Ales. Family Owned and Operated since 1991.",
    "lat": 43.7080556,
    "lng": -79.3897222,
    "name": "Granite Brewery",
    "postal": "M4P 3B7",
    "rating": 4.4,
    "ratings": 396,
    "status": "OPERATIONAL",
    "tel": "(416) 322-0723",
    "twitter": "GraniteBrewTO",
    "website": "http://www.granitebrewery.ca/"
  },
  {
    "address": "30 Queen Elizabeth Blvd, Etobicoke, ON M8Z 1L8, Canada",
    "avatar": true,
    "banner": true,
    "city": "Toronto",
    "description": "Toronto, ON - Celebrated 30 Years of #FreshGLB in 2017 and made a documentary! We produce awesome beer...And we're damn proud of it! Brewed for you, Ontario!",
    "lat": 43.62277599999999,
    "lng": -79.5047989,
    "name": "Great Lakes Brewery",
    "postal": "M8Z 1L8",
    "rating": 4.7,
    "ratings": 423,
    "status": "OPERATIONAL",
    "tel": "(416) 255-4510",
    "twitter": "GreatLakesBeer",
    "website": "http://www.greatlakesbeer.com/"
  },
  {
    "address": "726 Queen St, Kincardine, ON N2Z 1Z8, Canada",
    "avatar": true,
    "banner": true,
    "city": "Kincardine",
    "description": "",
    "lat": 44.1756272,
    "lng": -81.6364906,
    "name": "Grey Matter Beer Company",
    "postal": "N2Z 1Z8",
    "rating": 4.8,
    "ratings": 96,
    "status": "OPERATIONAL",
    "tel": "(226) 396-2337",
    "twitter": "greymatterbeer",
    "website": "https://www.greymatterbeer.com/"
  },
  {
    "address": "10 Terry Fox Dr, Vankleek Hill, ON K0B 1R0, Canada",
    "avatar": false,
    "banner": false,
    "city": "Vankleek Hill",
    "lat": 45.516908,
    "lng": -74.6373199,
    "name": "Halcyon Barrel House",
    "postal": "K0B 1R0",
    "rating": null,
    "ratings": null,
    "status": "OPERATIONAL",
    "tel": "(866) 585-2337",
    "website": "http://halcyon.beer/"
  },
  {
    "address": "151 Main St S, Huron East, ON N0K 1W0, Canada",
    "avatar": true,
    "banner": true,
    "city": "Huron East",
    "description": "Free Doorstep Delivery Over $125!\nOne Tree Planted for Every Online Order\nBrewery ‚Ä¢ Seaforth, ON\nPick-up on Saturday, 11 am - 4 pm",
    "lat": 43.5494165,
    "lng": -81.3980617,
    "name": "Half Hours on Earth Brewery",
    "postal": "N0K 1W0",
    "rating": 4.7,
    "ratings": 46,
    "status": "OPERATIONAL",
    "tel": null,
    "twitter": "hhoebrewery",
    "website": "http://www.halfhoursonearth.com/"
  },
  {
    "address": "1067 Garden Gate Drive, ON-118, Dysart et al, ON K0M 1S0, Canada",
    "avatar": true,
    "banner": true,
    "city": null,
    "description": "Craft Brewery in the heart of the Haliburton Highlands",
    "lat": 45.1029863,
    "lng": -78.6152244,
    "name": "Haliburton Highlands Brewing",
    "postal": "K0M 1S0",
    "rating": 4.8,
    "ratings": 29,
    "status": "OPERATIONAL",
    "tel": "(705) 754-2739",
    "twitter": "HHBrewing",
    "website": "http://haliburtonhighlandsbrewing.ca/"
  },
  {
    "address": "247 Wallace Ave, Toronto, ON M6H 1V5, Canada",
    "avatar": true,
    "banner": true,
    "city": "Toronto",
    "description": "Brewery, taproom, and bottle shop in Toronto‚Äôs Junction Triangle. Open Tues-Fri 3-9, Sat-Sun 11-9. Hoppy things and sour things. üç∫",
    "lat": 43.6617907,
    "lng": -79.4464635,
    "name": "Halo Brewery",
    "postal": "M6H 1V5",
    "rating": 4.7,
    "ratings": 229,
    "status": "OPERATIONAL",
    "tel": null,
    "twitter": "HaloBrewery",
    "website": "https://www.halobrewery.com/"
  },
  {
    "address": "128A Sterling Rd, Toronto, ON M6R 2B7, Canada",
    "avatar": true,
    "banner": true,
    "city": "Toronto",
    "description": "",
    "lat": 43.6535658,
    "lng": -79.4452632,
    "name": "Henderson Brewing co",
    "postal": "M6R 2B7",
    "rating": 4.6,
    "ratings": 325,
    "status": "OPERATIONAL",
    "tel": "(416) 535-1212",
    "twitter": "hendersonbrewco",
    "website": "http://www.hendersonbrewing.com/"
  },
  {
    "address": "21 Market Pl, Stratford, ON N5A 1A4, Canada",
    "avatar": true,
    "banner": true,
    "city": "Stratford",
    "description": "coming late spring to beautiful downtown Stratford Ontario.",
    "lat": 43.3693803,
    "lng": -80.9820781,
    "name": "Herald Haus Brewing Co.",
    "postal": "N5A 1A4",
    "rating": 4.2,
    "ratings": 44,
    "status": "OPERATIONAL",
    "tel": "(519) 508-1890",
    "twitter": "heraldhausbeer",
    "website": "https://www.heraldhaus.com/"
  },
  {
    "address": "839 Runnymede Rd, Toronto, ON M6N 3V8, Canada",
    "avatar": true,
    "banner": true,
    "city": "Toronto",
    "description": "The GTA's first Certified B Corps brewery. 4 hockey buddies committed to creating exceptional #ontcraftbeer using natural ingredients and traditional methods.",
    "lat": 43.6698992,
    "lng": -79.48342559999999,
    "name": "High Park Brewery",
    "postal": "M6N 3V8",
    "rating": 4.8,
    "ratings": 49,
    "status": "OPERATIONAL",
    "tel": "(416) 995-7464",
    "twitter": "HighParkBrewery",
    "website": "https://highparkbrewery.square.site/"
  },
  {
    "address": "309 B HWY 124, South River, ON P0A 1X0, Canada",
    "avatar": true,
    "banner": false,
    "city": "South River",
    "description": "Craft brewery in the Highlands of Ontario - Try our Scottish Ale, Blacksmith Smoked Porter,Lion Grass",
    "lat": 45.8384815,
    "lng": -79.3775963,
    "name": "Highlander Brew Co.",
    "postal": "P0A 1X0",
    "rating": 4.7,
    "ratings": 73,
    "status": "OPERATIONAL",
    "tel": "(705) 792-0808",
    "twitter": "HighlanderBrew",
    "website": "http://www.highlanderbrewco.com/"
  },
  {
    "address": "25 Centennial Rd #10, Orangeville, ON L9W 1R1, Canada",
    "avatar": false,
    "banner": false,
    "city": "Orangeville",
    "lat": 43.9130369,
    "lng": -80.10871879999999,
    "name": "Hockley Valley Brewing Co",
    "postal": "L9W 1R1",
    "rating": 4.1,
    "ratings": 8,
    "status": "OPERATIONAL",
    "tel": "(519) 941-8887",
    "website": "http://www.hockleybeer.ca/"
  },
  {
    "address": "199 Victoria Rd S, Guelph, ON N1E 3J3, Canada",
    "avatar": true,
    "banner": true,
    "city": "Guelph",
    "description": "Est. 2009",
    "lat": 43.5523202,
    "lng": -80.2250919,
    "name": "Hop City Brewing Company",
    "postal": "N1E 3J3",
    "rating": 4.8,
    "ratings": 168,
    "status": "OPERATIONAL",
    "tel": "(888) 485-2739",
    "twitter": "HopCityBrewing",
    "website": "http://www.royalcitybrew.ca/"
  },
  {
    "address": "25 Thorold Ln, Ingleside, ON K0C 1M0, Canada",
    "avatar": true,
    "banner": true,
    "city": "Ingleside",
    "description": "Small batch. Hand crafted. Community focused. Taproom & bottle shop. Fri 1-6 & Sat 11-6. From humble beginnings come great things. #workhardstay",
    "lat": 44.9966455,
    "lng": -74.99012669999999,
    "name": "Humble Beginnings Brewing Co.",
    "postal": "K0C 1M0",
    "rating": 4.8,
    "ratings": 18,
    "status": "OPERATIONAL",
    "tel": "(613) 522-0725",
    "twitter": "hbbrewingco",
    "website": "http://www.humblebeginningsbrewing.ca/"
  },
  {
    "address": "2876 Dundas St W, Toronto, ON M6P 1Y8, Canada",
    "avatar": true,
    "banner": true,
    "city": "Toronto",
    "description": "A small craft brewery, pub and beer store in West Toronto. We make only full flavoured Ales. If you saw it on TV we don't have it.",
    "lat": 43.6655507,
    "lng": -79.46533869999999,
    "name": "Indie Alehouse",
    "postal": "M6P 1Y8",
    "rating": 4.5,
    "ratings": 687,
    "status": "OPERATIONAL",
    "tel": "(416) 760-9691",
    "twitter": "indiealehouse",
    "website": "http://indiealehouse.com/"
  },
  {
    "address": "283 Northfield Dr E #8, Waterloo, ON N2J 4G8, Canada",
    "avatar": true,
    "banner": false,
    "city": "Waterloo",
    "description": "A microbrewery on a mission to brew the best beer we can. Ten draught taps, casks and bottle shop. Established 2012 in Edinburgh, UK and moved to KW 2014.",
    "lat": 43.5118409,
    "lng": -80.52053289999999,
    "name": "Innocente Brewing Company",
    "postal": "N2J 4G8",
    "rating": 4.8,
    "ratings": 153,
    "status": "OPERATIONAL",
    "tel": "(519) 725-1253",
    "twitter": "Innocente_Brew",
    "website": "http://www.innocente.ca/"
  },
  {
    "address": "100 Sheldon Dr, Cambridge, ON N1R 7S7, Canada",
    "avatar": true,
    "banner": false,
    "city": "Cambridge",
    "description": "",
    "lat": 43.40388830000001,
    "lng": -80.3194165,
    "name": "Jackass Brewing",
    "postal": "N1R 7S7",
    "rating": 4.8,
    "ratings": 113,
    "status": "OPERATIONAL",
    "tel": "(519) 624-9423",
    "twitter": "BrewingJackass",
    "website": "http://www.jackassbrewing.ca/"
  },
  {
    "address": "45 Cambria St, Stratford, ON N5A 1G8, Canada",
    "avatar": false,
    "banner": false,
    "city": "Stratford",
    "lat": 43.36357400000001,
    "lng": -80.983891,
    "name": "Jobsite Brewing Company",
    "postal": "N5A 1G8",
    "rating": 4.7,
    "ratings": 68,
    "status": "OPERATIONAL",
    "tel": "(519) 305-3335",
    "website": "http://www.jobsitebrewing.ca/"
  },
  {
    "address": "150 Symes Rd, Toronto, ON M6N 0B1, Canada",
    "avatar": true,
    "banner": true,
    "city": "Toronto",
    "description": "Founder/President of Junction Craft Brewing. Visit our brewery at 150 Symes Road in the Aleyards üçª",
    "lat": 43.6732292,
    "lng": -79.4786118,
    "name": "Junction Craft Brewing",
    "postal": "M6N 0B1",
    "rating": 4.6,
    "ratings": 178,
    "status": "OPERATIONAL",
    "tel": "(416) 766-1616",
    "twitter": "junctioncraft",
    "website": "http://www.junctioncraft.com/"
  },
  {
    "address": "25 Pelham Town Square, Fonthill, ON L0S 1E0, Canada",
    "avatar": false,
    "banner": false,
    "city": "Pelham",
    "lat": 43.0438401,
    "lng": -79.28506039999999,
    "name": "Kame & Kettle Beer Works",
    "postal": "L0S 1E0",
    "rating": 4.7,
    "ratings": 310,
    "status": "OPERATIONAL",
    "tel": "(289) 273-2550",
    "website": "http://www.kameandkettle.ca/"
  },
  {
    "address": "299 Augusta Ave, Toronto, ON M5T 2M2, Canada",
    "avatar": true,
    "banner": true,
    "city": "Toronto",
    "description": "üì´Delivering to Toronto & Vaughan\nüá®üá¶Now shipping Ontario wide!\nüìç2 locations | Augusta & Edgeley",
    "lat": 43.6565029,
    "lng": -79.40257679999999,
    "name": "Kensington Brewing Company",
    "postal": "M5T 2M2",
    "rating": 4.6,
    "ratings": 229,
    "status": "OPERATIONAL",
    "tel": "(647) 352-9904",
    "twitter": "KBCobeer",
    "website": "https://www.kensingtonbrewingcompany.com/"
  },
  {
    "address": "34 Brunswick St, Stratford, ON N5A 3L8, Canada",
    "avatar": true,
    "banner": true,
    "city": "Stratford",
    "description": "new owners, new menu, reinvigorated. since 1983",
    "lat": 43.3698722,
    "lng": -80.9808417,
    "name": "Keystone Alley Restaurant",
    "postal": "N5A 3L8",
    "rating": 4.6,
    "ratings": 221,
    "status": "CLOSED_TEMPORARILY",
    "tel": "(519) 271-5645",
    "twitter": "KeystoneAlley",
    "website": "https://www.keystonealley.com/"
  },
  {
    "address": "103015 Grey County Rd 18, Owen Sound, ON N4K 5N6, Canada",
    "avatar": true,
    "banner": false,
    "city": "Owen Sound",
    "description": "",
    "lat": 44.5243663,
    "lng": -80.9159969,
    "name": "Kilannan Brewing Company",
    "postal": "N4K 5N6",
    "rating": 4.5,
    "ratings": 75,
    "status": "CLOSED_PERMANENTLY",
    "tel": "(226) 909-2122",
    "twitter": "KilannanBrewing",
    "website": "http://www.kilannanbrewing.ca/"
  },
  {
    "address": "3-675 Arlington Park Pl, Kingston, ON K7M 7E4, Canada",
    "avatar": false,
    "banner": false,
    "city": "Kingston",
    "lat": 44.248785,
    "lng": -76.570534,
    "name": "King's Town Beer Company",
    "postal": "K7M 7E4",
    "rating": 4.8,
    "ratings": 38,
    "status": "CLOSED_PERMANENTLY",
    "tel": "(613) 417-0375",
    "website": "http://www.kingstownbeerco.ca/"
  },
  {
    "address": "34 Clarence St, Kingston, ON K7L 1W9, Canada",
    "avatar": true,
    "banner": false,
    "city": "Kingston",
    "description": "Downpour Brewing is a small batch brewery located in the heart of Kingston, WA.",
    "lat": 44.229229,
    "lng": -76.48126979999999,
    "name": "The Kingston Brewing Company",
    "postal": "K7L 1W9",
    "rating": 4.5,
    "ratings": 1617,
    "status": "OPERATIONAL",
    "tel": "(613) 542-4978",
    "twitter": "DownpourBrewing",
    "website": "https://www.kingstonbrewing.ca/"
  },
  {
    "address": "2681 Muskoka District Road 117, Baysville, ON P0B 1A0, Canada",
    "avatar": true,
    "banner": true,
    "city": "Baysville",
    "description": "Taste the Great Outdoors. Handcrafted in small batches in Baysville, Ontario since 2010.",
    "lat": 45.1501573,
    "lng": -79.1143362,
    "name": "Lake of Bays Brewing Company",
    "postal": "P0B 1A0",
    "rating": 4.6,
    "ratings": 100,
    "status": "OPERATIONAL",
    "tel": "(705) 767-2313",
    "twitter": "lb_brewing",
    "website": "https://lakeofbaysbrewing.ca/"
  },
  {
    "address": "104 Main Ave NE, Warroad, MN 56763, USA",
    "avatar": true,
    "banner": true,
    "city": "Warroad",
    "description": "We are Ontario's northernmost brewery. Our naturally carbonated beer is brewed in a 107 year old firehall in Kenora, ON... MAKE IT LAKE TIME",
    "lat": 48.9043984,
    "lng": -95.3164034,
    "name": "Lake of the Woods Brewing Company",
    "postal": "56763",
    "rating": 4.5,
    "ratings": 13,
    "status": "OPERATIONAL",
    "tel": "(833) 321-2337",
    "twitter": "lowbrewco",
    "website": "http://www.lowbrewco.com/"
  },
  {
    "address": "11369 Loyalist Pkwy, Prince Edward, ON K0K 2T0, Canada",
    "avatar": false,
    "banner": false,
    "city": "Prince Edward",
    "lat": 44.04280259999999,
    "lng": -77.0667282,
    "name": "Lake on the Mountain Brewing Company",
    "postal": "K0K 2T0",
    "rating": 4.6,
    "ratings": 51,
    "status": "OPERATIONAL",
    "tel": "(613) 476-1321",
    "website": "http://www.lakeonthemountainbrewco.com/"
  },
  {
    "address": "1144 College St, Toronto, ON M6H 1B6, Canada",
    "avatar": false,
    "banner": false,
    "city": "Toronto",
    "lat": 43.65241289999999,
    "lng": -79.4338167,
    "name": "Laylow Brewery",
    "postal": "M6H 1B6",
    "rating": 4.7,
    "ratings": 175,
    "status": "OPERATIONAL",
    "tel": null,
    "website": "https://laylow.beer/"
  },
  {
    "address": "36 Wagstaff Dr, Toronto, ON M4L 3W9, Canada",
    "avatar": true,
    "banner": true,
    "city": "Toronto",
    "description": "CURBSIDE Bottle Shop open 12-8pm daily ‚öæ FREE Toronto Delivery for Fan Shop orders over $50 ‚öæ $10 Flat Rate Ontario Wide shipping for orders over $50",
    "lat": 43.6737842,
    "lng": -79.3304611,
    "name": "Left Field Brewery",
    "postal": "M4L 3W9",
    "rating": 4.7,
    "ratings": 530,
    "status": "OPERATIONAL",
    "tel": "(647) 346-5001",
    "twitter": "LFBrewery",
    "website": "http://www.leftfieldbrewery.ca/"
  },
  {
    "address": "42 Liberty St, Toronto, ON M6K 3E7, Canada",
    "avatar": false,
    "banner": false,
    "city": "Toronto",
    "lat": 43.6382956,
    "lng": -79.4210971,
    "name": "Liberty Commons at Big Rock Brewery",
    "postal": "M6K 3E7",
    "rating": 4.4,
    "ratings": 1356,
    "status": "OPERATIONAL",
    "tel": "(416) 304-9403",
    "website": "https://www.libertycommons.ca/"
  },
  {
    "address": "59 King St N, Waterloo, ON N2J, Canada",
    "avatar": false,
    "banner": false,
    "city": "Waterloo",
    "lat": 43.4668796,
    "lng": -80.52322509999999,
    "name": "The Lion Brewery Restaurant",
    "postal": "N2J",
    "rating": 4.2,
    "ratings": 282,
    "status": "CLOSED_TEMPORARILY",
    "tel": "(519) 886-3350",
    "website": "http://huetherhotel.com/"
  },
  {
    "address": "2075 Forbes St Unit 4, Whitby, ON L1N 9X1, Canada",
    "avatar": true,
    "banner": true,
    "city": "Whitby",
    "description": "Brewing up a selection of fresh Pales, IPAs, Stouts and Saisons!",
    "lat": 43.8598306,
    "lng": -78.89253289999999,
    "name": "Little Beasts Brewing Company",
    "postal": "L1N 9X1",
    "rating": 4.8,
    "ratings": 93,
    "status": "OPERATIONAL",
    "tel": "(905) 723-2337",
    "twitter": "LilBeastsBrewCo",
    "website": "http://www.littlebeastsbrewing.com/"
  },
  {
    "address": "15 Lock St, St. Catharines, ON L2N 5B6, Canada",
    "avatar": true,
    "banner": true,
    "city": "St. Catharines",
    "description": "Port Dalhousie's first Handcrafted Brewery. We take our time, so you can enjoy yours. üçª",
    "lat": 43.2022588,
    "lng": -79.2665492,
    "name": "Lock Street Brewing Company",
    "postal": "L2N 5B6",
    "rating": 4.5,
    "ratings": 172,
    "status": "OPERATIONAL",
    "tel": "(905) 935-2124",
    "twitter": "LockStreetBrew",
    "website": "http://www.lockstreet.ca/"
  },
  {
    "address": "521 Burbrook Pl, London, ON N5W 4B5, Canada",
    "avatar": false,
    "banner": false,
    "city": "London",
    "lat": 42.9974137,
    "lng": -81.21685599999999,
    "name": "London Brewing Co-operative",
    "postal": "N5W 4B5",
    "rating": 4.7,
    "ratings": 649,
    "status": "OPERATIONAL",
    "tel": "(226) 667-6363",
    "website": "http://www.londonbrewing.ca/"
  },
  {
    "address": "417 Danforth Ave, Toronto, ON M4K 1P1, Canada",
    "avatar": true,
    "banner": true,
    "city": "Toronto",
    "description": "#isurrender",
    "lat": 43.6774741,
    "lng": -79.3511679,
    "name": "Louis Cifer Brew Works",
    "postal": "M4K 1P1",
    "rating": 4,
    "ratings": 359,
    "status": "OPERATIONAL",
    "tel": "(647) 350-5087",
    "twitter": "LouisCiferBW",
    "website": "http://www.louisciferbrewworks.com/"
  },
  {
    "address": "73 York St, Ottawa, ON K1N 5T2, Canada",
    "avatar": true,
    "banner": true,
    "city": "Ottawa",
    "description": "Comfort Food & Craft Beer",
    "lat": 45.4287727,
    "lng": -75.6922146,
    "name": "Lowertown Brewery",
    "postal": "K1N 5T2",
    "rating": 3.6,
    "ratings": 337,
    "status": "OPERATIONAL",
    "tel": "(613) 722-1454",
    "twitter": "LowertownOttawa",
    "website": "http://www.lowertownbrewery.ca/"
  },
  {
    "address": "1915 County Rd 22, Bath, ON K0H 1G0, Canada",
    "avatar": true,
    "banner": true,
    "city": "Bath",
    "description": "Farmers, Brewers.",
    "lat": 44.2014333,
    "lng": -76.7956955,
    "name": "MacKinnon Brothers Brewing Company",
    "postal": "K0H 1G0",
    "rating": 4.8,
    "ratings": 92,
    "status": "OPERATIONAL",
    "tel": "(613) 777-6277",
    "twitter": "MacKinnonBrew",
    "website": "http://www.mackinnonbrewing.com/"
  },
  {
    "address": "52 14th Ave, Hanover, ON N4N 3V9, Canada",
    "avatar": true,
    "banner": true,
    "city": "Hanover",
    "description": "MacLean‚Äôs Ales started when Charles MacLean turned his years of passion for designing and brewing flavourful ales into reality. This is our NEWS page. Cheers!",
    "lat": 44.1399973,
    "lng": -81.0146427,
    "name": "MacLean‚Äôs Ales Inc.",
    "postal": "N4N 3V9",
    "rating": 4.8,
    "ratings": 45,
    "status": "OPERATIONAL",
    "tel": "(519) 506-2537",
    "twitter": "macleansales",
    "website": "http://macleansales.ca/"
  },
  {
    "address": "271 Chrislea Rd, Woodbridge, ON L4L 8N6, Canada",
    "avatar": false,
    "banner": false,
    "city": "Vaughan",
    "lat": 43.7977372,
    "lng": -79.5427788,
    "name": "Magnotta",
    "postal": "L4L 8N6",
    "rating": 4.5,
    "ratings": 120,
    "status": "OPERATIONAL",
    "tel": "(905) 738-9463",
    "website": "http://www.magnotta.com/"
  },
  {
    "address": "182 Wellington St, Bowmanville, ON L1C 1W3, Canada",
    "avatar": true,
    "banner": true,
    "city": "Bowmanville",
    "description": "Small batch craft brewery. \nTasting Room, Bottle Shop, Local Art & Live Music.\nONTARIO WIDE SHIPPING üëá ORDER HERE",
    "lat": 43.9161474,
    "lng": -78.69536040000001,
    "name": "Manantler Craft Brewing Co.",
    "postal": "L1C 1W3",
    "rating": 4.6,
    "ratings": 116,
    "status": "OPERATIONAL",
    "tel": "(905) 697-9979",
    "twitter": "manantler",
    "website": "http://www.manantler.com/"
  },
  {
    "address": "43 Manitowaning Rd, Little Current, ON P0P 1K0, Canada",
    "avatar": true,
    "banner": true,
    "city": "Little Current",
    "description": "Manitoulin Island's newest brewery. Living, loving, brewing.",
    "lat": 45.976524,
    "lng": -81.9242491,
    "name": "Manitoulin Brewing Company",
    "postal": "P0P 1K0",
    "rating": 4.7,
    "ratings": 61,
    "status": "OPERATIONAL",
    "tel": "(705) 370-5633",
    "twitter": "manitoulinbrew",
    "website": "http://www.manitoulinbrewing.co/"
  },
  {
    "address": "17775 Leslie St #4, Newmarket, ON L3Y 3E3, Canada",
    "avatar": true,
    "banner": true,
    "city": "Newmarket",
    "description": "Craft brewery and event space, proud to call Newmarket home.",
    "lat": 44.0727385,
    "lng": -79.4321867,
    "name": "Market Brewing Company",
    "postal": "L3Y 3E3",
    "rating": 4.6,
    "ratings": 210,
    "status": "OPERATIONAL",
    "tel": "(905) 235-9333",
    "twitter": "MarketBrewing",
    "website": "http://www.marketbrewingco.com/"
  },
  {
    "address": "111 Sherwood Dr #3A, Brantford, ON N3T 6J9, Canada",
    "avatar": true,
    "banner": false,
    "city": "Brantford",
    "description": "",
    "lat": 43.1340475,
    "lng": -80.2794921,
    "name": "Mash Paddle Brewing Company",
    "postal": "N3T 6J9",
    "rating": 4.7,
    "ratings": 93,
    "status": "OPERATIONAL",
    "tel": "(289) 253-8157",
    "twitter": "MashPaddleBrew",
    "website": "http://www.mashpaddlebrewing.com/"
  },
  {
    "address": "98 St Paul St, St. Catharines, ON L2R 3M2, Canada",
    "avatar": false,
    "banner": false,
    "city": "St. Catharines",
    "lat": 43.1568222,
    "lng": -79.2450472,
    "name": "The Merchant Ale House",
    "postal": "L2R 3M2",
    "rating": 4.6,
    "ratings": 1458,
    "status": "OPERATIONAL",
    "tel": "(905) 984-4060",
    "website": "http://merchantalehouse.com/"
  },
  {
    "address": "107 James St N, Hamilton, ON L8R 2K6, Canada",
    "avatar": true,
    "banner": true,
    "city": "Hamilton",
    "description": "Representing the heart, art, and soul of #HamOnt in every beer, bite, and experience.",
    "lat": 43.259504,
    "lng": -79.86799789999999,
    "name": "MERIT Brewing Company",
    "postal": "L8R 2K6",
    "rating": 4.5,
    "ratings": 523,
    "status": "OPERATIONAL",
    "tel": "(905) 393-1024",
    "twitter": "MERITBrewing",
    "website": "http://www.meritbrewing.ca/"
  },
  {
    "address": "1335 Wyandotte St E, Windsor, ON N9A 3K8, Canada",
    "avatar": true,
    "banner": true,
    "city": "Windsor",
    "description": "We are a premier brewing company located in Windsor, Ontario, Canada.",
    "lat": 42.3205397,
    "lng": -83.01855049999999,
    "name": "Midian Brewing",
    "postal": "N9A 3K8",
    "rating": 5,
    "ratings": 1,
    "status": "OPERATIONAL",
    "tel": "(226) 340-1178",
    "twitter": "MidianBrewing",
    "website": "http://www.midianbeer.com/"
  },
  {
    "address": "266 Wellington Main St, Wellington, ON K0K 3L0, Canada",
    "avatar": false,
    "banner": false,
    "city": "Prince Edward",
    "lat": 43.9523689,
    "lng": -77.3486551,
    "name": "Midtown Brewing Company",
    "postal": "K0K 3L0",
    "rating": 4.5,
    "ratings": 209,
    "status": "OPERATIONAL",
    "tel": "(613) 399-1001",
    "website": "http://www.midtownbrewingcompany.com/"
  },
  {
    "address": "555 Wellington St, Ottawa, ON K1R 1C5, Canada",
    "avatar": true,
    "banner": true,
    "city": "Ottawa",
    "description": "Traditional Brew Pub in the Heart of the Distillery",
    "lat": 45.41968199999999,
    "lng": -75.712687,
    "name": "Mill St. Brew Pub",
    "postal": "K1R 1C5",
    "rating": 4.2,
    "ratings": 2955,
    "status": "OPERATIONAL",
    "tel": "(613) 567-2337",
    "twitter": "MillStBrewPubTO",
    "website": "http://ottawa.millstreetbrewpub.ca/"
  },
  {
    "address": "555 Wellington St, Ottawa, ON K1R 1C5, Canada",
    "avatar": true,
    "banner": true,
    "city": "Ottawa",
    "description": "Traditional Brew Pub in the Heart of the Distillery",
    "lat": 45.41968199999999,
    "lng": -75.712687,
    "name": "Mill St. Brew Pub",
    "postal": "K1R 1C5",
    "rating": 4.2,
    "ratings": 2955,
    "status": "OPERATIONAL",
    "tel": "(613) 567-2337",
    "twitter": "MillStBrewPubTO",
    "website": "http://ottawa.millstreetbrewpub.ca/"
  },
  {
    "address": "888 Erie St E, Windsor, ON N9A 3Y6, Canada",
    "avatar": true,
    "banner": true,
    "city": "Windsor",
    "description": "Motor Craft Ales is Windsor's first Nano Brewery located at 888 Erie Street in the bowels of Motorburger.",
    "lat": 42.3136203,
    "lng": -83.0210074,
    "name": "Motor Craft Ales",
    "postal": "N9A 3Y6",
    "rating": 4,
    "ratings": 6,
    "status": "OPERATIONAL",
    "tel": "(519) 252-8004",
    "twitter": "Motorcraftales",
    "website": "http://thisismotor.com/"
  },
  {
    "address": "22 Cranfield Rd, East York, ON M4B 3H1, Canada",
    "avatar": true,
    "banner": true,
    "city": "Toronto",
    "description": "An award-winning small batch brewery in the East York. Taproom is closed until further notice. Curbside open Wed - Sun. Order online for Direct Delivery.",
    "lat": 43.712436,
    "lng": -79.31215999999999,
    "name": "Muddy York Brewing Co.",
    "postal": "M4B 3H1",
    "rating": 4.8,
    "ratings": 184,
    "status": "OPERATIONAL",
    "tel": "(416) 619-7819",
    "twitter": "MYBrewingCo",
    "website": "http://www.muddyyorkbrewing.com/"
  },
  {
    "address": "1198 1st Ave E, Owen Sound, ON N4K 0B3, Canada",
    "avatar": true,
    "banner": false,
    "city": "Owen Sound",
    "description": "",
    "lat": 44.5719479,
    "lng": -80.94227889999999,
    "name": "Mudtown Station",
    "postal": "N4K 0B3",
    "rating": 4.4,
    "ratings": 225,
    "status": "OPERATIONAL",
    "tel": "(519) 371-3575",
    "twitter": "MudtownStation",
    "website": "https://www.mudtownstation.ca/"
  },
  {
    "address": "1964 Muskoka Beach Rd, Bracebridge, ON P1P 1V4, Canada",
    "avatar": true,
    "banner": true,
    "city": "Bracebridge",
    "description": "#VentureOffTheBeatenPath",
    "lat": 44.99823860000001,
    "lng": -79.31985970000001,
    "name": "Muskoka Brewery",
    "postal": "P1P 1V4",
    "rating": 4.8,
    "ratings": 263,
    "status": "OPERATIONAL",
    "tel": "(705) 646-1266",
    "twitter": "MuskokaBrewery",
    "website": "https://www.muskokabrewery.com/"
  },
  {
    "address": "25292 Talbot Line, West Lorne, ON N0L 2P0, Canada",
    "avatar": false,
    "banner": false,
    "city": "West Lorne",
    "lat": 42.5682768,
    "lng": -81.5623925,
    "name": "Natterjack Brewing Company LTD",
    "postal": "N0L 2P0",
    "rating": 4.8,
    "ratings": 47,
    "status": "OPERATIONAL",
    "tel": "(226) 289-1472",
    "website": "http://www.natterjackbrewing.ca/"
  },
  {
    "address": "456 Jacob St, Neustadt, ON N0G 2M0, Canada",
    "avatar": false,
    "banner": false,
    "city": "Neustadt",
    "lat": 44.0748579,
    "lng": -81.00349039999999,
    "name": "Neustadt Springs Brewery",
    "postal": "N0G 2M0",
    "rating": 4.2,
    "ratings": 43,
    "status": "OPERATIONAL",
    "tel": "(519) 799-5790",
    "website": "http://www.neustadtsprings.com/"
  },
  {
    "address": "2353 Nixon Rd, Simcoe, ON N3Y 4K6, Canada",
    "avatar": true,
    "banner": true,
    "city": "Simcoe",
    "description": "New Limburg Brewing Company is a microbrewery specializing in traditionally-produced Belgian-style Beers. Bottle Shop and Taproom on premises.",
    "lat": 42.8537249,
    "lng": -80.4021836,
    "name": "New Limburg Brewing Company",
    "postal": "N3Y 4K6",
    "rating": 4.7,
    "ratings": 463,
    "status": "OPERATIONAL",
    "tel": "(519) 426-2323",
    "twitter": "NewLimburg",
    "website": "http://www.newlimburg.com/"
  },
  {
    "address": "1881 Cassells St, North Bay, ON P1B 4C8, Canada",
    "avatar": true,
    "banner": true,
    "city": "North Bay",
    "description": "Northern Ontario Brewers skillfully crafting Northern Ontario beers!",
    "lat": 46.3177698,
    "lng": -79.44609489999999,
    "name": "New Ontario Brewing",
    "postal": "P1B 4C8",
    "rating": 4.5,
    "ratings": 69,
    "status": "OPERATIONAL",
    "tel": "(705) 707-1659",
    "twitter": "NewOntarioBrew",
    "website": "http://www.newontariobrewing.com/"
  },
  {
    "address": "4915-A Clifton Hill, Niagara Falls, ON L2G 3N5, Canada",
    "avatar": true,
    "banner": true,
    "city": "Niagara Falls",
    "description": "Niagara‚Äôs newest craft brewery on the street of fun, we think the idea‚Äôs as cunning as a fox. Check out our blog https://t.co/71cYl0nWil",
    "lat": 43.0910381,
    "lng": -79.0735392,
    "name": "Niagara Brewing Company",
    "postal": "L2G 3N5",
    "rating": 4.1,
    "ratings": 1149,
    "status": "OPERATIONAL",
    "tel": "(905) 374-4444",
    "twitter": "NiagaraBrewCo",
    "website": "https://shop.niagarabrewingcompany.com/"
  },
  {
    "address": "135 Taylor Rd, Niagara-on-the-Lake, ON L0S 1J0, Canada",
    "avatar": true,
    "banner": true,
    "city": "Niagara-on-the-Lake",
    "description": "The Niagara College Teaching Brewery is Canada's first and only teaching brewery for students in Niagara College's Brewmaster program.",
    "lat": 43.1521587,
    "lng": -79.1641058,
    "name": "Niagara College Teaching Brewery",
    "postal": "L0S 1J0",
    "rating": 4.8,
    "ratings": 133,
    "status": "CLOSED_TEMPORARILY",
    "tel": "(905) 641-2252 ext. 4099",
    "twitter": "NCTBrewery",
    "website": "http://ncteachingbrewery.ca/"
  },
  {
    "address": "2017 Niagara Stone Rd, Niagara-on-the-Lake, ON L0S 1J0, Canada",
    "avatar": true,
    "banner": true,
    "city": "Niagara-on-the-Lake",
    "description": "Ours is an agricultural region built with dirty hands, sore backs and obsession for craft. Discover this \"Niagara\" at Canada's first Farmhouse-focused brewery!",
    "lat": 43.2401609,
    "lng": -79.0987974,
    "name": "Niagara Oast House Brewers - Craft Brewery in Niagara On The Lake",
    "postal": "L0S 1J0",
    "rating": 4.4,
    "ratings": 384,
    "status": "OPERATIONAL",
    "tel": "(289) 868-9627",
    "twitter": "OastHouseBeer",
    "website": "http://www.oasthousebrewers.com/"
  },
  {
    "address": "864 Drury Ln, Burlington, ON L7R 2Y4, Canada",
    "avatar": true,
    "banner": true,
    "city": "Burlington",
    "description": "Welcome to our Offical page for all things Nickel Brook and any new products! Buy our beer online, and have it shipped to your door!",
    "lat": 43.3430751,
    "lng": -79.8049626,
    "name": "Nickel Brook Brewing Co.",
    "postal": "L7R 2Y4",
    "rating": 4.7,
    "ratings": 222,
    "status": "OPERATIONAL",
    "tel": "(905) 681-2739",
    "twitter": "NickelBrookBeer",
    "website": "https://www.nickelbrook.store/"
  },
  {
    "address": "190 Colonnade Rd #17, Nepean, ON K2E 7J5, Canada",
    "avatar": true,
    "banner": true,
    "city": "Ottawa",
    "description": "Passionate about beer, life, and making the most of them both. Proud member of Ottawa's awesome #craftbeer community.",
    "lat": 45.342155,
    "lng": -75.715591,
    "name": "Nita Beer Company",
    "postal": "K2E 7J5",
    "rating": 4.6,
    "ratings": 100,
    "status": "OPERATIONAL",
    "tel": "(613) 688-2337",
    "twitter": "nitabeerco",
    "website": "http://nitabeer.com/"
  },
  {
    "address": "11 Ritchie Dr, Nobel, ON P0G 1G0, Canada",
    "avatar": true,
    "banner": true,
    "city": "Nobel",
    "description": "Norse Brewery is a family owned craft brewery, that focuses on traditional recipes, made 100% naturally.",
    "lat": 45.4917792,
    "lng": -80.2026734,
    "name": "Norse Brewery",
    "postal": "P0G 1G0",
    "rating": 4.8,
    "ratings": 71,
    "status": "OPERATIONAL",
    "tel": "(705) 345-0274",
    "twitter": "norsebrewery",
    "website": "http://norsebrewery.com/"
  },
  {
    "address": "46 Stafford Ct, Cambridge, ON N1T 1B3, Canada",
    "avatar": false,
    "banner": false,
    "city": "Cambridge",
    "lat": 43.4084206,
    "lng": -80.3041812,
    "name": "North Works Brewing Co.",
    "postal": "N1T 1B3",
    "rating": 4.7,
    "ratings": 114,
    "status": "OPERATIONAL",
    "tel": "(519) 239-8555",
    "website": "http://www.northworksbrewing.com/"
  },
  {
    "address": "115 Bathurst St, Toronto, ON M5V 2P9, Canada",
    "avatar": false,
    "banner": false,
    "city": "Toronto",
    "lat": 43.6450071,
    "lng": -79.4028996,
    "name": "Northern Maverick Brewing Co",
    "postal": "M5V 2P9",
    "rating": 3.8,
    "ratings": 419,
    "status": "OPERATIONAL",
    "tel": "(416) 540-4030",
    "website": "https://northernmaverick.ca/"
  },
  {
    "address": "50 Pim St, Sault Ste. Marie, ON P6A 3G4, Canada",
    "avatar": false,
    "banner": false,
    "city": "Sault Ste. Marie",
    "lat": 46.5049347,
    "lng": -84.32354389999999,
    "name": "Northern Superior Brewing co.",
    "postal": "P6A 3G4",
    "rating": 4.7,
    "ratings": 27,
    "status": "OPERATIONAL",
    "tel": "(705) 450-7468",
    "website": "http://northernsuperior.org/"
  },
  {
    "address": "1024 Division St, Cobourg, ON K9A 5Y5, Canada",
    "avatar": true,
    "banner": true,
    "city": "Cobourg",
    "description": "The NHB, Northumberland Hills Brewery is a microbrewery located in Cobourg, Ontario and produces a variety of craft beers.",
    "lat": 43.9801726,
    "lng": -78.1740963,
    "name": "Northumberland Hills Brewery",
    "postal": "K9A 5Y5",
    "rating": 5,
    "ratings": 29,
    "status": "OPERATIONAL",
    "tel": "(289) 435-2004",
    "twitter": "TheNHBbrewpot",
    "website": "https://www.facebook.com/TheNHBbrewpot/"
  },
  {
    "address": "180 Jozo Weider Blvd, The Blue Mountains, ON L9Y 0V2, Canada",
    "avatar": true,
    "banner": true,
    "city": "The Blue Mountains",
    "description": "Two locations - Small Batch Brewery, Restaurant and onsite Beer Stores.",
    "lat": 44.5027681,
    "lng": -80.3100223,
    "name": "Northwinds Brewpub & Craft Beer Store",
    "postal": "L9Y 0V2",
    "rating": 4.4,
    "ratings": 351,
    "status": "OPERATIONAL",
    "tel": "(705) 445-2666",
    "twitter": "Northwindsbeer",
    "website": "http://www.northwindsbrewery.com/"
  },
  {
    "address": "499 First St, Collingwood, ON L9Y 1B9, Canada",
    "avatar": true,
    "banner": true,
    "city": "Collingwood",
    "description": "Two locations - Small Batch Brewery, Restaurant and onsite Beer Stores.",
    "lat": 44.5017322,
    "lng": -80.2318981,
    "name": "Northwinds Brewhouse & Kitchen",
    "postal": "L9Y 1B9",
    "rating": 4.5,
    "ratings": 617,
    "status": "OPERATIONAL",
    "tel": "(705) 293-6666",
    "twitter": "Northwindsbeer",
    "website": "http://www.northwindsbrewery.com/"
  },
  {
    "address": "6 Queen St W, Mississauga, ON L5H 1L4, Canada",
    "avatar": true,
    "banner": true,
    "city": "Mississauga",
    "description": "Started in 1994 with one goal, brew the highest quality beer possible for our customers using our ice aging process. Located in Port Credit, Mississauga.",
    "lat": 43.5497284,
    "lng": -79.5933325,
    "name": "Old Credit Brewing Co Ltd",
    "postal": "L5H 1L4",
    "rating": 4.8,
    "ratings": 44,
    "status": "OPERATIONAL",
    "tel": "(905) 271-9888",
    "twitter": "OldCreditBrew",
    "website": "http://www.oldcreditbrewing.com/"
  },
  {
    "address": "135 Perry St, Port Perry, ON L9L 1B8, Canada",
    "avatar": true,
    "banner": true,
    "city": "Port Perry",
    "description": "Creating authentic craft beer and experiences worth remembering. Located in the Historic District of Port Perry, Ont.\n\nTag Us @OldFlameBrewery #worthremembering",
    "lat": 44.10398480000001,
    "lng": -78.9435348,
    "name": "Old Flame Brewing Co.",
    "postal": "L9L 1B8",
    "rating": 4.8,
    "ratings": 165,
    "status": "OPERATIONAL",
    "tel": "(289) 485-2739",
    "twitter": "OldFlameBrewery",
    "website": "http://oldflamebrewingco.ca/"
  },
  {
    "address": "32 Steeles Ave E Unit 1, Milton, ON L9T 5A1, Canada",
    "avatar": true,
    "banner": true,
    "city": "Milton",
    "description": "Milton's Craft Brewery",
    "lat": 43.5167926,
    "lng": -79.89872679999999,
    "name": "Orange Snail Brewers",
    "postal": "L9T 5A1",
    "rating": 4.7,
    "ratings": 131,
    "status": "OPERATIONAL",
    "tel": "(289) 270-1680",
    "twitter": "OrangeSnailBrew",
    "website": "http://orangesnailbrewers.ca/"
  },
  {
    "address": "196 High St, Southampton, ON N0H 2L0, Canada",
    "avatar": true,
    "banner": true,
    "city": "Southampton",
    "description": "We brew Outlaw Beer that blends the essence of country living with the freedom of an outlaw attitude.",
    "lat": 44.49591789999999,
    "lng": -81.3715383,
    "name": "Outlaw Brew Co",
    "postal": "N0H 2L0",
    "rating": 4.1,
    "ratings": 173,
    "status": "OPERATIONAL",
    "tel": "(519) 797-1515",
    "twitter": "outlawbrew",
    "website": "http://www.outlawbrewco.ca/"
  },
  {
    "address": "350 Queen St E, Sault Ste. Marie, ON P6A 1Z1, Canada",
    "avatar": true,
    "banner": true,
    "city": "Sault Ste. Marie",
    "description": "a small brewery with a big voice",
    "lat": 46.51294739999999,
    "lng": -84.33445429999999,
    "name": "Outspoken Brewing",
    "postal": "P6A 1Z1",
    "rating": 4.8,
    "ratings": 61,
    "status": "OPERATIONAL",
    "tel": "(705) 206-2858",
    "twitter": "OutSpokenBrew",
    "website": "http://www.outspokenbrewing.com/"
  },
  {
    "address": "2477 Kaladar Ave, Ottawa, ON K1V 8B9, Canada",
    "avatar": true,
    "banner": true,
    "city": "Ottawa",
    "description": "Brewery | Tap Room | Live Music venue in Ottawa. Putting fresh, great-tasting beer in your hand. #GoWithTheFlow",
    "lat": 45.3759432,
    "lng": -75.6692856,
    "name": "Overflow Brewing Company",
    "postal": "K1V 8B9",
    "rating": 4.6,
    "ratings": 129,
    "status": "OPERATIONAL",
    "tel": "(613) 695-2337",
    "twitter": "overflowbrewing",
    "website": "http://overflowbeer.com/"
  },
  {
    "address": "876 County Rd 49, Picton, ON K0K 2T0, Canada",
    "avatar": true,
    "banner": true,
    "city": "Prince Edward",
    "description": "Family owned and operated farm brewery located in idyllic Prince Edward County.              parsonsbrewing",
    "lat": 44.0350046,
    "lng": -77.1407081,
    "name": "Parsons Brewing Company",
    "postal": "K0K 2T0",
    "rating": 4.5,
    "ratings": 246,
    "status": "OPERATIONAL",
    "tel": "(613) 476-9977",
    "twitter": "ParsonsBrewing",
    "website": "http://www.parsonsbrewing.com/"
  },
  {
    "address": "90 Cawthra Ave Unit #101, Toronto, ON M6N 3C2, Canada",
    "avatar": false,
    "banner": false,
    "city": "Toronto",
    "lat": 43.6707166,
    "lng": -79.4646226,
    "name": "People's Pint Brewing Company",
    "postal": "M6N 3C2",
    "rating": 4.8,
    "ratings": 136,
    "status": "OPERATIONAL",
    "tel": "(647) 350-9150",
    "website": "http://peoplespint.com/"
  },
  {
    "address": "1455 Lakeshore Rd, Burlington, ON L7S 2J1, Canada",
    "avatar": false,
    "banner": false,
    "city": "Burlington",
    "lat": 43.324239,
    "lng": -79.796821,
    "name": "Pepperwood Bistro Brewery & Catering",
    "postal": "L7S 2J1",
    "rating": 3.9,
    "ratings": 557,
    "status": "OPERATIONAL",
    "tel": "(905) 333-6999",
    "website": "http://www.pepperwood.on.ca/"
  },
  {
    "address": "121 Dufferin St, Perth, ON K7H 3A5, Canada",
    "avatar": true,
    "banner": false,
    "city": "Perth",
    "description": "",
    "lat": 44.9067731,
    "lng": -76.2701819,
    "name": "Perth Brewery",
    "postal": "K7H 3A5",
    "rating": 4.8,
    "ratings": 141,
    "status": "OPERATIONAL",
    "tel": "(613) 264-1087",
    "twitter": "PerthBrewery",
    "website": "http://www.perthbrewery.ca/"
  },
  {
    "address": "8 Cambridge St N, Lindsay, ON K9V 4C3, Canada",
    "avatar": false,
    "banner": false,
    "city": "Kawartha Lakes",
    "lat": 44.35516399999999,
    "lng": -78.7393122,
    "name": "Pie Eyed Monk Brewery",
    "postal": "K9V 4C3",
    "rating": 4.1,
    "ratings": 324,
    "status": "OPERATIONAL",
    "tel": "(705) 212-2200",
    "website": "https://www.pieeyedmonkbrewery.com/"
  },
  {
    "address": "100 Kellogg Ln, London, ON N5W 2T5, Canada",
    "avatar": true,
    "banner": true,
    "city": "London",
    "description": "",
    "lat": 42.9930358,
    "lng": -81.2134518,
    "name": "Powerhouse Brewing Company",
    "postal": "N5W 2T5",
    "rating": 4.5,
    "ratings": 70,
    "status": "OPERATIONAL",
    "tel": "(226) 667-4536",
    "twitter": "PowerhouseBeer",
    "website": null
  },
  {
    "address": "13 Macsteven Dr, Picton, ON K0K 2T0, Canada",
    "avatar": true,
    "banner": true,
    "city": "Prince Edward",
    "description": "",
    "lat": 44.0154799,
    "lng": -77.1459548,
    "name": "Prince Eddy's Brewing Co.",
    "postal": "K0K 2T0",
    "rating": 4.7,
    "ratings": 110,
    "status": "OPERATIONAL",
    "tel": "(613) 476-2253",
    "twitter": "PrinceEddys",
    "website": "http://www.princeeddys.store/"
  },
  {
    "address": "300 Charlotte St, Peterborough, ON K9J 2V5, Canada",
    "avatar": true,
    "banner": true,
    "city": "Peterborough",
    "description": "Publican House Brewery is a Craft Brewery, located in downtown Peterborough Ontario.",
    "lat": 44.3032696,
    "lng": -78.3261868,
    "name": "Publican House Brewery",
    "postal": "K9J 2V5",
    "rating": 4.4,
    "ratings": 125,
    "status": "OPERATIONAL",
    "tel": "(705) 874-5743",
    "twitter": "PublicanHouse",
    "website": "http://www.publicanhouse.com/"
  },
  {
    "address": "1177 Queen St E, Toronto, ON M4M 1L5, Canada",
    "avatar": true,
    "banner": true,
    "city": "Toronto",
    "description": "Brewery, Bottle Shop & Tap Room in Leslieville.",
    "lat": 43.662644,
    "lng": -79.332415,
    "name": "Radical Road Brewing Co.",
    "postal": "M4M 1L5",
    "rating": 4.6,
    "ratings": 317,
    "status": "OPERATIONAL",
    "tel": "(647) 794-7909",
    "twitter": "RadicalRoadBrew",
    "website": "http://www.radicalroadbrew.com/"
  },
  {
    "address": "130 Edward St, St Thomas, ON N5P 1Z1, Canada",
    "avatar": true,
    "banner": true,
    "city": "St. Thomas",
    "description": "Railway City Brewing is an Ontario Craft brewery, located in historic St. Thomas. In operation for 10 years, brewing award winning beer!",
    "lat": 42.78628399999999,
    "lng": -81.16955,
    "name": "Railway City Brewing Co",
    "postal": "N5P 1Z1",
    "rating": 4.5,
    "ratings": 187,
    "status": "OPERATIONAL",
    "tel": "(519) 631-1881",
    "twitter": "RailwayCity",
    "website": "http://www.railwaycitybrewing.com/"
  },
  {
    "address": "100 Symes Rd, York, ON M6N 3T1, Canada",
    "avatar": true,
    "banner": true,
    "city": "Toronto",
    "description": "Award-winning brewery in the Stockyards. Monday-Wednesday 12-5, Thursday-Saturday 12-6 or shop online 24/7",
    "lat": 43.6728361,
    "lng": -79.4787,
    "name": "Rainhard Brewing Co.",
    "postal": "M6N 3T1",
    "rating": 4.6,
    "ratings": 147,
    "status": "OPERATIONAL",
    "tel": "(416) 763-2337",
    "twitter": "RainhardBrewing",
    "website": "https://rainhardbrewing.com/"
  },
  {
    "address": "2970 Swimming Pool Rd, La Salette, ON N0E 1H0, Canada",
    "avatar": true,
    "banner": true,
    "city": "La Salette",
    "description": "Farm fresh premium crafted beer located in Norfolk County from Ontario's Original Brewery Farm #NorfolksBestBrew",
    "lat": 42.8847974,
    "lng": -80.5051715,
    "name": "Ramblin' Road Brewery Farm",
    "postal": "N0E 1H0",
    "rating": 4.5,
    "ratings": 93,
    "status": "OPERATIONAL",
    "tel": "(519) 582-1444",
    "twitter": "RamblinRoadBeer",
    "website": "http://www.ramblinroad.ca/index.php"
  },
  {
    "address": "137 Glasgow St suite 385, Kitchener, ON N2G 4X8, Canada",
    "avatar": true,
    "banner": true,
    "city": "Kitchener",
    "description": "‚≠ï Work Your Heart Out\nüç∫ First of its kind microbrewery in Canada.\n‚òï @redcirclecoffee\nüçï @graffiti_market",
    "lat": 43.45261,
    "lng": -80.514305,
    "name": "Red Circle Brewing Co.",
    "postal": "N2G 4X8",
    "rating": 4.3,
    "ratings": 57,
    "status": "OPERATIONAL",
    "tel": "(519) 514-1820",
    "twitter": "redcirclebrew",
    "website": "http://www.redcirclebrewing.ca/"
  },
  {
    "address": "431 Bayview Dr 8 & 9, Barrie, ON L4N 8Y2, Canada",
    "avatar": true,
    "banner": true,
    "city": "Barrie",
    "description": "Family Owned & Operated Brewery and Taproom in Barrie, Ontario. Brewing tasty American & Belgian ales for your pleasure üç∫",
    "lat": 44.344579,
    "lng": -79.67718699999999,
    "name": "Redline Brewhouse",
    "postal": "L4N 8Y2",
    "rating": 4.4,
    "ratings": 234,
    "status": "OPERATIONAL",
    "tel": "(705) 881-9988",
    "twitter": "RLBrewhouse",
    "website": "http://redlinebrewhouse.com/"
  },
  {
    "address": "1326 London Rd, Sarnia, ON N7S 1P7, Canada",
    "avatar": true,
    "banner": true,
    "city": "Sarnia",
    "description": "A real life microbrewery. || Our second location on London Rd is now open and ready to party.",
    "lat": 42.9803995,
    "lng": -82.356867,
    "name": "Refined Fool Brewing Company",
    "postal": "N7S 1P7",
    "rating": 4.7,
    "ratings": 167,
    "status": "OPERATIONAL",
    "tel": "(519) 704-1665",
    "twitter": "refinedfool",
    "website": "https://www.refinedfool.com/"
  },
  {
    "address": "1326 London Rd, Sarnia, ON N7S 1P7, Canada",
    "avatar": true,
    "banner": true,
    "city": "Sarnia",
    "description": "A real life microbrewery. || Our second location on London Rd is now open and ready to party.",
    "lat": 42.9803995,
    "lng": -82.356867,
    "name": "Refined Fool Brewing Company",
    "postal": "N7S 1P7",
    "rating": 4.7,
    "ratings": 167,
    "status": "OPERATIONAL",
    "tel": "(519) 704-1665",
    "twitter": "refinedfool",
    "website": "https://www.refinedfool.com/"
  },
  {
    "address": "1000 Bishop St N Unit 10, Cambridge, ON N3H 4V7, Canada",
    "avatar": false,
    "banner": false,
    "city": "Cambridge",
    "lat": 43.3936767,
    "lng": -80.3310474,
    "name": "Rhythm And Brews Brewing Company",
    "postal": "N3H 4V7",
    "rating": 4.7,
    "ratings": 115,
    "status": "OPERATIONAL",
    "tel": "(519) 766-1672",
    "website": "http://www.rhythmandbrews.ca/"
  },
  {
    "address": "421 Donald B. Munro Dr, Carp, ON K0A 1L0, Canada",
    "avatar": true,
    "banner": true,
    "city": "Ottawa",
    "description": "Carp Ontario Brewery & Pub - Serving the Ottawa and Ottawa Valley Areas",
    "lat": 45.3442864,
    "lng": -76.03524209999999,
    "name": "Ridge Rock Brewing Company",
    "postal": "K0A 1L0",
    "rating": 4.5,
    "ratings": 189,
    "status": "OPERATIONAL",
    "tel": "(613) 470-2337",
    "twitter": "RidgeRockBrewCo",
    "website": "http://www.ridgerockbrewco.ca/"
  },
  {
    "address": "35449 Bayfield River Rd, Bayfield, ON N0M 1G0, Canada",
    "avatar": true,
    "banner": false,
    "city": null,
    "description": "",
    "lat": 43.57685800000001,
    "lng": -81.68069299999999,
    "name": "River Road Brewing and Hops",
    "postal": "N0M 1G0",
    "rating": 4.9,
    "ratings": 25,
    "status": "OPERATIONAL",
    "tel": "(226) 441-2284",
    "twitter": "river_road_brew",
    "website": "http://www.riverroadbrewing.com/"
  },
  {
    "address": "1001 Eastern Ave, Toronto, ON M4L 1A8, Canada",
    "avatar": true,
    "banner": true,
    "city": "Toronto",
    "description": "",
    "lat": 43.663545,
    "lng": -79.31993,
    "name": "Rorschach Brewing Co.",
    "postal": "M4L 1A8",
    "rating": 4.6,
    "ratings": 326,
    "status": "OPERATIONAL",
    "tel": "(416) 901-3233",
    "twitter": "RorschachBeer",
    "website": "http://www.rorschachbrewing.com/"
  },
  {
    "address": "50 Bullock Dr #8, Markham, ON L3P 3P2, Canada",
    "avatar": true,
    "banner": true,
    "city": "Markham",
    "description": "",
    "lat": 43.878886,
    "lng": -79.2661,
    "name": "Rouge River Brewing Company",
    "postal": "L3P 3P2",
    "rating": 4.7,
    "ratings": 135,
    "status": "OPERATIONAL",
    "tel": "(905) 209-1236",
    "twitter": "RougeBrew",
    "website": "https://www.rougeriverbrewingcompany.com/"
  },
  {
    "address": "199 Victoria Rd S, Guelph, ON N1E 3J3, Canada",
    "avatar": false,
    "banner": false,
    "city": "Guelph",
    "lat": 43.5523202,
    "lng": -80.2250919,
    "name": "Royal City Brewing Company",
    "postal": "N1E 3J3",
    "rating": 4.8,
    "ratings": 168,
    "status": "OPERATIONAL",
    "tel": "(888) 485-2739",
    "website": "http://www.royalcitybrew.ca/"
  },
  {
    "address": "412 Cumberland St, Cornwall, ON K6J 5C4, Canada",
    "avatar": true,
    "banner": true,
    "city": "Cornwall",
    "description": "An indie brewery making unpasteurized, unfiltered beer in Cornwall ON. Retail Mon-Sat 12-5.",
    "lat": 45.0194444,
    "lng": -74.7394444,
    "name": "Rurban Brewing",
    "postal": "K6J 5C4",
    "rating": 4.8,
    "ratings": 48,
    "status": "OPERATIONAL",
    "tel": "(613) 360-0661",
    "twitter": "RurbanBrewing",
    "website": "http://rurbanbrewing.ca/"
  },
  {
    "address": "9 Front St W, Strathroy, ON N7G 1X5, Canada",
    "avatar": false,
    "banner": false,
    "city": "Strathroy",
    "lat": 42.9586204,
    "lng": -81.6248377,
    "name": "Rusty Wrench Brewing Company Inc.",
    "postal": "N7G 1X5",
    "rating": 4.8,
    "ratings": 66,
    "status": "OPERATIONAL",
    "tel": "(226) 448-9081",
    "website": "http://www.rustywrench.ca/"
  },
  {
    "address": "3232 Sandwich St, Windsor, ON N9C 1A8, Canada",
    "avatar": true,
    "banner": true,
    "city": "Windsor",
    "description": "Our love of old buildings is eclipsed only by our love of exceptional beer. Putting it all on the line to create something special at the confluence of the two.",
    "lat": 42.3014258,
    "lng": -83.0761453,
    "name": "Sandwich Brewing Company",
    "postal": "N9C 1A8",
    "rating": 4.7,
    "ratings": 125,
    "status": "OPERATIONAL",
    "tel": "(519) 800-2019",
    "twitter": "SandwichBrewing",
    "website": "https://www.facebook.com/sandwichbrewing/"
  },
  {
    "address": "31 Saulter St #1, Toronto, ON M4M 2H8, Canada",
    "avatar": true,
    "banner": true,
    "city": "Toronto",
    "description": "",
    "lat": 43.6584064,
    "lng": -79.3463989,
    "name": "Saulter Street Brewery",
    "postal": "M4M 2H8",
    "rating": 4.6,
    "ratings": 199,
    "status": "OPERATIONAL",
    "tel": "(416) 463-9379",
    "twitter": "SaulterStBrew",
    "website": "https://saulterstreetbrewery.ca/"
  },
  {
    "address": "397 Muskoka Rd N, Gravenhurst, ON P1P 1G3, Canada",
    "avatar": false,
    "banner": false,
    "city": "Gravenhurst",
    "lat": 44.92194440000001,
    "lng": -79.37527779999999,
    "name": "Sawdust City Brewing Co.",
    "postal": "P1P 1G3",
    "rating": 4.8,
    "ratings": 332,
    "status": "OPERATIONAL",
    "tel": "(705) 681-1100",
    "website": "http://www.sawdustcitybrewing.com/"
  },
  {
    "address": "100 Symes Rd #101, Toronto, ON M6N 0A8, Canada",
    "avatar": true,
    "banner": false,
    "city": "Toronto",
    "description": "Our bottle shop and tasting room are currently closed. Please check out our online store at https://t.co/LZVhlxuIib for availability and delivery.",
    "lat": 43.672387,
    "lng": -79.478459,
    "name": "Shacklands Brewing",
    "postal": "M6N 0A8",
    "rating": 4.8,
    "ratings": 124,
    "status": "OPERATIONAL",
    "tel": "(416) 763-2424",
    "twitter": "Shacklands",
    "website": "http://shacklands.com/"
  },
  {
    "address": "2178 Line 34, Shakespeare, ON N0B 2P0, Canada",
    "avatar": true,
    "banner": true,
    "city": "Shakespeare",
    "description": "Brewery in Shakespeare, Ontario",
    "lat": 43.3696441,
    "lng": -80.83435999999999,
    "name": "Shakespeare Brewing Company",
    "postal": "N0B 2P0",
    "rating": 4.8,
    "ratings": 88,
    "status": "OPERATIONAL",
    "tel": "(519) 777-5469",
    "twitter": "ShakespeareBeer",
    "website": "http://shakespearebrewingcompany.ca/"
  },
  {
    "address": "65 Hatt St, Dundas, ON L9H 0C1, Canada",
    "avatar": true,
    "banner": true,
    "city": "Hamilton",
    "description": "What's more Canadian than opening a brewery in a skating rink? #ForgedInDundas #ForAdventurousMouths",
    "lat": 43.2656704,
    "lng": -79.9576649,
    "name": "Shawn & Ed Brewing Co.",
    "postal": "L9H 0C1",
    "rating": 4.6,
    "ratings": 233,
    "status": "OPERATIONAL",
    "tel": "(289) 238-9979",
    "twitter": "lagershed",
    "website": "http://lagershed.com/"
  },
  {
    "address": "20 Hurst Ave, Kitchener, ON N2G 2Z7, Canada",
    "avatar": true,
    "banner": true,
    "city": "Kitchener",
    "description": "SFBC is a small, independently owned homebrew shop and mixed fermentation brewery in Kitchener, ON. \nLife is short. Drink good beer.",
    "lat": 43.440845,
    "lng": -80.480261,
    "name": "Short Finger Brewing Co.",
    "postal": "N2G 2Z7",
    "rating": 4.9,
    "ratings": 268,
    "status": "OPERATIONAL",
    "tel": "(226) 647-7322",
    "twitter": "shortfingerbeer",
    "website": "https://shortfingerbrewing.com/"
  },
  {
    "address": "200 Mountain Rd Unit 1, Collingwood, ON L9Y 4V5, Canada",
    "avatar": true,
    "banner": true,
    "city": "Collingwood",
    "description": "Visit our brewery, retail store and tasting bar located at 200 Mountain Road.",
    "lat": 44.4986111,
    "lng": -80.2477778,
    "name": "Side Launch Brewing Company Inc.",
    "postal": "L9Y 4V5",
    "rating": 4.4,
    "ratings": 160,
    "status": "OPERATIONAL",
    "tel": "(705) 293-5511",
    "twitter": "sidelaunch",
    "website": null
  },
  {
    "address": "86 River Rd, Corbyville, ON K0K 1V0, Canada",
    "avatar": true,
    "banner": false,
    "city": "Belleville",
    "description": "",
    "lat": 44.21931360000001,
    "lng": -77.3878239,
    "name": "Signal Brewery",
    "postal": "K0K 1V0",
    "rating": 4.5,
    "ratings": 277,
    "status": "OPERATIONAL",
    "tel": "(613) 779-8633",
    "twitter": "Signalbeers",
    "website": "http://signal.beer/"
  },
  {
    "address": "1523 Niagara Stone Rd, Niagara-on-the-Lake, ON L0S 1T0, Canada",
    "avatar": true,
    "banner": true,
    "city": "Niagara-on-the-Lake",
    "description": "Home of the multi-award-winning Black Lager brewed in Ontario's original destination brewery - A place where you can EXPECT THE UNEXPECTED. #THEBLACKLAGER",
    "lat": 43.2222566,
    "lng": -79.1213944,
    "name": "Silversmith Brewing Company",
    "postal": "L0S 1T0",
    "rating": 4.7,
    "ratings": 399,
    "status": "OPERATIONAL",
    "tel": "(905) 468-8447",
    "twitter": "SilversmithBrew",
    "website": "http://www.silversmithbrewing.com/"
  },
  {
    "address": "712 Macdonell St, Thunder Bay, ON P7B 4A6, Canada",
    "avatar": false,
    "banner": false,
    "city": "Thunder Bay",
    "lat": 48.416887,
    "lng": -89.243392,
    "name": "Sleeping Giant Brewing Co",
    "postal": "P7B 4A6",
    "rating": 4.8,
    "ratings": 190,
    "status": "OPERATIONAL",
    "tel": "(807) 344-5225",
    "website": "http://www.sleepinggiantbrewing.ca/"
  },
  {
    "address": "101 Schneider Rd, Kanata, ON K2K 1Y3, Canada",
    "avatar": true,
    "banner": true,
    "city": "Ottawa",
    "description": "An all barrel-aged sour beer company based in Ottawa, Canada. Visit our website to order bottles by mail!",
    "lat": 45.3395003,
    "lng": -75.9021676,
    "name": "Small Pony Barrel Works",
    "postal": "K2K 1Y3",
    "rating": 4.9,
    "ratings": 97,
    "status": "OPERATIONAL",
    "tel": "(613) 518-7283",
    "twitter": "smallponybeer",
    "website": "http://www.smallponybarrelworks.com/"
  },
  {
    "address": "687 Rye St #6, Peterborough, ON K9J 6X1, Canada",
    "avatar": true,
    "banner": true,
    "city": "Peterborough",
    "description": "Smithavens Brewing Co. is a family owned and operated craft microbrewery in Peterborough, ON. \nNaturally brewed since always!",
    "lat": 44.2779497,
    "lng": -78.34907919999999,
    "name": "Smithavens Brewing Company",
    "postal": "K9J 6X1",
    "rating": 4.7,
    "ratings": 48,
    "status": "OPERATIONAL",
    "tel": "(705) 743-4747",
    "twitter": "SmithavensBrew",
    "website": "http://smithavensbrewing.ca/"
  },
  {
    "address": "27 Adelaide St S, Chatham, ON N7M 4P9, Canada",
    "avatar": false,
    "banner": false,
    "city": "Chatham-Kent",
    "lat": 42.405583,
    "lng": -82.179402,
    "name": "Sons of Kent Brewing Company",
    "postal": "N7M 4P9",
    "rating": 4.7,
    "ratings": 188,
    "status": "OPERATIONAL",
    "tel": "(519) 354-2337",
    "website": "https://sonsofkent.com/"
  },
  {
    "address": "20737 Heart Lake Rd, Caledon Village, ON L7K 2A9, Canada",
    "avatar": false,
    "banner": false,
    "city": "Caledon",
    "lat": 43.925932,
    "lng": -80.03687149999999,
    "name": "Sonnen Hill Brewing",
    "postal": "L7K 2A9",
    "rating": null,
    "ratings": null,
    "status": "OPERATIONAL",
    "tel": null,
    "website": "http://www.sonnenhill.com/"
  },
  {
    "address": "854 Notre Dame Ave, Sudbury, ON P3A 2T4, Canada",
    "avatar": false,
    "banner": false,
    "city": "Greater Sudbury",
    "lat": 46.51188699999999,
    "lng": -80.9849438,
    "name": "Spacecraft Brewery",
    "postal": "P3A 2T4",
    "rating": 4.6,
    "ratings": 98,
    "status": "OPERATIONAL",
    "tel": "(705) 419-2337",
    "website": "https://facebook.com/spcrft/"
  },
  {
    "address": "675 Development Dr, Kingston, ON K7M 4W6, Canada",
    "avatar": true,
    "banner": true,
    "city": "Kingston",
    "description": "Beer Without Boundaries, Proudly #KingstonCrafted",
    "lat": 44.2411997,
    "lng": -76.5696841,
    "name": "Spearhead Brewing Company",
    "postal": "K7M 4W6",
    "rating": 4.8,
    "ratings": 120,
    "status": "OPERATIONAL",
    "tel": "(866) 571-5839",
    "twitter": "SpearheadBeer",
    "website": "https://spearheadbeer.com/"
  },
  {
    "address": "31 Water St, Gore Bay, ON P0P 1H0, Canada",
    "avatar": true,
    "banner": true,
    "city": "Gore Bay",
    "description": "Split Rail Brewing & Beverage Company produces world-class artisan beer on Manitoulin Island, the largest freshwater island in the world.",
    "lat": 45.9226544,
    "lng": -82.46157029999999,
    "name": "Split Rail Brewing Co.",
    "postal": "P0P 1H0",
    "rating": 4.8,
    "ratings": 82,
    "status": "OPERATIONAL",
    "tel": "(705) 370-8284",
    "twitter": "SplitRailBrew",
    "website": "https://splitrailmanitoulin.com/"
  },
  {
    "address": "430 Parsons Ct, Goderich, ON N7A 4K3, Canada",
    "avatar": true,
    "banner": false,
    "city": "Goderich",
    "description": "OPEN NOW in Goderich Ontario https://t.co/NqD56PxCCD",
    "lat": 43.7283506,
    "lng": -81.6944917,
    "name": "Square Brew",
    "postal": "N7A 4K3",
    "rating": 4.8,
    "ratings": 68,
    "status": "OPERATIONAL",
    "tel": "(519) 612-2739",
    "twitter": "SquareBrewCo",
    "website": "http://www.squarebrewco.com/"
  },
  {
    "address": "800 Woito Station Rd, Pembroke, ON K8A 6W5, Canada",
    "avatar": false,
    "banner": false,
    "city": "Pembroke",
    "lat": 45.7060912,
    "lng": -77.14153499999999,
    "name": "Square Timber Brewing Company",
    "postal": "K8A 6W5",
    "rating": 4.8,
    "ratings": 13,
    "status": "OPERATIONAL",
    "tel": "(613) 312-9474",
    "website": "http://www.squaretimber.com/"
  },
  {
    "address": "1350 Kelly Lake Rd, Sudbury, ON P3E 5P4, Canada",
    "avatar": true,
    "banner": false,
    "city": "Greater Sudbury",
    "description": "Bringing Beer Back to Sudbury",
    "lat": 46.4654552,
    "lng": -81.0295691,
    "name": "Stack Brewing",
    "postal": "P3E 5P4",
    "rating": 4.8,
    "ratings": 80,
    "status": "OPERATIONAL",
    "tel": "(705) 586-7822",
    "twitter": "StackBrewing",
    "website": "http://www.stackbrewing.ca/"
  },
  {
    "address": "10 High St, Carleton Place, ON K7C 4S2, Canada",
    "avatar": true,
    "banner": true,
    "city": "Carleton Place",
    "description": "",
    "lat": 45.141321,
    "lng": -76.14861979999999,
    "name": "Stalwart Brewing Company",
    "postal": "K7C 4S2",
    "rating": 4.8,
    "ratings": 69,
    "status": "OPERATIONAL",
    "tel": "(613) 253-2307",
    "twitter": "StalwartBrewing",
    "website": "http://stalwartbrewing.ca/"
  },
  {
    "address": "255 Bremner Blvd, Toronto, ON M5V 3M9, Canada",
    "avatar": true,
    "banner": true,
    "city": "Toronto",
    "description": "Steam Whistle - all natural, craft brewed, Canada's Premium Pilsner.    \n\n#PurePilsner",
    "lat": 43.64088479999999,
    "lng": -79.38555980000001,
    "name": "Steam Whistle Brewing",
    "postal": "M5V 3M9",
    "rating": 4.7,
    "ratings": 1749,
    "status": "OPERATIONAL",
    "tel": "(647) 697-0859",
    "twitter": "SteamWhistle",
    "website": "http://swbiergarten.ca/"
  },
  {
    "address": "105 Powerline Rd, Brantford, ON N3T 5L8, Canada",
    "avatar": false,
    "banner": false,
    "city": "Brantford",
    "lat": 43.1975756,
    "lng": -80.2107328,
    "name": "Steel Wheel Brewery",
    "postal": "N3T 5L8",
    "rating": 4.9,
    "ratings": 106,
    "status": "OPERATIONAL",
    "tel": null,
    "website": "http://steelwheel.ca/"
  },
  {
    "address": "275 Princess St, Kingston, ON K7L 1B5, Canada",
    "avatar": true,
    "banner": true,
    "city": "Kingston",
    "description": "Brewers + Bottlers + Deliverers  ~ Tap room & Retail Store closed for social distancing ~ Free local delivery ~ see our online store",
    "lat": 44.2325697,
    "lng": -76.4881253,
    "name": "Stone City Ales",
    "postal": "K7L 1B5",
    "rating": 4.5,
    "ratings": 233,
    "status": "OPERATIONAL",
    "tel": "(613) 542-4222",
    "twitter": "StoneCityAles",
    "website": "http://stonecityales.com/"
  },
  {
    "address": "76050 Parr Line, Varna, ON N0M 2R0, Canada",
    "avatar": false,
    "banner": false,
    "city": "Bluewater",
    "lat": 43.54095239999999,
    "lng": -81.5910091,
    "name": "Stone House Brewing Company",
    "postal": "N0M 2R0",
    "rating": 4.8,
    "ratings": 36,
    "status": "OPERATIONAL",
    "tel": "(519) 281-1167",
    "website": "http://www.stonehousebrewing.ca/"
  },
  {
    "address": "866 Lakeshore Rd E, Mississauga, ON L5E 1E1, Canada",
    "avatar": true,
    "banner": true,
    "city": "Mississauga",
    "description": "New craft brewery. Taproom and bottleshop now open. check website for hours. Lakeshore Rd between Cawthra and Dixie in Lakeview, Mississauga",
    "lat": 43.573061,
    "lng": -79.56200799999999,
    "name": "Stonehooker Brewing Co.",
    "postal": "L5E 1E1",
    "rating": 4.7,
    "ratings": 68,
    "status": "OPERATIONAL",
    "tel": "(289) 847-5000",
    "twitter": "StonehookerBeer",
    "website": "https://stonehooker.com/"
  },
  {
    "address": "7143 Forest Rd, Plympton-Wyoming, ON N0N 1J4, Canada",
    "avatar": false,
    "banner": false,
    "city": "Plympton-Wyoming",
    "lat": 43.0609528,
    "lng": -82.0062071,
    "name": "Stonepicker Brewing Company",
    "postal": "N0N 1J4",
    "rating": 4.8,
    "ratings": 129,
    "status": "OPERATIONAL",
    "tel": null,
    "website": "http://www.stonepickerbrewing.com/"
  },
  {
    "address": "169 Wharncliffe Rd S, London, ON N6J 2K7, Canada",
    "avatar": true,
    "banner": true,
    "city": "London",
    "description": "Craft brewery and taproom in Old South. Prepare yourself, a storm is brewing.",
    "lat": 42.9719444,
    "lng": -81.2625,
    "name": "Storm Stayed Brewing Company",
    "postal": "N6J 2K7",
    "rating": 4.7,
    "ratings": 218,
    "status": "OPERATIONAL",
    "tel": "(519) 601-7829",
    "twitter": "stormstayedbeer",
    "website": "https://www.stormstayed.com/"
  },
  {
    "address": "371 Chase Rd, Hillier, ON K0K 2J0, Canada",
    "avatar": false,
    "banner": false,
    "city": "Prince Edward",
    "lat": 43.9853403,
    "lng": -77.3853886,
    "name": "Strange Brewing Co.",
    "postal": "K0K 2J0",
    "rating": 5,
    "ratings": 50,
    "status": "OPERATIONAL",
    "tel": "(613) 885-3135",
    "website": null
  },
  {
    "address": "501 Lacolle Way Unit 4, Orl√©ans, ON K4A 5B6, Canada",
    "avatar": true,
    "banner": true,
    "city": "Ottawa",
    "description": "Named one of Canada's top 5 new breweries. Orl√©ans' first micro. Live your dreams. Stray from the norm. 501 Lacolle Way",
    "lat": 45.4912009,
    "lng": -75.4824556,
    "name": "Stray Dog Brewing Company",
    "postal": "K4A 5B6",
    "rating": 4.9,
    "ratings": 178,
    "status": "OPERATIONAL",
    "tel": "(613) 830-7364",
    "twitter": "StrayDogBeer",
    "website": "http://www.straydogbrewing.ca/"
  },
  {
    "address": "62 Albert St, Strathroy, ON N7G 1V5, Canada",
    "avatar": true,
    "banner": true,
    "city": "Strathroy",
    "description": "Brewers of #glutenfree and #craftbeer for #celiac and aficionado alike. #nonGMO #bottleconditioned",
    "lat": 42.955318,
    "lng": -81.62346699999999,
    "name": "Strathroy Brewing Company",
    "postal": "N7G 1V5",
    "rating": 4.3,
    "ratings": 6,
    "status": "OPERATIONAL",
    "tel": "(226) 238-1815",
    "twitter": "StrathroyBrewCo",
    "website": "http://strathroybrewingcompany.ca/"
  },
  {
    "address": "6863 Lundy's Ln, Niagara Falls, ON L2G 1V7, Canada",
    "avatar": true,
    "banner": true,
    "city": "Niagara Falls",
    "description": "Farm to Table/Brewery Restaurant located in Grimsby, Ontario",
    "lat": 43.0896335,
    "lng": -79.1098653,
    "name": "Syndicate Restaurant & Brewery",
    "postal": "L2G 1V7",
    "rating": 4.2,
    "ratings": 333,
    "status": "CLOSED_PERMANENTLY",
    "tel": "(289) 477-1022",
    "twitter": "SyndicateGrims",
    "website": null
  },
  {
    "address": "4680 Queen St, Niagara Falls, ON L2E 2L8, Canada",
    "avatar": false,
    "banner": false,
    "city": "Niagara Falls",
    "lat": 43.10630339999999,
    "lng": -79.07095629999999,
    "name": "Taps On Queen Brewhouse & Grill",
    "postal": "L2E 2L8",
    "rating": 4.4,
    "ratings": 910,
    "status": "OPERATIONAL",
    "tel": "(289) 477-1010",
    "website": "http://tapsbeer.ca/"
  },
  {
    "address": "10 Sandford Fleming Dr, Collingwood, ON L9Y 4V7, Canada",
    "avatar": true,
    "banner": true,
    "city": "Collingwood",
    "description": "Kick Back & Relax.",
    "lat": 44.49128090000001,
    "lng": -80.1821922,
    "name": "Collingwood Brewery",
    "postal": "L9Y 4V7",
    "rating": 4.6,
    "ratings": 76,
    "status": "OPERATIONAL",
    "tel": "(705) 444-2337",
    "twitter": "CollingwoodBeer",
    "website": "http://www.thecollingwoodbrewery.com/"
  },
  {
    "address": "7 Queen St, Niagara-on-the-Lake, ON L0S 1J0, Canada",
    "avatar": true,
    "banner": false,
    "city": "Niagara-on-the-Lake",
    "description": "Part of the Titanic Brewery Family. serving Traditional ales and cider, CAMRA Heart of Staffordshire pub of the year 2013, snacks everyday & full menu Fri & Sat",
    "lat": 43.2550476,
    "lng": -79.07102660000001,
    "name": "The Exchange Brewery",
    "postal": "L0S 1J0",
    "rating": 4.5,
    "ratings": 217,
    "status": "OPERATIONAL",
    "tel": "(905) 468-9888",
    "twitter": "TRoyalexchange",
    "website": "http://exchangebrewery.com/"
  },
  {
    "address": "450 Milligan Ln, Napanee, ON K7R 3K8, Canada",
    "avatar": true,
    "banner": true,
    "city": "Napanee",
    "description": "Ontario's New Brewery of the Year 2017. Get BLACKLIST Black German Lager at an LCBO or Loblaw's-owned grocer near you!",
    "lat": 44.26117139999999,
    "lng": -76.95544579999999,
    "name": "The Napanee Beer Company",
    "postal": "K7R 3K8",
    "rating": 4.9,
    "ratings": 47,
    "status": "OPERATIONAL",
    "tel": "(613) 409-2337",
    "twitter": "napaneebeer",
    "website": "http://www.napaneebeer.ca/"
  },
  {
    "address": "380 George St N, Peterborough, ON K9H 3R3, Canada",
    "avatar": false,
    "banner": false,
    "city": "Peterborough",
    "lat": 44.3052747,
    "lng": -78.31983799999999,
    "name": "Olde Stone Brewing Company",
    "postal": "K9H 3R3",
    "rating": 4.4,
    "ratings": 177,
    "status": "OPERATIONAL",
    "tel": "(705) 745-0495",
    "website": "http://www.oldestone.ca/"
  },
  {
    "address": "12 Main St E, Kingsville, ON N9Y 1A2, Canada",
    "avatar": true,
    "banner": true,
    "city": "Kingsville",
    "description": "Passion for the craft. DRINK LOCAL. @grovebrew",
    "lat": 42.038019,
    "lng": -82.73917139999999,
    "name": "The Grove Brew House",
    "postal": "N9Y 1A2",
    "rating": 4.6,
    "ratings": 122,
    "status": "OPERATIONAL",
    "tel": "(519) 712-8812",
    "twitter": "grovebrew",
    "website": "https://mygrovebrewhouse.com/"
  },
  {
    "address": "14 Victoria St, Uxbridge, ON L9P 1B1, Canada",
    "avatar": false,
    "banner": false,
    "city": "Uxbridge",
    "lat": 44.1094885,
    "lng": -79.12632390000002,
    "name": "The Second Wedge Brewing Company",
    "postal": "L9P 1B1",
    "rating": 4.8,
    "ratings": 169,
    "status": "OPERATIONAL",
    "tel": "(905) 852-3232",
    "website": "http://thesecondwedge.ca/"
  },
  {
    "address": "777 Dundas St W, Toronto, ON M6J 1V2, Canada",
    "avatar": false,
    "banner": false,
    "city": "Toronto",
    "lat": 43.65194049999999,
    "lng": -79.4073171,
    "name": "The Six Brewhouse",
    "postal": "M6J 1V2",
    "rating": 4.4,
    "ratings": 154,
    "status": "OPERATIONAL",
    "tel": "(647) 350-0404",
    "website": "http://www.thesixbrewingco.com/"
  },
  {
    "address": "90 King St E, Thornbury, ON N0H 2P0, Canada",
    "avatar": true,
    "banner": true,
    "city": "The Blue Mountains",
    "description": "Thornbury Village Cider House & Brewery is proud to produce award-winning, premium quality, Ontario craft cider and beer. Our Cider House is open daily!",
    "lat": 44.5596898,
    "lng": -80.44598839999999,
    "name": "Thornbury Village Cider House",
    "postal": "N0H 2P0",
    "rating": 4.7,
    "ratings": 487,
    "status": "OPERATIONAL",
    "tel": "(519) 599-2616",
    "twitter": "ThornburyCraft",
    "website": "http://thornburycraft.com/"
  },
  {
    "address": "28 Bay St, Tobermory, ON N0H 2R0, Canada",
    "avatar": false,
    "banner": false,
    "city": "Tobermory",
    "lat": 45.2547826,
    "lng": -81.6630724,
    "name": "Tobermory Brewing Company & Grill",
    "postal": "N0H 2R0",
    "rating": 4.1,
    "ratings": 659,
    "status": "OPERATIONAL",
    "tel": "(519) 596-8181",
    "website": "http://tobermorybrewingco.ca/"
  },
  {
    "address": "585 Richmond St, London, ON N6A 3G2, Canada",
    "avatar": false,
    "banner": false,
    "city": "London",
    "lat": 42.9898526,
    "lng": -81.2511909,
    "name": "Toboggan Brewing Company",
    "postal": "N6A 3G2",
    "rating": 4.2,
    "ratings": 562,
    "status": "OPERATIONAL",
    "tel": "(519) 433-2337",
    "website": "http://www.tobogganbrewing.com/"
  },
  {
    "address": "3 Irving Ave, Ottawa, ON K1Y 1Z2, Canada",
    "avatar": false,
    "banner": false,
    "city": "Ottawa",
    "lat": 45.4054528,
    "lng": -75.7225972,
    "name": "Tooth and Nail Brewing Company",
    "postal": "K1Y 1Z2",
    "rating": 4.7,
    "ratings": 353,
    "status": "OPERATIONAL",
    "tel": "(613) 695-4677",
    "website": "http://toothandnailbeer.com/"
  },
  {
    "address": "1632 Charles St, Whitby, ON L1N 1B9, Canada",
    "avatar": true,
    "banner": true,
    "city": "Whitby",
    "description": "Making Better Beer and a Stronger Community - Whitby, ON",
    "lat": 43.8599314,
    "lng": -78.9360186,
    "name": "Town Brewery",
    "postal": "L1N 1B9",
    "rating": 4.8,
    "ratings": 197,
    "status": "OPERATIONAL",
    "tel": "(905) 666-3838",
    "twitter": "TownBreweryCa",
    "website": "http://townbrewery.ca/"
  },
  {
    "address": "60 Queen St E, Brampton, ON L6V 1A9, Canada",
    "avatar": true,
    "banner": false,
    "city": "Brampton",
    "description": "Est. 1985 Tracks Brew Pub provides scrumptious dishes and our unique Old Mill Lager which is brewed exclusively on our premisis",
    "lat": 43.6876074,
    "lng": -79.7583646,
    "name": "Tracks Brew Pub",
    "postal": "L6V 1A9",
    "rating": 4.2,
    "ratings": 387,
    "status": "CLOSED_TEMPORARILY",
    "tel": "(905) 453-3063",
    "twitter": "tracksbrewpub",
    "website": "http://www.tracksbrewpub.com/"
  },
  {
    "address": "9 Great North Rd, Parry Sound, ON P2A 2X8, Canada",
    "avatar": true,
    "banner": true,
    "city": "Parry Sound",
    "description": "Trestle Brewing Company is a small craft brewery located on the waterfront in beautiful Parry Sound.",
    "lat": 45.3425795,
    "lng": -80.0306119,
    "name": "Trestle Brewing Company",
    "postal": "P2A 2X8",
    "rating": 4.8,
    "ratings": 291,
    "status": "OPERATIONAL",
    "tel": "(705) 751-9108",
    "twitter": "trestlebrewing",
    "website": "http://www.trestlebrewing.com/"
  },
  {
    "address": "189 Bay St, Embrun, ON K0A 1W1, Canada",
    "avatar": true,
    "banner": true,
    "city": "Embrun",
    "description": "Lanc√©e en mai 2015, une brasserie artisanale familiale et locale. | Launched in May 2015, a family owned and locally made craft beer. Exit 88 off highway 417.",
    "lat": 45.269642,
    "lng": -75.304699,
    "name": "Brasserie Tuque de Broue Brewery",
    "postal": "K0A 1W1",
    "rating": 4.8,
    "ratings": 74,
    "status": "OPERATIONAL",
    "tel": "(613) 443-4497",
    "twitter": "tuquedebroue",
    "website": "http://www.tuquedebroue.ca/"
  },
  {
    "address": "300 Mill St #1, Kitchener, ON N2M 3R8, Canada",
    "avatar": true,
    "banner": true,
    "city": "Kitchener",
    "description": "Together We're Bitter -- Brewing up community, craft, & good times. But mostly beer. Buy some here: https://t.co/r7rZe0Pdqs And stay home!",
    "lat": 43.4367479,
    "lng": -80.4843135,
    "name": "TWB Brewing",
    "postal": "N2M 3R8",
    "rating": 4.8,
    "ratings": 192,
    "status": "OPERATIONAL",
    "tel": "(519) 954-4433",
    "twitter": "twbcoop",
    "website": "http://brewing.coop/"
  },
  {
    "address": "225 Bysham Park Dr #9, Woodstock, ON N4T 1P1, Canada",
    "avatar": true,
    "banner": true,
    "city": "Woodstock",
    "description": "Brewed right. Here. Woodstock and Oxford County's first craft brewer",
    "lat": 43.1393942,
    "lng": -80.72208979999999,
    "name": "Upper Thames Brewing Company",
    "postal": "N4T 1P1",
    "rating": 4.6,
    "ratings": 118,
    "status": "OPERATIONAL",
    "tel": "(519) 290-0053",
    "twitter": "upperthamesbrew",
    "website": "http://www.upperthamesbrewing.ca/"
  },
  {
    "address": "145 Loretta Ave N #1, Ottawa, ON K1Y 2J7, Canada",
    "avatar": true,
    "banner": true,
    "city": "Ottawa",
    "description": "Ottawa's largest craft beer taproom and multi-award-winning brewery. 1-145 Loretta Avenue North, Ottawa. FREE OTTAWA-AREA BEER DELIVERY NOW AVAILABLE!",
    "lat": 45.404228,
    "lng": -75.715763,
    "name": "Vimy Brewing Company",
    "postal": "K1Y 2J7",
    "rating": 4.6,
    "ratings": 115,
    "status": "OPERATIONAL",
    "tel": "(613) 800-2739",
    "twitter": "VimyBrewing",
    "website": "http://www.vimybrewing.ca/"
  },
  {
    "address": "249 Evans Ave, Etobicoke, ON M8Z 1K2, Canada",
    "avatar": false,
    "banner": false,
    "city": "Toronto",
    "lat": 43.6166185,
    "lng": -79.51928769999999,
    "name": "Von Bugle Brewing",
    "postal": "M8Z 1K2",
    "rating": 4.7,
    "ratings": 43,
    "status": "OPERATIONAL",
    "tel": "(416) 362-9961",
    "website": "https://vonbugle.ca/"
  },
  {
    "address": "525 Argyle Rd, Windsor, ON N8Y 4Z8, Canada",
    "avatar": true,
    "banner": true,
    "city": "Windsor",
    "description": "Official Twitter page of Walkerville Brewery ‚Äì your source for fresh brewed news, info and happenings from Windsor's Craft Brewery.",
    "lat": 42.3238129,
    "lng": -83.011337,
    "name": "Walkerville Brewery",
    "postal": "N8Y 4Z8",
    "rating": 4.7,
    "ratings": 178,
    "status": "OPERATIONAL",
    "tel": "(519) 254-6067",
    "twitter": "WalkervilleBrew",
    "website": "http://www.walkervillebrewery.com/"
  },
  {
    "address": "14 Waller St, Ottawa, ON K1N 9C4, Canada",
    "avatar": false,
    "banner": false,
    "city": "Ottawa",
    "lat": 45.427031,
    "lng": -75.6887344,
    "name": "Waller Street Brewing",
    "postal": "K1N 9C4",
    "rating": 4.9,
    "ratings": 140,
    "status": "OPERATIONAL",
    "tel": null,
    "website": "http://wallerst.ca/"
  },
  {
    "address": "400 Bingemans Centre Dr, Kitchener, ON N2B 3X9, Canada",
    "avatar": true,
    "banner": true,
    "city": "Kitchener",
    "description": "#PourTheBoar\nBoar to Door free beer delivery now available in Kitchener-Waterloo & surrounding areas!üêó",
    "lat": 43.47036860000001,
    "lng": -80.4513254,
    "name": "Waterloo Brewing",
    "postal": "N2B 3X9",
    "rating": 4.4,
    "ratings": 95,
    "status": "OPERATIONAL",
    "tel": "(519) 742-2732",
    "twitter": "WaterlooBrewing",
    "website": "https://waterloobrewing.com/"
  },
  {
    "address": "639 Laurel St, Cambridge, ON N3H 3Z1, Canada",
    "avatar": false,
    "banner": false,
    "city": "Cambridge",
    "lat": 43.396667,
    "lng": -80.352993,
    "name": "Wave Maker Craft Brewery & Distillery",
    "postal": "N3H 3Z1",
    "rating": 4.8,
    "ratings": 74,
    "status": "OPERATIONAL",
    "tel": "(519) 653-2332",
    "website": "http://www.wavemakerbrewery.com/"
  },
  {
    "address": "950 Woodlawn Rd W, Guelph, ON N1K 1G2, Canada",
    "avatar": true,
    "banner": true,
    "city": "Guelph",
    "description": "Canada's oldest independently owned microbrewery. Based in Guelph, Ontario, we craft our award-winning beers in small batches using the freshest ingredients.",
    "lat": 43.533262,
    "lng": -80.32050799999999,
    "name": "Wellington Brewery",
    "postal": "N1K 1G2",
    "rating": 4.8,
    "ratings": 138,
    "status": "OPERATIONAL",
    "tel": "(519) 837-2337",
    "twitter": "WellingtonBrew",
    "website": "http://www.wellingtonbrewery.ca/"
  },
  {
    "address": "41 Main St, Westport, ON K0G 1X0, Canada",
    "avatar": true,
    "banner": true,
    "city": "Westport",
    "description": "Handcrafted microbrewery in Westport, Ontario, Canada.  Established 2017.",
    "lat": 44.6782957,
    "lng": -76.3948357,
    "name": "Westport Brewing Company",
    "postal": "K0G 1X0",
    "rating": 4.6,
    "ratings": 16,
    "status": "OPERATIONAL",
    "tel": "(613) 273-2739",
    "twitter": "BrewingWestport",
    "website": "https://www.westportbrewingcompany.ca/"
  },
  {
    "address": "29 Beckwith St E, Perth, ON K7H 1B4, Canada",
    "avatar": true,
    "banner": true,
    "city": "Perth",
    "description": "A small brewery in a small community brought together by a passion for craft beer in the vibrant Town of Perth!",
    "lat": 44.9015111,
    "lng": -76.2461201,
    "name": "Weatherhead Brew Co.",
    "postal": "K7H 1B4",
    "rating": 4.6,
    "ratings": 27,
    "status": "OPERATIONAL",
    "tel": "(613) 201-2337",
    "twitter": "weatherheadbrew",
    "website": "http://www.weatherheadbrewco.com/"
  },
  {
    "address": "14 Bexley Pl, Nepean, ON K2H 8W2, Canada",
    "avatar": false,
    "banner": false,
    "city": "Ottawa",
    "lat": 45.3301514,
    "lng": -75.81954689999999,
    "name": "Whiprsnapr Brewing Co.",
    "postal": "K2H 8W2",
    "rating": 4.7,
    "ratings": 95,
    "status": "OPERATIONAL",
    "tel": "(613) 596-9882",
    "website": "http://whiprsnaprbrewingco.com/"
  },
  {
    "address": "22 Fletcher Rd, Foresters Falls, ON K0J 1V0, Canada",
    "avatar": true,
    "banner": true,
    "city": "Foresters Falls",
    "description": "Brewed by friends, for friends. #alwaystimetoplay",
    "lat": 45.725531,
    "lng": -76.77361859999999,
    "name": "Whitewater Brewing Company - Riverside",
    "postal": "K0J 1V0",
    "rating": 4.3,
    "ratings": 19,
    "status": "OPERATIONAL",
    "tel": "(613) 582-7227",
    "twitter": "WhitewaterBrew",
    "website": "http://whitewaterbeer.ca/"
  },
  {
    "address": "8395 Decker Rd, Thedford, ON N0M 2N0, Canada",
    "avatar": true,
    "banner": true,
    "city": "Lambton Shores",
    "description": "",
    "lat": 43.1583333,
    "lng": -81.8377778,
    "name": "Widder Station Golf & Country Club",
    "postal": "N0M 2N0",
    "rating": 4.5,
    "ratings": 92,
    "status": "OPERATIONAL",
    "tel": "(519) 296-4653",
    "twitter": "WidderStation",
    "website": "http://www.widderstation.com/"
  },
  {
    "address": "38 Gotha St, Trenton, ON K8V 6E1, Canada",
    "avatar": true,
    "banner": true,
    "city": "Quinte West",
    "description": "Our online store is live at:\nhttps://t.co/qi8czoZt4c",
    "lat": 44.10592219999999,
    "lng": -77.58777220000002,
    "name": "Wild Card Brewing Company",
    "postal": "K8V 6E1",
    "rating": 4.5,
    "ratings": 50,
    "status": "OPERATIONAL",
    "tel": "(613) 394-1010",
    "twitter": "wildcardbeer",
    "website": "http://wildcardbrewco.com/"
  },
  {
    "address": "485 Ferguson Ave, Haileybury, ON P0J 1K0, Canada",
    "avatar": true,
    "banner": true,
    "city": "Temiskaming Shores",
    "description": "",
    "lat": 47.4492706,
    "lng": -79.63294669999999,
    "name": "Whiskeyjack Beer Company",
    "postal": "P0J 1K0",
    "rating": 4.8,
    "ratings": 4,
    "status": "OPERATIONAL",
    "tel": "(705) 630-2210",
    "twitter": "WhiskeyjackBeer",
    "website": "https://www.whiskeyjackbeer.ca/"
  },
  {
    "address": "975 Elgin St W, Cobourg, ON K9A 5J3, Canada",
    "avatar": false,
    "banner": false,
    "city": "Cobourg",
    "lat": 43.9713891,
    "lng": -78.1942834,
    "name": "William Street Beer Co.",
    "postal": "K9A 5J3",
    "rating": 4.6,
    "ratings": 133,
    "status": "OPERATIONAL",
    "tel": "(289) 252-2225",
    "website": "http://www.williamstreetbeer.com/"
  },
  {
    "address": "5 Newport Dr, Johnstown, ON K0E 1T1, Canada",
    "avatar": true,
    "banner": true,
    "city": "Johnstown",
    "description": "",
    "lat": 44.723523,
    "lng": -75.488873,
    "name": "Windmill Brewery",
    "postal": "K0E 1T1",
    "rating": 4.5,
    "ratings": 27,
    "status": "OPERATIONAL",
    "tel": "(613) 704-0154",
    "twitter": "Windmill_Beer",
    "website": "http://www.windmillbrewery.ca/"
  },
  {
    "address": "1570 County Rd 96, Wolfe Island, ON K0H 2Y0, Canada",
    "avatar": true,
    "banner": true,
    "city": "Wolfe Island",
    "description": "Brewing great beer on Wolfe Island.",
    "lat": 44.1988963,
    "lng": -76.4196747,
    "name": "Wolfe Island Spring Craft Brewery",
    "postal": "K0H 2Y0",
    "rating": 2,
    "ratings": 1,
    "status": "CLOSED_PERMANENTLY",
    "tel": "(613) 385-1570",
    "twitter": "wolfe_craft",
    "website": "https://www.facebook.com/wolfeisland.beer/"
  },
  {
    "address": "2K2, 12 Main St, Wasaga Beach, ON L9Z 2K3, Canada",
    "avatar": false,
    "banner": false,
    "city": "Wasaga Beach",
    "lat": 44.5241738,
    "lng": -80.0182155,
    "name": "The Wasaga Beach Brewing Company's Beach Bar",
    "postal": "L9Z 2K3",
    "rating": 4.4,
    "ratings": 98,
    "status": "OPERATIONAL",
    "tel": "(437) 556-2310",
    "website": "http://www.wasaga.beer/"
  },
  {
    "address": "14 Bayfield Main St N, Bayfield, ON N0M 1G0, Canada",
    "avatar": true,
    "banner": true,
    "city": "Bluewater",
    "description": "Drop your anchor and enjoy a brew. Craft brewery, tap room and brewpub open in Bayfield, ONT. #bayfieldbrewingco #bayfieldpublichouse",
    "lat": 43.5642717,
    "lng": -81.7000856,
    "name": "Bayfield Brewing Company",
    "postal": "N0M 1G0",
    "rating": 4.4,
    "ratings": 159,
    "status": "OPERATIONAL",
    "tel": "(519) 525-7880",
    "twitter": "bayfieldbrewing",
    "website": "http://bayfieldbrewingco.com/"
  },
  {
    "address": "695 Sovereign Rd, London, ON N5V 4K8, Canada",
    "avatar": true,
    "banner": true,
    "city": "London",
    "description": "A combination of unique and flavorful beers, our friendly staff, and the detailed mural in our tasting room equals a dementedly fun experience.",
    "lat": 43.0052596,
    "lng": -81.15047659999999,
    "name": "Equals Brewing Company Inc",
    "postal": "N5V 4K8",
    "rating": 5,
    "ratings": 3,
    "status": "OPERATIONAL",
    "tel": "(877) 378-2571",
    "twitter": "DementedBrewing",
    "website": "http://www.equalsbrewing.com/"
  },
  {
    "address": "4 May St, Fenelon Falls, ON K0M 1N0, Canada",
    "avatar": false,
    "banner": false,
    "city": "Kawartha Lakes",
    "lat": 44.5366085,
    "lng": -78.7380909,
    "name": "Fenelon Falls Brewing Co.",
    "postal": "K0M 1N0",
    "rating": 4.6,
    "ratings": 27,
    "status": "OPERATIONAL",
    "tel": "(705) 215-9898",
    "website": "https://www.fenelonfallsbrewing.com/"
  },
  {
    "address": "30 King St E, Bobcaygeon, ON K0M 1A0, Canada",
    "avatar": true,
    "banner": true,
    "city": "Kawartha Lakes",
    "description": "",
    "lat": 44.536197,
    "lng": -78.5419522,
    "name": "Old Dog Brewing Co",
    "postal": "K0M 1A0",
    "rating": 4,
    "ratings": 13,
    "status": "OPERATIONAL",
    "tel": "(705) 731-1123",
    "twitter": "old_dog_brewing",
    "website": "http://www.olddogbrewing.com/"
  },
  {
    "address": "4380 Innes Rd, Orl√©ans, ON K4A 3W3, Canada",
    "avatar": true,
    "banner": true,
    "city": "Ottawa",
    "description": "inspired by history & innovation TAPROOM IS OPEN! KITCHEN IS COOKING! Orl√©ans ‚Ä¢ Ottawa ‚Ä¢ Ontario *** #craftbeer #microbrewery #orleansbrewery #613beer",
    "lat": 45.459954,
    "lng": -75.49013049999999,
    "name": "Orleans Brewing Co. - OBC",
    "postal": "K4A 3W3",
    "rating": 4.8,
    "ratings": 55,
    "status": "OPERATIONAL",
    "tel": "(613) 830-8428",
    "twitter": "OrleansBrewing",
    "website": "https://orleansbrewing.com/"
  },
  {
    "address": "1151 Ogilvie Rd, Gloucester, ON K1J 7P6, Canada",
    "avatar": false,
    "banner": false,
    "city": "Ottawa",
    "lat": 45.4271338,
    "lng": -75.6309634,
    "name": "Savage Brewing Company",
    "postal": "K1J 7P6",
    "rating": 4,
    "ratings": 3,
    "status": "OPERATIONAL",
    "tel": "(613) 314-6210",
    "website": "http://www.savagebrewing.ca/"
  },
  {
    "address": "59 Main St E #1a, Huntsville, ON P1H 2B8, Canada",
    "avatar": true,
    "banner": true,
    "city": "Huntsville",
    "description": "Hours: Sun-Wed 11AM-10 PM. Thurs-Sat 11AM-11 PM. Brought to you by @LB_Brewing. Taste the Great Outdoors. https://t.co/LSLWunSgQB",
    "lat": 45.32677,
    "lng": -79.21705,
    "name": "Huntsville Brewhouse",
    "postal": "P1H 2B8",
    "rating": 4.4,
    "ratings": 194,
    "status": "OPERATIONAL",
    "tel": "(705) 789-7931",
    "twitter": "lb_huntsville",
    "website": "https://huntsvillebrewhouse.ca/"
  },
  {
    "address": "2202 Bloor St W, Toronto, ON M6S 1N4, Canada",
    "avatar": true,
    "banner": true,
    "city": "Toronto",
    "description": "Ontario Craft Beer. Prohibition Era Cocktails. Gastro Fare. Open 12pm - 12am daily at 2202 Bloor St. W in the heart of Bloor West Village.",
    "lat": 43.6514389,
    "lng": -79.475629,
    "name": "GIN MILL",
    "postal": "M6S 1N4",
    "rating": 4.5,
    "ratings": 142,
    "status": "OPERATIONAL",
    "tel": "(416) 763-3365",
    "twitter": "GIN_MILL_GASTRO",
    "website": "http://ginmillgastro.ca/"
  },
  {
    "address": "275 Yonge St, Toronto, ON M5B 1N8, Canada",
    "avatar": false,
    "banner": false,
    "city": "Toronto",
    "lat": 43.6554391,
    "lng": -79.380353,
    "name": "3 Brewers",
    "postal": "M5B 1N8",
    "rating": 4.1,
    "ratings": 1325,
    "status": "OPERATIONAL",
    "tel": "(647) 347-6286",
    "website": "http://www.les3brasseurs.ca/"
  },
  {
    "address": "2041 Winston Park Dr, Oakville, ON L6H 6P5, Canada",
    "avatar": false,
    "banner": false,
    "city": "Oakville",
    "lat": 43.508935,
    "lng": -79.66860559999999,
    "name": "3 Brewers Oakville",
    "postal": "L6H 6P5",
    "rating": 4.1,
    "ratings": 1498,
    "status": "CLOSED_TEMPORARILY",
    "tel": "(289) 813-2239",
    "website": "http://les3brasseurs.ca/"
  },
  {
    "address": "484 Front St E, Toronto, ON M5A 0J1, Canada",
    "avatar": true,
    "banner": true,
    "city": "Toronto",
    "description": "üç∫üç∫üç∫üç∫üç∫",
    "lat": 43.6537248,
    "lng": -79.3546363,
    "name": "Longslice Brewery",
    "postal": "M5A 0J1",
    "rating": 4.4,
    "ratings": 5,
    "status": "OPERATIONAL",
    "tel": "(647) 479-2469",
    "twitter": "LongsliceBrews",
    "website": "http://longslice.com/"
  },
  {
    "address": "60 Dundas St E, Belleville, ON K8N 1B8, Canada",
    "avatar": true,
    "banner": true,
    "city": "Belleville",
    "description": "Coming soon to Belleville, Ontario!",
    "lat": 44.1616525,
    "lng": -77.37997109999999,
    "name": "Meyers Creek Brewing Company",
    "postal": "K8N 1B8",
    "rating": 4,
    "ratings": 4,
    "status": "OPERATIONAL",
    "tel": "(613) 707-7258",
    "twitter": "MeyersCreekBrew",
    "website": "http://www.meyerscreekbrewing.ca/"
  },
  {
    "address": "2211 US-2, Danville, VT 05828, USA",
    "avatar": true,
    "banner": true,
    "city": "Danville",
    "description": "Follow our story as we #BuildTheBarn to produce staple and seasonal beers made with local ingredients from local producers. Cheers Eh!",
    "lat": 44.430189,
    "lng": -72.10364799999999,
    "name": "Red Barn Brewing Company",
    "postal": "05828",
    "rating": 5,
    "ratings": 25,
    "status": "OPERATIONAL",
    "tel": "(802) 227-3031",
    "twitter": "RedBarnBrewin",
    "website": "http://www.redbarnbrewingvt.com/"
  },
  {
    "address": "130 Edward St, St Thomas, ON N5P 1Z1, Canada",
    "avatar": true,
    "banner": true,
    "city": "St. Thomas",
    "description": "Railway City Brewing is an Ontario Craft brewery, located in historic St. Thomas. In operation for 10 years, brewing award winning beer!",
    "lat": 42.78628399999999,
    "lng": -81.16955,
    "name": "Railway City Brewing Co",
    "postal": "N5P 1Z1",
    "rating": 4.5,
    "ratings": 187,
    "status": "OPERATIONAL",
    "tel": "(519) 631-1881",
    "twitter": "RailwayCity",
    "website": "http://www.railwaycitybrewing.com/"
  },
  {
    "address": "168 Curtis St Unit C, St Thomas, ON N5P 3W9, Canada",
    "avatar": false,
    "banner": false,
    "city": "St. Thomas",
    "lat": 42.779497,
    "lng": -81.19154499999999,
    "name": "Caps Off Brewing Company",
    "postal": "N5P 3W9",
    "rating": 4.8,
    "ratings": 101,
    "status": "OPERATIONAL",
    "tel": null,
    "website": "http://www.capsoffbrewing.com/"
  },
  {
    "address": "300 Wyld St, North Bay, ON P1B 8K3, Canada",
    "avatar": true,
    "banner": true,
    "city": "North Bay",
    "description": "Restaurant by day, pub by night, and live entertainment every weekend! Brewing the best damn beer, period. Enjoy a pint! Proud supporters of the @OHLBattalion",
    "lat": 46.309096,
    "lng": -79.46264,
    "name": "Cecil's Brewhouse & Kitchen",
    "postal": "P1B 8K3",
    "rating": 4.1,
    "ratings": 438,
    "status": "OPERATIONAL",
    "tel": "(705) 472-7510",
    "twitter": "CecilsBrewhouse",
    "website": "http://www.cecils.ca/"
  },
  {
    "address": "177 Princess St, Kingston, ON K7L 1A9, Canada",
    "avatar": false,
    "banner": false,
    "city": "Kingston",
    "lat": 44.2320532,
    "lng": -76.48497549999999,
    "name": "SanTur Brewing Inc.",
    "postal": "K7L 1A9",
    "rating": 4.4,
    "ratings": 103,
    "status": "CLOSED_PERMANENTLY",
    "tel": "(613) 542-3774",
    "website": "http://santurbrewing.com/"
  },
  {
    "address": "28 Bathurst St, Toronto, ON M5V 0C6, Canada",
    "avatar": false,
    "banner": false,
    "city": "Toronto",
    "lat": 43.6405507,
    "lng": -79.4033264,
    "name": "Belgian Moon",
    "postal": "M5V 0C6",
    "rating": 4.6,
    "ratings": 194,
    "status": "OPERATIONAL",
    "tel": "(416) 304-9987",
    "website": "http://www.stacktmarket.com/"
  },
  {
    "address": "65 Barker Ln, Bloomfield, ON K0K 1G0, Canada",
    "avatar": false,
    "banner": false,
    "city": "Prince Edward",
    "lat": 43.9814009,
    "lng": -77.2294352,
    "name": "Matron Fine Beer",
    "postal": "K0K 1G0",
    "rating": 4.8,
    "ratings": 31,
    "status": "OPERATIONAL",
    "tel": null,
    "website": "https://matronfinebeer.ca/"
  },
  {
    "address": "631 Fortune Crescent, Kingston, ON K7P 0L5, Canada",
    "avatar": true,
    "banner": true,
    "city": "Kingston",
    "description": "Adventurously Brewed! Our craft is about the journey, not the destination. Bring us with you and share in the adventure.",
    "lat": 44.2727077,
    "lng": -76.5674574,
    "name": "Riverhead Brewing Company",
    "postal": "K7P 0L5",
    "rating": 4.6,
    "ratings": 144,
    "status": "OPERATIONAL",
    "tel": "(613) 384-2337",
    "twitter": "RiverheadBrew",
    "website": "http://www.riverheadbrewing.com/"
  },
  {
    "address": "1316 Wilson Rd, Hillier, ON K0K 2J0, Canada",
    "avatar": true,
    "banner": false,
    "city": "Prince Edward",
    "description": "",
    "lat": 43.9902608,
    "lng": -77.3515321,
    "name": "Gillingham Brewing",
    "postal": "K0K 2J0",
    "rating": 5,
    "ratings": 23,
    "status": "OPERATIONAL",
    "tel": "(416) 892-9646",
    "twitter": "GillinghamBrew1",
    "website": "http://gillinghambrewing.ca/"
  },
  {
    "address": "1275 Kelly Lake Rd #1, Sudbury, ON P3E 5P5, Canada",
    "avatar": true,
    "banner": true,
    "city": "Greater Sudbury",
    "description": "",
    "lat": 46.4656446,
    "lng": -81.032197,
    "name": "46 North Brewing Corp.",
    "postal": "P3E 5P5",
    "rating": 4.6,
    "ratings": 21,
    "status": "OPERATIONAL",
    "tel": "(705) 586-1870",
    "twitter": "46northbeer",
    "website": "http://www.46north.ca/"
  },
  {
    "address": "1219 Niagara Stone Rd, Niagara-on-the-Lake, ON L0S 1J0, Canada",
    "avatar": false,
    "banner": false,
    "city": "Niagara-on-the-Lake",
    "lat": 43.2111544,
    "lng": -79.13501219999999,
    "name": "Wayne Gretzky Estates Winery & Distillery",
    "postal": "L0S 1J0",
    "rating": 4.5,
    "ratings": 733,
    "status": "OPERATIONAL",
    "tel": "(844) 643-7799",
    "website": "http://www.gretzkyestateswines.com/"
  },
  {
    "address": "2980 Wylie Rd, Glen Robertson, ON K0B 1H0, Canada",
    "avatar": true,
    "banner": false,
    "city": "Glen Robertson",
    "description": "",
    "lat": 45.370771,
    "lng": -74.5466065,
    "name": "Wood Brothers Brewing",
    "postal": "K0B 1H0",
    "rating": 4.8,
    "ratings": 15,
    "status": "CLOSED_TEMPORARILY",
    "tel": "(613) 874-2290",
    "twitter": "BrewingWood",
    "website": "http://www.woodbrothersbrewingco.com/"
  },
  {
    "address": "21 King St E, Harrow, ON N0R 1G0, Canada",
    "avatar": false,
    "banner": false,
    "city": "Essex",
    "lat": 42.0353003,
    "lng": -82.9174955,
    "name": "Beerded Dog Brewing",
    "postal": "N0R 1G0",
    "rating": 4.4,
    "ratings": 70,
    "status": "OPERATIONAL",
    "tel": "(226) 207-0448",
    "website": "http://www.beerdeddog.ca/"
  },
  {
    "address": "1730 Front Rd, St Williams, ON N0E 1P0, Canada",
    "avatar": true,
    "banner": true,
    "city": "St. Williams",
    "description": "Welcome Home! Our beer philosophy is simple - create shareable, uniquely refreshing brews that find a balance between drinkability & flavour #welcomehome",
    "lat": 42.6882303,
    "lng": -80.34807119999999,
    "name": "Hometown Brew Co.",
    "postal": "N0E 1P0",
    "rating": 4.9,
    "ratings": 35,
    "status": "OPERATIONAL",
    "tel": "(289) 921-7021",
    "twitter": "HTBCbeer",
    "website": "http://www.hometownbrew.com/"
  },
  {
    "address": "190 Fairway Rd, Woodstock, ON N4T 1W3, Canada",
    "avatar": false,
    "banner": false,
    "city": "Woodstock",
    "lat": 43.1470271,
    "lng": -80.7698097,
    "name": "Brickhouse Brewpub",
    "postal": "N4T 1W3",
    "rating": 4.6,
    "ratings": 382,
    "status": "OPERATIONAL",
    "tel": "(519) 290-5347",
    "website": "http://upperthamesbrewing.ca/brewpub/"
  },
  {
    "address": "551 Clair Rd W, Guelph, ON N1L 1E9, Canada",
    "avatar": false,
    "banner": false,
    "city": "Guelph",
    "lat": 43.4873651,
    "lng": -80.2070205,
    "name": "Sleeman Brewery",
    "postal": "N1L 1E9",
    "rating": 4.4,
    "ratings": 56,
    "status": "OPERATIONAL",
    "tel": "(519) 822-1834",
    "website": "http://sleeman.ca/"
  },
  {
    "address": "1540 Durham Regional Hwy 2, Courtice, ON L1E 2T5, Canada",
    "avatar": true,
    "banner": false,
    "city": "Courtice",
    "description": "At Sir Monty's brewing inspired craft beers on premise is a family affair.\nVisit our pub style tap room for a delish dish and a bracing brew.",
    "lat": 43.908392,
    "lng": -78.7989906,
    "name": "Sir Monty's Brewing Company",
    "postal": "L1E 2T5",
    "rating": 4.5,
    "ratings": 96,
    "status": "OPERATIONAL",
    "tel": "(905) 438-8652",
    "twitter": "SirMontys",
    "website": "https://sirmontys.com/"
  },
  {
    "address": "420 Talbot St Unit 3, London, ON N6A 2S2, Canada",
    "avatar": false,
    "banner": false,
    "city": "London",
    "lat": 42.9834987,
    "lng": -81.2518747,
    "name": "Beerlab!",
    "postal": "N6A 2S2",
    "rating": 4.8,
    "ratings": 30,
    "status": "OPERATIONAL",
    "tel": "(519) 859-8853",
    "website": "http://www.beerlab.com/"
  },
  {
    "address": "415 Fort William Rd, Thunder Bay, ON P7B 2Z5, Canada",
    "avatar": false,
    "banner": false,
    "city": "Thunder Bay",
    "lat": 48.422825,
    "lng": -89.2325764,
    "name": "One Time Brew Co.",
    "postal": "P7B 2Z5",
    "rating": 5,
    "ratings": 1,
    "status": "OPERATIONAL",
    "tel": null,
    "website": "https://onetimebrew.co/"
  },
  {
    "address": "30 King St E, Bobcaygeon, ON K0M 1A0, Canada",
    "avatar": true,
    "banner": true,
    "city": "Kawartha Lakes",
    "description": "Great craft beers to be enjoyed among friends.  That's it.  Nothing more, nothing less. üçª",
    "lat": 44.536197,
    "lng": -78.5419522,
    "name": "Bobcaygeon Brewing Co",
    "postal": "K0M 1A0",
    "rating": 4,
    "ratings": 13,
    "status": "OPERATIONAL",
    "tel": "(705) 731-1123",
    "twitter": "bobcaygeonbeer",
    "website": "http://www.olddogbrewing.com/"
  },
  {
    "address": "263 Dalhousie St, Amherstburg, ON N9V 1W8, Canada",
    "avatar": true,
    "banner": true,
    "city": "Amherstburg",
    "description": "Lot 10 Brewing Company is a small town microbrewery located in the heart of historic Amherstburg, Ontario, and situated on the banks of the Detroit River.",
    "lat": 42.1019404,
    "lng": -83.1125704,
    "name": "Lot 10 Brewing Company",
    "postal": "N9V 1W8",
    "rating": 4.8,
    "ratings": 54,
    "status": "OPERATIONAL",
    "tel": "(226) 773-7755",
    "twitter": "Lot10Brewing",
    "website": "https://lot10brewery.ca/"
  },
  {
    "address": "193 St Paul St W, St. Catharines, ON L2S 2C9, Canada",
    "avatar": true,
    "banner": false,
    "city": "St. Catharines",
    "description": "",
    "lat": 43.1462112,
    "lng": -79.2557314,
    "name": "Cold Break Brewing",
    "postal": "L2S 2C9",
    "rating": 4.7,
    "ratings": 16,
    "status": "OPERATIONAL",
    "tel": "(289) 501-0638",
    "twitter": "BrewingCold",
    "website": "https://coldbreakbrewing.ca/"
  },
  {
    "address": "6081 Hazeldean Rd, Stittsville, ON K2S 1B9, Canada",
    "avatar": true,
    "banner": true,
    "city": "Ottawa",
    "description": "Stittsville's newest craft brewery! Come out for a visit",
    "lat": 45.2730423,
    "lng": -75.93199170000001,
    "name": "Brew Revolution",
    "postal": "K2S 1B9",
    "rating": 4.7,
    "ratings": 23,
    "status": "OPERATIONAL",
    "tel": "(613) 877-2121",
    "twitter": "BrewRevOtt",
    "website": "https://brewrevolution.ca/"
  },
  {
    "address": "220 King St W, Toronto, ON M5V 3M2, Canada",
    "avatar": true,
    "banner": true,
    "city": "Toronto",
    "description": "Mascot Brewery is a craft brewery and eatery in downtown Toronto. We respect the quality and craftsmanship that goes into making great beer.",
    "lat": 43.6472946,
    "lng": -79.3869701,
    "name": "Mascot Brewery",
    "postal": "M5V 3M2",
    "rating": 3.8,
    "ratings": 49,
    "status": "OPERATIONAL",
    "tel": "(647) 347-9553",
    "twitter": "mascotbrewery",
    "website": "http://www.mascotbrewery.com/"
  },
  {
    "address": "220 King St W, Toronto, ON M5V 3M2, Canada",
    "avatar": true,
    "banner": true,
    "city": "Toronto",
    "description": "Mascot Brewery is a craft brewery and eatery in downtown Toronto. We respect the quality and craftsmanship that goes into making great beer.",
    "lat": 43.6472946,
    "lng": -79.3869701,
    "name": "Mascot Brewery",
    "postal": "M5V 3M2",
    "rating": 3.8,
    "ratings": 49,
    "status": "OPERATIONAL",
    "tel": "(647) 347-9553",
    "twitter": "mascotbrewery",
    "website": "http://www.mascotbrewery.com/"
  },
  {
    "address": "139 Mill St, Creemore, ON L0M 1G0, Canada",
    "avatar": false,
    "banner": false,
    "city": "Creemore",
    "lat": 44.3249486,
    "lng": -80.10535759999999,
    "name": "Creemore Springs Brewery Limited",
    "postal": "L0M 1G0",
    "rating": 4.7,
    "ratings": 159,
    "status": "OPERATIONAL",
    "tel": "(705) 466-2240",
    "website": "http://www.creemoresprings.com/"
  },
  {
    "address": "65 King St W, Brockville, ON K6V 3P8, Canada",
    "avatar": false,
    "banner": false,
    "city": "Brockville",
    "lat": 44.5890332,
    "lng": -75.6845512,
    "name": "1000 Islands Brewing Co",
    "postal": "K6V 3P8",
    "rating": 4.4,
    "ratings": 117,
    "status": "OPERATIONAL",
    "tel": "(613) 342-3772",
    "website": "https://1000islandsbrewery.ca/"
  },
  {
    "address": "146 Christina St N, Sarnia, ON N7T 5T9, Canada",
    "avatar": false,
    "banner": false,
    "city": "Sarnia",
    "lat": 42.9720305,
    "lng": -82.40704989999999,
    "name": "River Run Brew Co",
    "postal": "N7T 5T9",
    "rating": 5,
    "ratings": 4,
    "status": "OPERATIONAL",
    "tel": "(226) 784-2337",
    "website": "https://www.facebook.com/riverrunbrewco/"
  },
  {
    "address": "21B Industrial Dr, Elmira, ON N3B 2S2, Canada",
    "avatar": true,
    "banner": true,
    "city": "Elmira",
    "description": "Craft beer that rings true. We brew quality craft beer that celebrates our rural roots of Blyth, Ontario in Huron County.",
    "lat": 43.5890148,
    "lng": -80.56032929999999,
    "name": "Rural Roots Brewing Company",
    "postal": "N3B 2S2",
    "rating": 4.9,
    "ratings": 88,
    "status": "OPERATIONAL",
    "tel": "(519) 210-2102",
    "twitter": "CowbellBrewing",
    "website": "http://www.ruralrootsbrewery.ca/"
  },
  {
    "address": "1953 Queen St E, Toronto, ON M4L 1H7, Canada",
    "avatar": true,
    "banner": true,
    "city": "Toronto",
    "description": "Born in Toronto's east end, producing craft beer and food influenced by beaches around the world.  Beaches Brewing Co. is Independently owned, & locally brewed.",
    "lat": 43.6694345,
    "lng": -79.3023092,
    "name": "Beaches Brewing Company",
    "postal": "M4L 1H7",
    "rating": 4.8,
    "ratings": 149,
    "status": "OPERATIONAL",
    "tel": "(647) 492-3224",
    "twitter": "Beaches_Brewing",
    "website": "https://www.beachesbrewing.com/"
  },
  {
    "address": "355 Elmira Rd N Unit 135, Guelph, ON N1K 1S5, Canada",
    "avatar": true,
    "banner": true,
    "city": "Guelph",
    "description": "Award winning craft brewer of easy-drinking ales, lagers and stouts, fire brewed in small batches using the finest all-natural ingredients.",
    "lat": 43.53433039999999,
    "lng": -80.3043721,
    "name": "StoneHammer Brewing",
    "postal": "N1K 1S5",
    "rating": 4.8,
    "ratings": 18,
    "status": "CLOSED_PERMANENTLY",
    "tel": "(519) 824-1194",
    "twitter": "StoneHammerBeer",
    "website": "http://stonehammer.ca/"
  },
  {
    "address": "1330 Exmouth St, Sarnia, ON N7S 3X9, Canada",
    "avatar": true,
    "banner": true,
    "city": "Sarnia",
    "description": "Official Twitter Account Of Imperial City Brew House. A Brewery And Taproom In Sarnia, Ontario Canada.",
    "lat": 42.9856053,
    "lng": -82.3555355,
    "name": "Imperial City Brew House",
    "postal": "N7S 3X9",
    "rating": 4.7,
    "ratings": 23,
    "status": "OPERATIONAL",
    "tel": "(519) 491-5191",
    "twitter": "ImperialBrew",
    "website": "http://www.imperialcitybrew.com/"
  },
  {
    "address": "140 Geary Ave Suite 110, Toronto, ON M6H 4H1, Canada",
    "avatar": true,
    "banner": true,
    "city": "Toronto",
    "description": "Terminal dork. Vegan. Dad. Films, maps, books, bikes, DnD, beer, music, wrestling. Paul Bearer is my spirit animal; Sorachi Ace is my emotional support hop.",
    "lat": 43.6704438,
    "lng": -79.4354714,
    "name": "Ace Hill Beer Company Inc.",
    "postal": "M6H 4H1",
    "rating": 4.7,
    "ratings": 10,
    "status": "OPERATIONAL",
    "tel": null,
    "twitter": "MultiplexRant",
    "website": "https://acehillbeer.com/"
  },
  {
    "address": "105 Schneider Rd Unit 130, Kanata, ON K2K 1Y3, Canada",
    "avatar": true,
    "banner": true,
    "city": "Ottawa",
    "description": "Born into a rich home of history and pride, The Calabogie Brewing Company is proud to serve the local area with an unrivaled passion and love for beer.",
    "lat": 45.3411942,
    "lng": -75.90282309999999,
    "name": "Calabogie Brewing Company - Kanata",
    "postal": "K2K 1Y3",
    "rating": 4.4,
    "ratings": 217,
    "status": "OPERATIONAL",
    "tel": "(613) 608-2739",
    "twitter": "CalabogieBrewCo",
    "website": "http://www.calabogiebrewing.com/"
  },
  {
    "address": "485 Harbour Rd, Sarnia, ON N7T 5R8, Canada",
    "avatar": true,
    "banner": true,
    "city": "Sarnia",
    "description": "",
    "lat": 42.983027,
    "lng": -82.40876600000001,
    "name": "Big Family Brewing Company",
    "postal": "N7T 5R8",
    "rating": 5,
    "ratings": 1,
    "status": "OPERATIONAL",
    "tel": "(519) 491-5909",
    "twitter": "Bigfamilybrew",
    "website": "http://www.bigfamilybrewing.com/"
  },
  {
    "address": "2681 Muskoka District Road 117, Baysville, ON P0B 1A0, Canada",
    "avatar": false,
    "banner": false,
    "city": "Baysville",
    "lat": 45.1501573,
    "lng": -79.1143362,
    "name": "Lake of Bays Barrel House",
    "postal": "P0B 1A0",
    "rating": 4.6,
    "ratings": 100,
    "status": "OPERATIONAL",
    "tel": "(705) 767-2313",
    "website": "https://lakeofbaysbrewing.ca/"
  },
  {
    "address": "1853 Windham Rd 3, Scotland, ON N0E 1R0, Canada",
    "avatar": false,
    "banner": false,
    "city": null,
    "lat": 42.9867324,
    "lng": -80.36677999999999,
    "name": "Meuse Brewing Company",
    "postal": "N0E 1R0",
    "rating": null,
    "ratings": null,
    "status": "OPERATIONAL",
    "tel": "(519) 709-9327",
    "website": "http://www.meusebrewing.com/"
  },
  {
    "address": "23 Memory Ln, Kemptville, ON K0G 1J0, Canada",
    "avatar": false,
    "banner": false,
    "city": "Kemptville",
    "lat": 44.9993847,
    "lng": -75.65674349999999,
    "name": "Pinball Brew Lab",
    "postal": "K0G 1J0",
    "rating": 4.7,
    "ratings": 3,
    "status": "CLOSED_PERMANENTLY",
    "tel": null,
    "website": "https://pinball.beer/"
  },
  {
    "address": "125 Bermondsey Rd, North York, ON M4A 1X3, Canada",
    "avatar": false,
    "banner": false,
    "city": "Toronto",
    "lat": 43.7183584,
    "lng": -79.3126048,
    "name": "Mill Street Brewery",
    "postal": "M4A 1X3",
    "rating": 3.3,
    "ratings": 14,
    "status": "OPERATIONAL",
    "tel": "(416) 759-6565",
    "website": "http://millstreetbrewery.com/"
  },
  {
    "address": "1680 Vimont Ct Unit 106, Orl√©ans, ON K4A 3M3, Canada",
    "avatar": true,
    "banner": true,
    "city": "Ottawa",
    "description": "Founded in 2011, our recipes are crafted to be flavourful yet approachable, striking a balance between innovation and tradition üçª",
    "lat": 45.4896635,
    "lng": -75.4843468,
    "name": "Broadhead Brewing Company",
    "postal": "K4A 3M3",
    "rating": 4.7,
    "ratings": 68,
    "status": "OPERATIONAL",
    "tel": "(613) 830-3944",
    "twitter": "BroadheadBeer",
    "website": "http://broadheadbeer.com/"
  },
  {
    "address": "375 Wilson St E, Ancaster, ON L9G 2C1, Canada",
    "avatar": false,
    "banner": false,
    "city": "Hamilton",
    "lat": 43.227856,
    "lng": -79.97600299999999,
    "name": "Brewers Blackbird Kitchen & Brewery",
    "postal": "L9G 2C1",
    "rating": 4.3,
    "ratings": 111,
    "status": "OPERATIONAL",
    "tel": "(905) 648-8863",
    "website": "http://brewersblackbird.ca/"
  },
  {
    "address": "677 Innovation Dr Unit 4, Kingston, ON K7K 7E6, Canada",
    "avatar": false,
    "banner": false,
    "city": "Kingston",
    "lat": 44.2715817,
    "lng": -76.4420463,
    "name": "Fine Balance Brewing Company",
    "postal": "K7K 7E6",
    "rating": null,
    "ratings": null,
    "status": "OPERATIONAL",
    "tel": null,
    "website": "http://www.finebalancebrewing.ca/"
  },
  {
    "address": "1271 Reidsville Rd, Ayr, ON N0B 1E0, Canada",
    "avatar": true,
    "banner": true,
    "city": "Ayr",
    "description": "#WatReg's First Farm Distillery & Kitchen | OPEN Wed-Fri, 5-10 and Sat 12-10 | Reservations recommended, walk-ins welcome | Find us on @resy",
    "lat": 43.2876514,
    "lng": -80.4232356,
    "name": "Willibald Farm Distillery & Restaurant",
    "postal": "N0B 1E0",
    "rating": 4.9,
    "ratings": 112,
    "status": "OPERATIONAL",
    "tel": "(226) 556-9941",
    "twitter": "drinkwillibald",
    "website": "http://www.drinkwillibald.com/"
  },
  {
    "address": "395 Fletcher St, Petrolia, ON N0N 1R0, Canada",
    "avatar": true,
    "banner": true,
    "city": "Petrolia",
    "description": "",
    "lat": 42.8824392,
    "lng": -82.14693989999999,
    "name": "Black Gold Brewery",
    "postal": "N0N 1R0",
    "rating": null,
    "ratings": null,
    "status": "OPERATIONAL",
    "tel": null,
    "twitter": "BlackGoldBrew",
    "website": "http://www.blackgold.beer/"
  },
  {
    "address": "301 Lansdowne Ave Unit 2, Toronto, ON M6K 2W5, Canada",
    "avatar": true,
    "banner": false,
    "city": "Toronto",
    "description": "Lager. Stout. IPA. Try it. https://t.co/Hc1E7oApB4",
    "lat": 43.6507303,
    "lng": -79.4393963,
    "name": "Woodhouse Brewing Co.",
    "postal": "M6K 2W5",
    "rating": 4.7,
    "ratings": 51,
    "status": "OPERATIONAL",
    "tel": null,
    "twitter": "woodhousebeer",
    "website": "https://www.instagram.com/woodhousebrewpub/?hl=en"
  },
  {
    "address": "675 Arlington Park Pl Unit 3, Kingston, ON K7M 7E4, Canada",
    "avatar": true,
    "banner": true,
    "city": "Kingston",
    "description": "anno MMXV. Tradition, Celebration, Respect.",
    "lat": 44.24866770000001,
    "lng": -76.5705301,
    "name": "Skeleton Park Brewery",
    "postal": "K7M 7E4",
    "rating": 5,
    "ratings": 13,
    "status": "OPERATIONAL",
    "tel": "(613) 417-0375",
    "twitter": "skeletonprkbeer",
    "website": "http://www.skeletonpark.ca/"
  },
  {
    "address": "43 Mill St W, Leamington, ON N8H 1S7, Canada",
    "avatar": false,
    "banner": false,
    "city": "Leamington",
    "lat": 42.0523792,
    "lng": -82.6014654,
    "name": "Cured Craft Brewing",
    "postal": "N8H 1S7",
    "rating": null,
    "ratings": null,
    "status": "OPERATIONAL",
    "tel": null,
    "website": "http://www.curedcraftbrewing.com/"
  },
  {
    "address": "15 Main St W, Kingsville, ON N9Y 1H2, Canada",
    "avatar": true,
    "banner": false,
    "city": "Kingsville",
    "description": "",
    "lat": 42.0376274,
    "lng": -82.74032009999999,
    "name": "Kingsville Brewing Co.",
    "postal": "N9Y 1H2",
    "rating": 4.7,
    "ratings": 13,
    "status": "OPERATIONAL",
    "tel": "(519) 712-8884",
    "twitter": "KingsvilleBrew",
    "website": "http://kingsvillebrewery.ca/"
  },
  {
    "address": "21-767 Silver Seven Rd, Ottawa, ON K2V 0H1, Canada",
    "avatar": true,
    "banner": true,
    "city": "Ottawa",
    "description": "And we are OPEN :) Evergreen Craft Ales has moved to Kanata. Stop by to check out our new tap room and retail space!",
    "lat": 45.3017583,
    "lng": -75.91458399999999,
    "name": "Evergreen Craft Ales",
    "postal": "K2V 0H1",
    "rating": 4.8,
    "ratings": 47,
    "status": "OPERATIONAL",
    "tel": "(613) 319-3106",
    "twitter": "evergreenales",
    "website": "http://www.evergreencraftales.com/"
  },
  {
    "address": "2265 Robertson Rd, Nepean, ON K2H 5Z2, Canada",
    "avatar": true,
    "banner": true,
    "city": "Ottawa",
    "description": "A family owned business focused on brewing craft beer for enjoyment in Ottawa and surrounding communities.",
    "lat": 45.3180882,
    "lng": -75.8441848,
    "name": "Kichesippi Beer Co",
    "postal": "K2H 5Z2",
    "rating": 4.7,
    "ratings": 104,
    "status": "OPERATIONAL",
    "tel": "(613) 728-7845",
    "twitter": "kichesippibeer",
    "website": "http://www.kbeer.ca/"
  },
  {
    "address": "40 Simcoe St, Collingwood, ON L9Y 1H6, Canada",
    "avatar": false,
    "banner": false,
    "city": "Collingwood",
    "lat": 44.5008134,
    "lng": -80.2157206,
    "name": "Black Bellows Brewing Co.",
    "postal": "L9Y 1H6",
    "rating": 4.5,
    "ratings": 37,
    "status": "OPERATIONAL",
    "tel": "(705) 532-1569",
    "website": "http://blackbellows.com/"
  },
  {
    "address": "12 John St, Huntsville, ON P1H 1H2, Canada",
    "avatar": true,
    "banner": true,
    "city": "Huntsville",
    "description": "Huntsville‚Äôs new craft brewery located on the Muskoka river at the swing bridge. Inspired by local arts and the untamed beauty of Algonquin Park @canvasbrewing",
    "lat": 45.328474,
    "lng": -79.21466149999999,
    "name": "Canvas Brewing Company",
    "postal": "P1H 1H2",
    "rating": 5,
    "ratings": 6,
    "status": "OPERATIONAL",
    "tel": "(705) 380-2750",
    "twitter": "canvasbrewing",
    "website": "http://canvasbrewing.com/"
  },
  {
    "address": "13 Taylor Rd Unit D, Bracebridge, ON P1L 2E8, Canada",
    "avatar": true,
    "banner": true,
    "city": "Bracebridge",
    "description": "Small craft brewery in Bracebridge ON. *NEW HOURS* Thurs-Sat 1-6pm for order pick up or by appointment. Free local delivery!",
    "lat": 45.0420568,
    "lng": -79.3105893,
    "name": "Katalyst Brewing Company",
    "postal": "P1L 2E8",
    "rating": 5,
    "ratings": 6,
    "status": "OPERATIONAL",
    "tel": "(705) 394-5043",
    "twitter": "KatalystBrewing",
    "website": "http://www.katalystbrewing.com/"
  },
  {
    "address": "702 Somerset St W, Ottawa, ON K1R 6P6, Canada",
    "avatar": true,
    "banner": true,
    "city": "Ottawa",
    "description": "Hoppy, sour and all around fun beers served in an amiable tasting room (usually). 702 Somerset Street W, Ottawa, Ontario, Canada. üçª",
    "lat": 45.41077689999999,
    "lng": -75.7070628,
    "name": "Spark Beer",
    "postal": "K1R 6P6",
    "rating": 4.8,
    "ratings": 77,
    "status": "OPERATIONAL",
    "tel": "(613) 663-9997",
    "twitter": "SparkBeer",
    "website": "https://spark.beer/"
  },
  {
    "address": "90 Cawthra Ave Unit #101, Toronto, ON M6N 3C2, Canada",
    "avatar": true,
    "banner": false,
    "city": "Toronto",
    "description": "Brewing Beer and Loving Life",
    "lat": 43.6707166,
    "lng": -79.4646226,
    "name": "Flux Brewing Company",
    "postal": "M6N 3C2",
    "rating": 4.8,
    "ratings": 136,
    "status": "OPERATIONAL",
    "tel": "(647) 350-9150",
    "twitter": "FluxBrewing",
    "website": "http://peoplespint.com/"
  },
  {
    "address": "768 Princess St, Kingston, ON K7L 1G3, Canada",
    "avatar": true,
    "banner": true,
    "city": "Kingston",
    "description": "A west coast inspired brewery opening soon in Kingston, ON.",
    "lat": 44.2386795,
    "lng": -76.5062554,
    "name": "Daft Brewing",
    "postal": "K7L 1G3",
    "rating": 4.9,
    "ratings": 27,
    "status": "OPERATIONAL",
    "tel": null,
    "twitter": "DaftBrewing",
    "website": "http://www.daftbrewing.com/"
  },
  {
    "address": "295 Alliance Rd Unit 3, Milton, ON L9T 4W8, Canada",
    "avatar": false,
    "banner": false,
    "city": "Milton",
    "lat": 43.525061,
    "lng": -79.8932933,
    "name": "Third Moon Brewing",
    "postal": "L9T 4W8",
    "rating": null,
    "ratings": null,
    "status": "OPERATIONAL",
    "tel": null,
    "website": "http://thirdmoonbrewing.com/"
  },
  {
    "address": "299 Augusta Ave, Toronto, ON M5T 2M2, Canada",
    "avatar": true,
    "banner": true,
    "city": "Toronto",
    "description": "üì´Delivering to Toronto & Vaughan\nüá®üá¶Now shipping Ontario wide!\nüìç2 locations | Augusta & Edgeley",
    "lat": 43.6565029,
    "lng": -79.40257679999999,
    "name": "Kensington Brewing Co",
    "postal": "M5T 2M2",
    "rating": 4.6,
    "ratings": 229,
    "status": "OPERATIONAL",
    "tel": "(647) 352-9904",
    "twitter": "KBCobeer",
    "website": "https://www.kensingtonbrewingcompany.com/"
  },
  {
    "address": "4567 12 Line N, Coldwater, ON L0K 1E0, Canada",
    "avatar": true,
    "banner": false,
    "city": "Coldwater",
    "description": "",
    "lat": 44.65219039999999,
    "lng": -79.57860529999999,
    "name": "Quayle's Brewery",
    "postal": "L0K 1E0",
    "rating": 5,
    "ratings": 11,
    "status": "OPERATIONAL",
    "tel": "(705) 298-0204",
    "twitter": "QuaylesBrewery",
    "website": "https://quaylesbrewery.ca/"
  }
]