[
  {
    "address": "4248 Route 225, Breadalbane, PE C0A 1E0, Canada",
    "avatar": true,
    "banner": true,
    "city": "Breadalbane",
    "description": "Farm Craft Brewery and Hopyard. 902-394-6897",
    "lat": 46.3209778,
    "lng": -63.4836,
    "name": "Barnone Brewery and Hop Farm",
    "postal": "C0A 1E0",
    "rating": 4.8,
    "ratings": 34,
    "status": "OPERATIONAL",
    "tel": "(902) 394-6897",
    "twitter": "BARNONEBEER",
    "website": "http://barnone.beer/"
  },
  {
    "address": "567 Main St, Montague, PE C0A 1R0, Canada",
    "avatar": false,
    "banner": false,
    "city": "Montague",
    "lat": 46.1635047,
    "lng": -62.6470558,
    "name": "Copper Bottom Brewing",
    "postal": "C0A 1R0",
    "rating": 4.7,
    "ratings": 78,
    "status": "OPERATIONAL",
    "tel": "(902) 361-2337",
    "website": "http://copperbottombrewing.com/"
  },
  {
    "address": "192 Water St, Summerside, PE C1N 1B1, Canada",
    "avatar": false,
    "banner": false,
    "city": "Summerside",
    "lat": 46.3909914,
    "lng": -63.78835179999999,
    "name": "Evermoore Brewing Company",
    "postal": "C1N 1B1",
    "rating": 4.3,
    "ratings": 50,
    "status": "OPERATIONAL",
    "tel": "(902) 436-7218",
    "website": "http://www.evermoorebrewing.ca/"
  },
  {
    "address": "101 Mickie Allan Shore Road, Ellerslie, PE C0B 1J0, Canada",
    "avatar": false,
    "banner": false,
    "city": "Ellerslie",
    "lat": 46.6982683,
    "lng": -63.95915929999999,
    "name": "Moth Lane Brewing",
    "postal": "C0B 1J0",
    "rating": 4.9,
    "ratings": 65,
    "status": "OPERATIONAL",
    "tel": "(902) 831-2160",
    "website": "https://www.facebook.com/MothLaneBrewing"
  },
  {
    "address": "41 Allen St, Charlottetown, PE C1A 2V6, Canada",
    "avatar": true,
    "banner": true,
    "city": "Charlottetown",
    "description": "Craft beer proudly brewed in Charlottetown, PEI. Proudly @BcorpCanada. Have fun, do good, drink beer.",
    "lat": 46.24638890000001,
    "lng": -63.13194439999999,
    "name": "Upstreet Craft Brewing",
    "postal": "C1A 2V6",
    "rating": 4.7,
    "ratings": 154,
    "status": "OPERATIONAL",
    "tel": "(902) 894-0543",
    "twitter": "UpstreetBrewing",
    "website": "https://upstreet.ca/"
  },
  {
    "address": "96 Kensington Rd, Charlottetown, PE C1A 5J4, Canada",
    "avatar": true,
    "banner": true,
    "city": "Charlottetown",
    "description": "Proud brewers of PEI Craft Beer - made in Charlottetown, Prince Edward Island, Canada",
    "lat": 46.2525504,
    "lng": -63.1150114,
    "name": "Prince Edward Island Brewing Company",
    "postal": "C1A 5J4",
    "rating": 4.5,
    "ratings": 109,
    "status": "OPERATIONAL",
    "tel": "(902) 629-2739",
    "twitter": "PEIBrew",
    "website": "http://peibrewingcompany.com/"
  },
  {
    "address": "11 Brook St, Montague, PE C0A 1R0, Canada",
    "avatar": true,
    "banner": false,
    "city": "Montague",
    "description": "Bogside Brewing is a craft brewery in beautiful Montague, Prince Edward Island.  We specialize in delicious beer, low and slow BBQ, and local Island seafood.",
    "lat": 46.1665498,
    "lng": -62.64737719999999,
    "name": "Bogside Brewing",
    "postal": "C0A 1R0",
    "rating": 4,
    "ratings": 19,
    "status": "OPERATIONAL",
    "tel": "(902) 838-4384",
    "twitter": "BogsideBrewing",
    "website": "https://www.bogsidebrewing.com/"
  },
  {
    "address": "103 Abegweit Blvd, Borden-Carleton, PE C0B 1X0, Canada",
    "avatar": true,
    "banner": true,
    "city": "Borden-Carleton",
    "description": "Craft Brewery in Borden-Carleton, PEI.",
    "lat": 46.2546147,
    "lng": -63.6942985,
    "name": "Lone Oak Brewing Co.",
    "postal": "C0B 1X0",
    "rating": 5,
    "ratings": 8,
    "status": "OPERATIONAL",
    "tel": "(902) 729-2228",
    "twitter": "loneoakbrew",
    "website": "http://loneoakbrew.com/"
  },
  {
    "address": "126 Sydney St, Charlottetown, PE C1A 1G5, Canada",
    "avatar": true,
    "banner": true,
    "city": "Charlottetown",
    "description": "Where you can meet up with friends and enjoy the unique atmosphere, great food & handcrafted ales!",
    "lat": 46.2334275,
    "lng": -63.1258894,
    "name": "The Gahan House",
    "postal": "C1A 1G5",
    "rating": 4.4,
    "ratings": 429,
    "status": "OPERATIONAL",
    "tel": "(902) 626-2337",
    "twitter": "GahanPub",
    "website": "http://charlottetown.gahan.ca/"
  }
]