[
  {
    "address": "225 Rue Pope, Cookshire-Eaton, QC J0B 1M0, Canada",
    "avatar": false,
    "banner": false,
    "city": "Cookshire-Eaton",
    "lat": 45.40976819999999,
    "lng": -71.634236,
    "name": "Brasserie 11 comt√©s",
    "postal": "J0B 1M0",
    "rating": 4.7,
    "ratings": 200,
    "status": "OPERATIONAL",
    "tel": "(873) 825-7075",
    "website": "http://onzecomtes.com/"
  },
  {
    "address": "732 Rue Sainte-Catherine O, Montr√©al, QC H3B 1B9, Canada",
    "avatar": false,
    "banner": false,
    "city": "Montr√©al",
    "lat": 45.502117,
    "lng": -73.57065899999999,
    "name": "3 Brasseurs McGill",
    "postal": "H3B 1B9",
    "rating": 4.2,
    "ratings": 4548,
    "status": "CLOSED_TEMPORARILY",
    "tel": "(514) 788-6333",
    "website": "http://www.les3brasseurs.ca/"
  },
  {
    "address": "1356 Rue Sainte-Catherine O, Montr√©al, QC H3G 1P6, Canada",
    "avatar": false,
    "banner": false,
    "city": "Montr√©al",
    "lat": 45.4971735,
    "lng": -73.5754537,
    "name": "3 Brasseurs Crescent",
    "postal": "H3G 1P6",
    "rating": 4.2,
    "ratings": 3576,
    "status": "OPERATIONAL",
    "tel": "(514) 788-9788",
    "website": "http://www.les3brasseurs.ca/"
  },
  {
    "address": "681 Rue Marion, Joliette, QC J6E 8S3, Canada",
    "avatar": false,
    "banner": false,
    "city": "Joliette",
    "lat": 46.0064013,
    "lng": -73.4443502,
    "name": "L'Alchimiste",
    "postal": "J6E 8S3",
    "rating": 4.7,
    "ratings": 15,
    "status": "OPERATIONAL",
    "tel": "(450) 760-2945",
    "website": "http://alchimiste.ca/"
  },
  {
    "address": "262 Rue Lafontaine, Rivi√®re-du-Loup, QC G5R 3A8, Canada",
    "avatar": false,
    "banner": false,
    "city": "Rivi√®re-du-Loup",
    "lat": 47.83396150000001,
    "lng": -69.5372349,
    "name": "Microbrasserie Aux Fous Brassant",
    "postal": "G5R 3A8",
    "rating": 4.6,
    "ratings": 541,
    "status": "OPERATIONAL",
    "tel": "(418) 605-1644",
    "website": "http://www.auxfousbrassant.com/"
  },
  {
    "address": "69 Rue Sainte Anne, Ville-Marie, QC J9V 2B6, Canada",
    "avatar": false,
    "banner": false,
    "city": "Ville-Marie",
    "lat": 47.3322338,
    "lng": -79.4362702,
    "name": "Barbe Broue Pub FERM√â",
    "postal": "J9V 2B6",
    "rating": 4.3,
    "ratings": 53,
    "status": "CLOSED_PERMANENTLY",
    "tel": "(819) 629-7442",
    "website": "http://www.barbebrouepub.com/"
  },
  {
    "address": "170 Rue Montcalm, Gatineau, QC J8X 2M2, Canada",
    "avatar": false,
    "banner": false,
    "city": "Gatineau",
    "lat": 45.429779,
    "lng": -75.7268295,
    "name": "BDT",
    "postal": "J8X 2M2",
    "rating": 4.4,
    "ratings": 790,
    "status": "OPERATIONAL",
    "tel": "(819) 205-4999",
    "website": "http://www.brasseursdutemps.com/"
  },
  {
    "address": "255 Rue Petrozza, Chambly, QC J3L 2Z7, Canada",
    "avatar": false,
    "banner": false,
    "city": "Chambly",
    "lat": 45.4465256,
    "lng": -73.28602599999999,
    "name": "Bedondaine & Bedons Ronds",
    "postal": "J3L 2Z7",
    "rating": 4.7,
    "ratings": 297,
    "status": "OPERATIONAL",
    "tel": "(450) 447-5165",
    "website": "http://www.bedondaine.com/"
  },
  {
    "address": "4026 Rue Wellington, Verdun, QC H4G 1V3, Canada",
    "avatar": false,
    "banner": false,
    "city": "Montr√©al",
    "lat": 45.46343299999999,
    "lng": -73.566808,
    "name": "Benelux Brasseries Artisanales",
    "postal": "H4G 1V3",
    "rating": 4.2,
    "ratings": 623,
    "status": "OPERATIONAL",
    "tel": "(514) 508-5592",
    "website": "http://brasseriebenelux.com/"
  },
  {
    "address": "32 Rue McGill, Montr√©al, QC H2Y 3W5, Canada",
    "avatar": false,
    "banner": false,
    "city": "Montr√©al",
    "lat": 45.4988882,
    "lng": -73.5537352,
    "name": "Bistro-Brasserie Les Soeurs Grises",
    "postal": "H2Y 3W5",
    "rating": 4.1,
    "ratings": 541,
    "status": "OPERATIONAL",
    "tel": "(514) 788-7635",
    "website": "http://bblsg.com/"
  },
  {
    "address": "1500 Rue Nobel, Boucherville, QC J4B 5H3, Canada",
    "avatar": true,
    "banner": true,
    "city": "Boucherville",
    "description": "",
    "lat": 45.567571,
    "lng": -73.41829609999999,
    "name": "Brasserie New Deal",
    "postal": "J4B 5H3",
    "rating": 4.5,
    "ratings": 90,
    "status": "OPERATIONAL",
    "tel": "(514) 312-3035",
    "twitter": "bnewdeal",
    "website": "https://collectifensemble.com/"
  },
  {
    "address": "875 Boulevard Mich√®le-Bohec, Blainville, QC J7C 5J6, Canada",
    "avatar": true,
    "banner": true,
    "city": "Blainville",
    "description": "Partenaire des brasseries du HAUTS-DE-FRANCE, le syndicat des brasseurs repr√©sente cette fili√®re en accompagnant les entreprises",
    "lat": 45.662554,
    "lng": -73.886785,
    "name": "Brasseurs du Nord (the)",
    "postal": "J7C 5J6",
    "rating": 4.7,
    "ratings": 157,
    "status": "OPERATIONAL",
    "tel": "(514) 718-5927",
    "twitter": "BrasseursDuNord",
    "website": "http://www.boreale.com/"
  },
  {
    "address": "2300 Rue Holt, Montr√©al, QC H2G 1Y4, Canada",
    "avatar": false,
    "banner": false,
    "city": "Montr√©al",
    "lat": 45.54363,
    "lng": -73.584503,
    "name": "MABRASSERIE - Coop brassicole de Montr√©al",
    "postal": "H2G 1Y4",
    "rating": 4.6,
    "ratings": 236,
    "status": "OPERATIONAL",
    "tel": "(514) 508-3309",
    "website": "http://mabrasserie.com/"
  },
  {
    "address": "2728 Boulevard du Saguenay, Jonqui√®re, QC G7S 5C3, Canada",
    "avatar": false,
    "banner": false,
    "city": "Saguenay",
    "lat": 48.4334263,
    "lng": -71.1756475,
    "name": "br77 Microbrasserie",
    "postal": "G7S 5C3",
    "rating": 4.4,
    "ratings": 8,
    "status": "OPERATIONAL",
    "tel": "(418) 540-2731",
    "website": "https://www.facebook.com/BR77-Microbrasserie-1347845188602856/"
  },
  {
    "address": "408 Boulevard Manseau, Joliette, QC J6E 3E1, Canada",
    "avatar": false,
    "banner": false,
    "city": "Joliette",
    "lat": 46.025454,
    "lng": -73.4394964,
    "name": "Brasserie Artisanale Albion",
    "postal": "J6E 3E1",
    "rating": 4.6,
    "ratings": 368,
    "status": "OPERATIONAL",
    "tel": "(450) 759-7482",
    "website": "http://www.brasseriealbion.com/"
  },
  {
    "address": "670 Rue Auguste Mondoux #4, Gatineau, QC J9J 3K3, Canada",
    "avatar": false,
    "banner": false,
    "city": "Gatineau",
    "lat": 45.4432,
    "lng": -75.8131726,
    "name": "Brasserie Artisanale Gallicus",
    "postal": "J9J 3K3",
    "rating": 4.7,
    "ratings": 106,
    "status": "OPERATIONAL",
    "tel": null,
    "website": "http://www.facebook.com/bieresgallicus"
  },
  {
    "address": "2049 Rue Saint-Denis, Montr√©al, QC H2X 3K8, Canada",
    "avatar": false,
    "banner": false,
    "city": "Montr√©al",
    "lat": 45.5164172,
    "lng": -73.5660403,
    "name": "Brasserie Artisanale L'Am√®re A Boire Inc",
    "postal": "H2X 3K8",
    "rating": 4.4,
    "ratings": 923,
    "status": "OPERATIONAL",
    "tel": "(514) 282-7448",
    "website": "http://www.amereaboire.com/"
  },
  {
    "address": "32 Rue Turgeon, Sainte-Th√©r√®se, QC J7E 3H4, Canada",
    "avatar": false,
    "banner": false,
    "city": "Sainte-Th√©r√®se",
    "lat": 45.6385417,
    "lng": -73.84075,
    "name": "Brasserie Artisanale Le Saint-Graal Inc",
    "postal": "J7E 3H4",
    "rating": 4.6,
    "ratings": 421,
    "status": "OPERATIONAL",
    "tel": "(450) 818-6039",
    "website": "http://www.saintgraal.ca/"
  },
  {
    "address": "557 QC-131, Notre-Dame-des-Prairies, QC J6E 0M1, Canada",
    "avatar": false,
    "banner": false,
    "city": null,
    "lat": 46.0617058,
    "lng": -73.4192973,
    "name": "Brasserie Maltstrom",
    "postal": "J6E 0M1",
    "rating": 4.8,
    "ratings": 72,
    "status": "OPERATIONAL",
    "tel": "(450) 394-3868",
    "website": "http://www.maltstrom.com/"
  },
  {
    "address": "397 Route des P√®res, Val-d'Espoir, QC G0C 3G0, Canada",
    "avatar": false,
    "banner": false,
    "city": "Val-d'Espoir",
    "lat": 48.493416,
    "lng": -64.3878344,
    "name": "Brasserie Auval",
    "postal": "G0C 3G0",
    "rating": 4.6,
    "ratings": 79,
    "status": "OPERATIONAL",
    "tel": null,
    "website": "http://auval.ca/"
  },
  {
    "address": "259 Rue de Villemure, Saint-J√©r√¥me, QC J7Z 5J4, Canada",
    "avatar": true,
    "banner": false,
    "city": "Saint-J√©r√¥me",
    "description": "On aime la bi√®re, et on veut que √ßa paraisse dans celles qu'on brasse! / We like beer, and we want it to show in the ones we brew!",
    "lat": 45.775337,
    "lng": -74.001584,
    "name": "Dieu du Ciel!",
    "postal": "J7Z 5J4",
    "rating": 4.7,
    "ratings": 1836,
    "status": "OPERATIONAL",
    "tel": "(450) 436-3438",
    "twitter": "Brasseries_DDC",
    "website": "http://dieuduciel.com/"
  },
  {
    "address": "455 Boulevard de la Gappe, Gatineau, QC J8T 0A2, Canada",
    "avatar": false,
    "banner": false,
    "city": "Gatineau",
    "lat": 45.4790101,
    "lng": -75.6998406,
    "name": "Brasserie du Bas-Canada",
    "postal": "J8T 0A2",
    "rating": 4.7,
    "ratings": 227,
    "status": "OPERATIONAL",
    "tel": "(819) 525-6162",
    "website": "http://www.brasseriebascanada.com/"
  },
  {
    "address": "43 Rue Industrielle, Coteau-du-Lac, QC J0P 1B0, Canada",
    "avatar": false,
    "banner": false,
    "city": "Coteau-du-Lac",
    "lat": 45.298317,
    "lng": -74.20441129999999,
    "name": "Brasserie du Bois Blanc",
    "postal": "J0P 1B0",
    "rating": 4.7,
    "ratings": 140,
    "status": "OPERATIONAL",
    "tel": "(514) 448-1221",
    "website": "http://boisblanc.ca/"
  },
  {
    "address": "3809 Rue Principale, Dunham, QC J0E 1M0, Canada",
    "avatar": false,
    "banner": false,
    "city": "Dunham",
    "lat": 45.13046500000001,
    "lng": -72.800523,
    "name": "Pub de la Brasserie Dunham",
    "postal": "J0E 1M0",
    "rating": 4.5,
    "ratings": 333,
    "status": "OPERATIONAL",
    "tel": "(450) 295-1500",
    "website": "http://brasseriedunham.com/"
  },
  {
    "address": "751 Rue Sainte Anne, Yamachiche, QC G0X 3L0, Canada",
    "avatar": false,
    "banner": false,
    "city": "Yamachiche",
    "lat": 46.2844427,
    "lng": -72.8276448,
    "name": "Brasserie D√©pareill√©e",
    "postal": "G0X 3L0",
    "rating": 4.5,
    "ratings": 116,
    "status": "OPERATIONAL",
    "tel": "(514) 206-5900",
    "website": "http://www.brasseriedepareillee.com/"
  },
  {
    "address": "1165 18e Rue, Qu√©bec, QC G1J 0G6, Canada",
    "avatar": false,
    "banner": false,
    "city": "Qu√©bec",
    "lat": 46.8354689,
    "lng": -71.22748659999999,
    "name": "Brasserie G√©n√©rale",
    "postal": "G1J 0G6",
    "rating": 4.5,
    "ratings": 260,
    "status": "OPERATIONAL",
    "tel": "(418) 204-2031",
    "website": "https://www.brasseriegenerale.com/"
  },
  {
    "address": "95 Rue Jean-Talon O, Montr√©al, QC H2R 2W8, Canada",
    "avatar": true,
    "banner": false,
    "city": "Montr√©al",
    "description": "Brasserie artisanale / Salle √† manger / Bar-salon",
    "lat": 45.5337963,
    "lng": -73.6194543,
    "name": "Brasserie Harricana",
    "postal": "H2R 2W8",
    "rating": 4.5,
    "ratings": 1975,
    "status": "OPERATIONAL",
    "tel": "(514) 303-3039",
    "twitter": "BHarricana",
    "website": "http://www.brasserieharricana.com/"
  },
  {
    "address": "655 Grande All√©e E, Qu√©bec, QC G1R 2K4, Canada",
    "avatar": false,
    "banner": false,
    "city": "Qu√©bec",
    "lat": 46.8063349,
    "lng": -71.2160048,
    "name": "Bar L'Inox - Brasserie - Sports Bar - Craft Beer - Happy Hour",
    "postal": "G1R 2K4",
    "rating": 4.2,
    "ratings": 975,
    "status": "OPERATIONAL",
    "tel": "(418) 692-2877",
    "website": "http://www.brasserieinox.com/"
  },
  {
    "address": "115 Rue Gaston-Dumoulin, Blainville, QC J7C 5V6, Canada",
    "avatar": false,
    "banner": false,
    "city": "Blainville",
    "lat": 45.6732396,
    "lng": -73.846617,
    "name": "Microbrasserie Kruhnen",
    "postal": "J7C 5V6",
    "rating": 5,
    "ratings": 13,
    "status": "OPERATIONAL",
    "tel": "(450) 419-3535",
    "website": "https://kruhnen.ca/"
  },
  {
    "address": "22 1re Avenue, Stoneham-et-Tewkesbury, QC G3C 0K7, Canada",
    "avatar": false,
    "banner": false,
    "city": "Stoneham-et-Tewkesbury",
    "lat": 46.988042,
    "lng": -71.369917,
    "name": "Brasserie artisanale La Souche - Stoneham",
    "postal": "G3C 0K7",
    "rating": 4.5,
    "ratings": 803,
    "status": "OPERATIONAL",
    "tel": "(418) 848-8529",
    "website": "http://lasouche.ca/"
  },
  {
    "address": "Chemin de l'a√©roport, Natashquan, QC G0G 2E0, Canada",
    "avatar": false,
    "banner": false,
    "city": "Natashquan",
    "lat": 50.1889016,
    "lng": -61.7887035,
    "name": "Brasserie La Mouche",
    "postal": "G0G 2E0",
    "rating": 5,
    "ratings": 3,
    "status": "OPERATIONAL",
    "tel": null,
    "website": "http://blamouche.com/"
  },
  {
    "address": "777 Avenue Lajoie, Dorval, QC H9P 1G7, Canada",
    "avatar": false,
    "banner": false,
    "city": "Dorval",
    "lat": 45.4612534,
    "lng": -73.728723,
    "name": "Louks Brewery",
    "postal": "H9P 1G7",
    "rating": 4.8,
    "ratings": 47,
    "status": "OPERATIONAL",
    "tel": null,
    "website": "http://louksbrew.ca/"
  },
  {
    "address": "100 Rue Plante, Sorel-Tracy, QC J3P 7P5, Canada",
    "avatar": false,
    "banner": false,
    "city": "Sorel-Tracy",
    "lat": 46.034392,
    "lng": -73.098418,
    "name": "Loup rouge",
    "postal": "J3P 7P5",
    "rating": 4.5,
    "ratings": 13,
    "status": "CLOSED_PERMANENTLY",
    "tel": "(450) 551-0660",
    "website": null
  },
  {
    "address": "5420 Rue Martineau, Saint-Hyacinthe, QC J2R 1T8, Canada",
    "avatar": false,
    "banner": false,
    "city": "Saint-Hyacinthe",
    "lat": 45.6450642,
    "lng": -72.96519599999999,
    "name": "St. Luke Brewery",
    "postal": "J2R 1T8",
    "rating": null,
    "ratings": null,
    "status": "OPERATIONAL",
    "tel": "(514) 261-1949",
    "website": "http://stlukebrewery.com/"
  },
  {
    "address": "5585 Rue de la Roche, Montr√©al, QC H2J 3K3, Canada",
    "avatar": false,
    "banner": false,
    "city": "Montr√©al",
    "lat": 45.5328866,
    "lng": -73.59040639999999,
    "name": "Les Brasseurs G M T Inc",
    "postal": "H2J 3K3",
    "rating": 4.1,
    "ratings": 14,
    "status": "OPERATIONAL",
    "tel": "(514) 274-4941",
    "website": "http://brasseursrj.com/"
  },
  {
    "address": "1065 Rue des Forges, Terrebonne, QC J6Y 0J9, Canada",
    "avatar": true,
    "banner": false,
    "city": "Terrebonne",
    "description": "",
    "lat": 45.6944611,
    "lng": -73.7545544,
    "name": "Brasserie Mille-√éles",
    "postal": "J6Y 0J9",
    "rating": 4.8,
    "ratings": 10,
    "status": "OPERATIONAL",
    "tel": "(450) 965-1515",
    "twitter": "Milleiles",
    "website": "http://www.brasseriemilleiles.com/"
  },
  {
    "address": "3900 201 Rte, Saint-Antoine-Abb√©, QC J0S 1N0, Canada",
    "avatar": false,
    "banner": false,
    "city": "Saint-Antoine-Abb√©",
    "lat": 45.05575510000001,
    "lng": -73.8945019,
    "name": "Brasserie Saint-Antoine-Abb√©",
    "postal": "J0S 1N0",
    "rating": 4.4,
    "ratings": 63,
    "status": "OPERATIONAL",
    "tel": "(450) 827-2040",
    "website": null
  },
  {
    "address": "617 Rue Simonds S, Granby, QC J2J 1C1, Canada",
    "avatar": true,
    "banner": true,
    "city": "Granby",
    "description": "Microbrasserie sp√©cialis√©e dans les bi√®res Allemandes. Situ√© √† Granby et en op√©ration depuis 2016.",
    "lat": 45.392477,
    "lng": -72.757008,
    "name": "Brasserie Vrooden",
    "postal": "J2J 1C1",
    "rating": 4.5,
    "ratings": 100,
    "status": "CLOSED_TEMPORARILY",
    "tel": "(450) 956-0703",
    "twitter": "mbvrooden",
    "website": "http://vrooden.com/"
  },
  {
    "address": "3755 Rue Picard porte 2, Saint-Hyacinthe, QC J2S 1H3, Canada",
    "avatar": true,
    "banner": true,
    "city": "Saint-Hyacinthe",
    "description": "Brasseurs du Monde se positionne comme un joueur √©mergent de qualit√© dans le domaine mondiale des microbrasseries. 450.250.2611/1.855.650.2611",
    "lat": 45.6351746,
    "lng": -72.9840028,
    "name": "Brasseurs du Monde",
    "postal": "J2S 1H3",
    "rating": 4.5,
    "ratings": 76,
    "status": "OPERATIONAL",
    "tel": "(450) 250-2611",
    "twitter": "BrasseurDuMonde",
    "website": "http://www.brasseursdumonde.com/"
  },
  {
    "address": "991 Rue Richelieu, Beloeil, QC J3G 4P8, Canada",
    "avatar": false,
    "banner": false,
    "city": "Beloeil",
    "lat": 45.5696084,
    "lng": -73.1990524,
    "name": "Brasseurs du moulin",
    "postal": "J3G 4P8",
    "rating": 4.2,
    "ratings": 952,
    "status": "OPERATIONAL",
    "tel": "(450) 527-1133",
    "website": "http://brasseursdumoulin.com/"
  },
  {
    "address": "1177 Chemin de la Canardi√®re, Qu√©bec, QC G1J 2C3, Canada",
    "avatar": false,
    "banner": false,
    "city": "Qu√©bec",
    "lat": 46.8331214,
    "lng": -71.22496149999999,
    "name": "Brasseurs sur demande inc.",
    "postal": "G1J 2C3",
    "rating": 4.8,
    "ratings": 268,
    "status": "OPERATIONAL",
    "tel": "(581) 700-4593",
    "website": null
  },
  {
    "address": "380 Rue Saint Paul Est, Montr√©al, QC H2Y 1H3, Canada",
    "avatar": false,
    "banner": false,
    "city": "Montr√©al",
    "lat": 45.509295,
    "lng": -73.55134,
    "name": "Pub BreWskey",
    "postal": "H2Y 1H3",
    "rating": 4.5,
    "ratings": 1671,
    "status": "OPERATIONAL",
    "tel": "(514) 507-2739",
    "website": "http://brewskey.ca/"
  },
  {
    "address": "107 Boulevard de Bromont, Bromont, QC J2L 2K7, Canada",
    "avatar": true,
    "banner": false,
    "city": "Bromont",
    "description": "",
    "lat": 45.3157143,
    "lng": -72.642442,
    "name": "Brouemont Micro - brasserie",
    "postal": "J2L 2K7",
    "rating": 4.5,
    "ratings": 1354,
    "status": "OPERATIONAL",
    "tel": "(450) 534-0001",
    "twitter": "brouemont",
    "website": "http://www.lebrouemont.com/"
  },
  {
    "address": "1219 Rue Crescent, Montr√©al, QC H3G 2B1, Canada",
    "avatar": true,
    "banner": true,
    "city": "Montr√©al",
    "description": "Brew Pub/Music Venue located in the heart of Montreal",
    "lat": 45.4967386,
    "lng": -73.57442499999999,
    "name": "Brutopia",
    "postal": "H3G 2B1",
    "rating": 4.3,
    "ratings": 2033,
    "status": "OPERATIONAL",
    "tel": "(514) 393-9277",
    "twitter": "BrutopiaBrewPub",
    "website": "http://www.brutopia.net/"
  },
  {
    "address": "6729 DE L'ESPLANADE AVE, Montr√©al, QC H2V 4P9, Canada",
    "avatar": false,
    "banner": false,
    "city": "Montr√©al",
    "lat": 45.52994899999999,
    "lng": -73.6156613,
    "name": "Brasserie BVM Inc",
    "postal": "H2V 4P9",
    "rating": 4.4,
    "ratings": 21,
    "status": "OPERATIONAL",
    "tel": "(514) 908-2337",
    "website": null
  },
  {
    "address": "540 Avenue Broadway, Shawinigan, QC G9N 1M3, Canada",
    "avatar": false,
    "banner": false,
    "city": "Shawinigan",
    "lat": 46.54108170000001,
    "lng": -72.7437412,
    "name": "Broadway Pub",
    "postal": "G9N 1M3",
    "rating": 4.1,
    "ratings": 267,
    "status": "OPERATIONAL",
    "tel": "(819) 537-0044",
    "website": "http://bwmicrobrasserie.com/"
  },
  {
    "address": "260 Boulevard Saint-Jean-Baptiste, Mercier, QC J6R 2B8, Canada",
    "avatar": false,
    "banner": false,
    "city": "Mercier",
    "lat": 45.336391,
    "lng": -73.728909,
    "name": "Brasserie distillerie Champ Libre",
    "postal": "J6R 2B8",
    "rating": 4.6,
    "ratings": 71,
    "status": "OPERATIONAL",
    "tel": "(450) 507-3533",
    "website": "http://www.champlibre.co/"
  },
  {
    "address": "8780 Boulevard Guillaume-Couture, L√©vis, QC G6V 9G9, Canada",
    "avatar": false,
    "banner": false,
    "city": "L√©vis",
    "lat": 46.8217437,
    "lng": -71.1269088,
    "name": "Corsaire Microbrasserie",
    "postal": "G6V 9G9",
    "rating": 4.5,
    "ratings": 99,
    "status": "OPERATIONAL",
    "tel": "(418) 903-9105",
    "website": "https://www.corsairemicro.com/"
  },
  {
    "address": "562 Chemin du Petit-Bernier, Saint-Jean-sur-Richelieu, QC J3B 6Y8, Canada",
    "avatar": false,
    "banner": false,
    "city": "Saint-Jean-sur-Richelieu",
    "lat": 45.271229,
    "lng": -73.307604,
    "name": "Microbrasserie Domaine Berthiaume",
    "postal": "J3B 6Y8",
    "rating": 4.9,
    "ratings": 85,
    "status": "OPERATIONAL",
    "tel": "(514) 715-4118",
    "website": "https://www.domaineberthiaume.com/"
  },
  {
    "address": "1626 Avenue Bourgogne, Chambly, QC J3L 1Y7, Canada",
    "avatar": false,
    "banner": false,
    "city": "Chambly",
    "lat": 45.44809710000001,
    "lng": -73.2875799,
    "name": "D√©lires et D√©lices Microbrasserie",
    "postal": "J3L 1Y7",
    "rating": 4.4,
    "ratings": 313,
    "status": "OPERATIONAL",
    "tel": "(450) 593-3233",
    "website": "http://deliresetdelices.com/"
  },
  {
    "address": "5350 Boulevard Henri-Bourassa, Qu√©bec, QC G1H 6Y9, Canada",
    "avatar": false,
    "banner": false,
    "city": "Qu√©bec",
    "lat": 46.851218,
    "lng": -71.2505261,
    "name": "Emporium Microbrasserie",
    "postal": "G1H 6Y9",
    "rating": 4.5,
    "ratings": 450,
    "status": "OPERATIONAL",
    "tel": "(418) 204-0514",
    "website": "http://microbrasserieemporiumquebec.ca/"
  },
  {
    "address": "8100 Rue Saint-Denis, Montr√©al, QC H2P 2G6, Canada",
    "avatar": true,
    "banner": false,
    "city": "Montr√©al",
    "description": "La Microbrasserie de Villeray.",
    "lat": 45.542404,
    "lng": -73.629528,
    "name": "EtOH Brasserie",
    "postal": "H2P 2G6",
    "rating": 4.4,
    "ratings": 1268,
    "status": "OPERATIONAL",
    "tel": "(514) 508-9894",
    "twitter": "EtOH_Brasserie",
    "website": "http://etohbrasserie.com/"
  },
  {
    "address": "401 Rue de Normandie N, Farnham, QC J2N, Canada",
    "avatar": true,
    "banner": true,
    "city": "Farnham",
    "description": "üç∫",
    "lat": 45.2846766,
    "lng": -72.988379,
    "name": "Farnham Ale & Lager",
    "postal": "J2N",
    "rating": 4.2,
    "ratings": 59,
    "status": "OPERATIONAL",
    "tel": "(450) 293-1116",
    "twitter": "FarnhamAle_QC",
    "website": "http://farnham-alelager.com/"
  },
  {
    "address": "2075 Chemin Ste Catherine, Saint-Polycarpe, QC J0P 1X0, Canada",
    "avatar": false,
    "banner": false,
    "city": "Saint-Polycarpe",
    "lat": 45.2956152,
    "lng": -74.3394759,
    "name": "Schoune Farm and Brewery",
    "postal": "J0P 1X0",
    "rating": 4.7,
    "ratings": 51,
    "status": "OPERATIONAL",
    "tel": "(450) 265-3765",
    "website": "http://www.schoune.com/"
  },
  {
    "address": "430, Rang 5 et, 6, Frampton, QC G0R 1M0, Canada",
    "avatar": true,
    "banner": false,
    "city": "Frampton",
    "description": "Microbrasserie fond√©e en 2011 situ√© en Beauce, produit maintenant 10 diff√©rentes bi√®res",
    "lat": 46.4842609,
    "lng": -70.78901809999999,
    "name": "Frampton Brasse",
    "postal": "G0R 1M0",
    "rating": 4.7,
    "ratings": 178,
    "status": "OPERATIONAL",
    "tel": "(418) 479-5683",
    "twitter": "BrasseFrampton",
    "website": "http://www.framptonbrasse.com/"
  },
  {
    "address": "9 Rue Aubry, Gatineau, QC J8X 2H1, Canada",
    "avatar": false,
    "banner": false,
    "city": "Gatineau",
    "lat": 45.4268372,
    "lng": -75.71566709999999,
    "name": "Gainsbourg Bistro-Brasserie",
    "postal": "J8X 2H1",
    "rating": 4.2,
    "ratings": 1018,
    "status": "OPERATIONAL",
    "tel": "(819) 777-3700",
    "website": "http://www.gainsbourg.ca/"
  },
  {
    "address": "3160 Boulevard des Forges, Trois-Rivi√®res, QC G8Z 1V6, Canada",
    "avatar": false,
    "banner": false,
    "city": "Trois-Rivi√®res",
    "lat": 46.349107,
    "lng": -72.5716968,
    "name": "Gambrinus Brasserie Artisanale",
    "postal": "G8Z 1V6",
    "rating": 4.5,
    "ratings": 566,
    "status": "OPERATIONAL",
    "tel": "(819) 691-3371",
    "website": "http://www.gambrinus.qc.ca/"
  },
  {
    "address": "195 Rue Saint-Vallier O, Qu√©bec, QC G1K 1J9, Canada",
    "avatar": false,
    "banner": false,
    "city": "Qu√©bec",
    "lat": 46.8117531,
    "lng": -71.234892,
    "name": "Brasserie Griendel",
    "postal": "G1K 1J9",
    "rating": 4.5,
    "ratings": 1300,
    "status": "OPERATIONAL",
    "tel": "(581) 742-2884",
    "website": "https://griendel.com/"
  },
  {
    "address": "273 Rue Bernard O, Montr√©al, QC H2V 1T5, Canada",
    "avatar": true,
    "banner": false,
    "city": "Montr√©al",
    "description": "Un broue-pub qui fait la promotion de produits locaux de qualit√© dans un cadre r√©solument urbain. Situ√© dans le coeur du Mile-End. http://t.co/RFYkVqQoOJ",
    "lat": 45.5240523,
    "lng": -73.6054149,
    "name": "Helm Microbrasserie",
    "postal": "H2V 1T5",
    "rating": 4.5,
    "ratings": 1138,
    "status": "OPERATIONAL",
    "tel": "(514) 276-0473",
    "twitter": "BrasseurHelm",
    "website": "http://www.helmmicrobrasserie.ca/"
  },
  {
    "address": "2377 Rue Saint-Dominique, Jonqui√®re, QC G7X 6L4, Canada",
    "avatar": false,
    "banner": false,
    "city": "Saguenay",
    "lat": 48.413794,
    "lng": -71.2536399,
    "name": "Microbrasserie HopEra",
    "postal": "G7X 6L4",
    "rating": 4.6,
    "ratings": 754,
    "status": "OPERATIONAL",
    "tel": "(418) 412-9900",
    "website": "https://www.hopera.ca/"
  },
  {
    "address": "Quebec, Canada",
    "avatar": false,
    "banner": false,
    "city": null,
    "lat": 52.9399159,
    "lng": -73.5491361,
    "name": "Brasserie Host",
    "postal": null,
    "rating": null,
    "ratings": null,
    "status": null,
    "tel": null,
    "website": "http://www.gouv.qc.ca/"
  },
  {
    "address": "1039 Rue Beaubien E, Montr√©al, QC H2S 1T3, Canada",
    "avatar": false,
    "banner": false,
    "city": "Montr√©al",
    "lat": 45.537562,
    "lng": -73.602051,
    "name": "Isle de Garde Brasserie",
    "postal": "H2S 1T3",
    "rating": 4.6,
    "ratings": 1852,
    "status": "OPERATIONAL",
    "tel": null,
    "website": "http://www.isledegarde.com/"
  },
  {
    "address": "22 QC-138, Kahnawake, QC J0L 1B0, Canada",
    "avatar": false,
    "banner": false,
    "city": "Kahnawake",
    "lat": 45.4008002,
    "lng": -73.68176749999999,
    "name": "Microbrasserie Kahnawake Brewing Company",
    "postal": "J0L 1B0",
    "rating": 4.7,
    "ratings": 304,
    "status": "OPERATIONAL",
    "tel": "(450) 632-3434",
    "website": "http://www.kahnawakebrewing.com/"
  },
  {
    "address": "380 Rue Dorchester, Qu√©bec, QC G1K 6A7, Canada",
    "avatar": false,
    "banner": false,
    "city": "Qu√©bec",
    "lat": 46.8138105,
    "lng": -71.2269127,
    "name": "Korrigane",
    "postal": "G1K 6A7",
    "rating": 4.5,
    "ratings": 473,
    "status": "CLOSED_TEMPORARILY",
    "tel": "(418) 614-0932",
    "website": "http://www.korrigane.ca/"
  },
  {
    "address": "2928 Chemin Ste Marie, Mascouche, QC J7K 1N7, Canada",
    "avatar": true,
    "banner": false,
    "city": "Mascouche",
    "description": "Zack Bruell - L'Albatros Brasserie + Bar - Cleveland OH 216-791-7880",
    "lat": 45.7483586,
    "lng": -73.6035878,
    "name": "L'Albatros, Brasserie artisanale",
    "postal": "J7K 1N7",
    "rating": 4.7,
    "ratings": 259,
    "status": "OPERATIONAL",
    "tel": "(450) 474-0033",
    "twitter": "albatrosCLE",
    "website": "http://www.facebook.com/LAlbatrosbrasserieartisanale"
  },
  {
    "address": "3632 Rue Ontario E, Montr√©al, QC H1W 3J4, Canada",
    "avatar": true,
    "banner": true,
    "city": "Montr√©al",
    "description": "Broue-pub: bi√®re brass√©e sur place!    #boirelocal + #hochelaga = ton deuxi√®me salon!",
    "lat": 45.5454778,
    "lng": -73.5444222,
    "name": "L‚ÄôEspace Public",
    "postal": "H1W 3J4",
    "rating": 4.6,
    "ratings": 948,
    "status": "CLOSED_TEMPORARILY",
    "tel": null,
    "twitter": "lespacepublic",
    "website": "http://www.lespacepublic.ca/"
  },
  {
    "address": "287 Rue des Erables, Neuville, QC G0A 2R0, Canada",
    "avatar": false,
    "banner": false,
    "city": "Neuville",
    "lat": 46.7121117,
    "lng": -71.55923190000001,
    "name": "L'Esprit de clocher",
    "postal": "G0A 2R0",
    "rating": 4.6,
    "ratings": 302,
    "status": "OPERATIONAL",
    "tel": "(418) 909-0675",
    "website": "http://espritdeclocher.ca/"
  },
  {
    "address": "187 Rue Notre Dame E, Victoriaville, QC G6P 3Z8, Canada",
    "avatar": false,
    "banner": false,
    "city": "Victoriaville",
    "lat": 46.056919,
    "lng": -71.955051,
    "name": "Microbrasserie L'Hermite",
    "postal": "G6P 3Z8",
    "rating": 4.6,
    "ratings": 494,
    "status": "OPERATIONAL",
    "tel": "(819) 604-3875",
    "website": "http://microhermite.com/"
  },
  {
    "address": "124 B Rue des Ateliers, Rimouski, QC G5M 1B5, Canada",
    "avatar": false,
    "banner": false,
    "city": "Rimouski",
    "lat": 48.4677685,
    "lng": -68.5056871,
    "name": "L'Octant - Microbrasserie Inc.",
    "postal": "G5M 1B5",
    "rating": 4.9,
    "ratings": 39,
    "status": "OPERATIONAL",
    "tel": "(418) 721-7788",
    "website": "http://loctant-microbrasserie.com/"
  },
  {
    "address": "4312 Boulevard de la Grande-All√©e, Boisbriand, QC J7H 1M9, Canada",
    "avatar": false,
    "banner": false,
    "city": "Boisbriand",
    "lat": 45.6362102,
    "lng": -73.8684454,
    "name": "Brasserie Grande All√©e",
    "postal": "J7H 1M9",
    "rating": 4.7,
    "ratings": 6,
    "status": "OPERATIONAL",
    "tel": null,
    "website": "https://www.facebook.com/labrasserieGA/"
  },
  {
    "address": "1950 Chemin du Fer-√†-Cheval, Sainte-Julie, QC J3E 2T6, Canada",
    "avatar": false,
    "banner": false,
    "city": "Sainte-Julie",
    "lat": 45.5756731,
    "lng": -73.32691129999999,
    "name": "Broue Shop Brasserie Artisanale",
    "postal": "J3E 2T6",
    "rating": 4.4,
    "ratings": 405,
    "status": "OPERATIONAL",
    "tel": "(450) 649-6669",
    "website": "http://www.facebook.com/BroueShopBrasserieArtisanale/"
  },
  {
    "address": "140 Boulevard Saint-Benoit O, Amqui, QC G5J 2E8, Canada",
    "avatar": true,
    "banner": false,
    "city": "Amqui",
    "description": "Microbrasserie situ√©e √† Amqui en plein coeur de la Vall√©e de la Matap√©dia!",
    "lat": 48.465618,
    "lng": -67.4337269,
    "name": "La Captive",
    "postal": "G5J 2E8",
    "rating": 4.4,
    "ratings": 434,
    "status": "OPERATIONAL",
    "tel": "(418) 631-1343",
    "twitter": "microlacaptive",
    "website": "http://www.lacaptive.ca/"
  },
  {
    "address": "4385 Terrasse des Ch√™nes, Saint-Antoine-de-Tilly, QC G0S 2C0, Canada",
    "avatar": false,
    "banner": false,
    "city": "Saint-Antoine-de-Tilly",
    "lat": 46.6556431,
    "lng": -71.6018991,
    "name": "La Confr√©rie microbrasserie",
    "postal": "G0S 2C0",
    "rating": 4.6,
    "ratings": 103,
    "status": "OPERATIONAL",
    "tel": "(581) 982-8484",
    "website": "https://www.facebook.com/laconfrerie.microbrasserie/"
  },
  {
    "address": "2385 Boulevard Thibeau #204, Trois-Rivi√®res, QC G8T 1G1, Canada",
    "avatar": false,
    "banner": false,
    "city": "Trois-Rivi√®res",
    "lat": 46.411978,
    "lng": -72.577848,
    "name": "Microbrasserie La Forge du Malt",
    "postal": "G8T 1G1",
    "rating": 4.7,
    "ratings": 23,
    "status": "OPERATIONAL",
    "tel": "(819) 701-3930",
    "website": "http://www.laforgedumalt.com/"
  },
  {
    "address": "151 Rue King Ouest, Sherbrooke, QC J1H 5B7, Canada",
    "avatar": false,
    "banner": false,
    "city": "Sherbrooke",
    "lat": 45.40090499999999,
    "lng": -71.8916509,
    "name": "Micro-Brasserie La Mare au Diable",
    "postal": "J1H 5B7",
    "rating": 4.5,
    "ratings": 103,
    "status": "OPERATIONAL",
    "tel": "(819) 562-1001",
    "website": "http://www.lamareaudiable.ca/"
  },
  {
    "address": "355 Rue Saint Z√©phirin, La Tuque, QC G9X 1X3, Canada",
    "avatar": false,
    "banner": false,
    "city": "La Tuque",
    "lat": 47.4309982,
    "lng": -72.78238499999999,
    "name": "Microbrasserie La P√©cheresse",
    "postal": "G9X 1X3",
    "rating": 4.7,
    "ratings": 105,
    "status": "OPERATIONAL",
    "tel": "(819) 709-6844",
    "website": "http://www.lapecheresse.ca/"
  },
  {
    "address": "Saint-Georges, QC G5Y 2C8, Canada",
    "avatar": false,
    "banner": false,
    "city": "Saint-Georges",
    "lat": 46.1214319,
    "lng": -70.6740664,
    "name": "La Soci√©t√© Microbrasserie",
    "postal": "G5Y 2C8",
    "rating": 4.4,
    "ratings": 135,
    "status": "CLOSED_TEMPORARILY",
    "tel": "(418) 226-4646",
    "website": null
  },
  {
    "address": "22 1re Avenue, Stoneham-et-Tewkesbury, QC G3C 0K7, Canada",
    "avatar": false,
    "banner": false,
    "city": "Stoneham-et-Tewkesbury",
    "lat": 46.988042,
    "lng": -71.369917,
    "name": "La Souche",
    "postal": "G3C 0K7",
    "rating": 4.5,
    "ratings": 803,
    "status": "OPERATIONAL",
    "tel": "(418) 848-8529",
    "website": "http://lasouche.ca/"
  },
  {
    "address": "3188 Rue Masson, Montr√©al, QC H1Y 1Y1, Canada",
    "avatar": true,
    "banner": false,
    "city": "Montr√©al",
    "description": "Petite brasserie artisanale du Vieux-Rosemont, Montr√©al, Qu√©bec, Canada.\r\n3188 rue Masson",
    "lat": 45.5501776,
    "lng": -73.5734308,
    "name": "La Succursale",
    "postal": "H1Y 1Y1",
    "rating": 4.4,
    "ratings": 945,
    "status": "OPERATIONAL",
    "tel": "(514) 508-1615",
    "twitter": "LaSuccursale",
    "website": "http://lasuccursale.com/"
  },
  {
    "address": "517 Rue Racine E, Chicoutimi, QC G7H 1T8, Canada",
    "avatar": false,
    "banner": false,
    "city": "Saguenay",
    "lat": 48.4290227,
    "lng": -71.0523135,
    "name": "La Tour √† Bi√®res",
    "postal": "G7H 1T8",
    "rating": 4.3,
    "ratings": 464,
    "status": "OPERATIONAL",
    "tel": "(418) 545-7272",
    "website": "http://latourabieres.com/"
  },
  {
    "address": "224 Rue des Laurentides, Chicoutimi, QC G7H 7X8, Canada",
    "avatar": false,
    "banner": false,
    "city": "Saguenay",
    "lat": 48.3992618,
    "lng": -71.0651796,
    "name": "Microbrasserie du Saguenay - La Voie Malt√©e",
    "postal": "G7H 7X8",
    "rating": 4.4,
    "ratings": 34,
    "status": "OPERATIONAL",
    "tel": "(418) 615-1414",
    "website": "http://lavoiemaltee.com/"
  },
  {
    "address": "167 Rue Richelieu, Saint-Jean-sur-Richelieu, QC J3B 6X7, Canada",
    "avatar": false,
    "banner": false,
    "city": "Saint-Jean-sur-Richelieu",
    "lat": 45.305369,
    "lng": -73.250618,
    "name": "Lagabi√®re",
    "postal": "J3B 6X7",
    "rating": 4.6,
    "ratings": 940,
    "status": "OPERATIONAL",
    "tel": "(450) 376-6343",
    "website": "http://www.lagabiere.com/"
  },
  {
    "address": "141 Avenue Belzile, Rimouski, QC G5L 3E5, Canada",
    "avatar": true,
    "banner": true,
    "city": "Rimouski",
    "description": "Brasserie artisanale | Twitter anim√© par des amoureux de bi√®re, de bouffe et du Bas-Saint-Laurent. Buvez local! #CraftBeer #Bi√®reArtisanale",
    "lat": 48.4533333,
    "lng": -68.5236111,
    "name": "Le Bien Le Malt",
    "postal": "G5L 3E5",
    "rating": 4.5,
    "ratings": 500,
    "status": "OPERATIONAL",
    "tel": "(418) 723-1339",
    "twitter": "leBienleMalt",
    "website": "http://lebienlemalt.com/"
  },
  {
    "address": "Quebec, Canada",
    "avatar": false,
    "banner": false,
    "city": null,
    "lat": 52.9399159,
    "lng": -73.5491361,
    "name": "OLTEN",
    "postal": null,
    "rating": null,
    "ratings": null,
    "status": null,
    "tel": null,
    "website": "http://www.gouv.qc.ca/"
  },
  {
    "address": "50 Rue Wellington N, Sherbrooke, QC J1H 5B7, Canada",
    "avatar": true,
    "banner": true,
    "city": "Sherbrooke",
    "description": "",
    "lat": 45.4023797,
    "lng": -71.8907047,
    "name": "Boqu√©bi√®re",
    "postal": "J1H 5B7",
    "rating": 4.4,
    "ratings": 529,
    "status": "OPERATIONAL",
    "tel": "(819) 542-1311",
    "twitter": "Boquebiere",
    "website": "http://boquebiere.com/"
  },
  {
    "address": "21 Rue Pelletier, Trois-Pistoles, QC G0L 4K0, Canada",
    "avatar": true,
    "banner": true,
    "city": "Trois-Pistoles",
    "description": "Fondateur et brasseur, Le Caveau des Trois-Pistoles - https://t.co/G20sPAbVdy",
    "lat": 48.1245483,
    "lng": -69.1753032,
    "name": "Le Caveau des Trois-Pistoles",
    "postal": "G0L 4K0",
    "rating": 4.6,
    "ratings": 73,
    "status": "OPERATIONAL",
    "tel": "(418) 851-4440",
    "twitter": "nfalcimaigne",
    "website": "http://caveau3pistoles.com/"
  },
  {
    "address": "809 Rue Ontario E, Montr√©al, QC H2L 1P1, Canada",
    "avatar": false,
    "banner": false,
    "city": "Montr√©al",
    "lat": 45.5181806,
    "lng": -73.56428609999999,
    "name": "Le Cheval Blanc",
    "postal": "H2L 1P1",
    "rating": 4.4,
    "ratings": 989,
    "status": "OPERATIONAL",
    "tel": "(514) 522-0211",
    "website": "https://lechevalblanc.ca/"
  },
  {
    "address": "223 Rue Principale, Granby, QC J2G 2V7, Canada",
    "avatar": false,
    "banner": false,
    "city": "Granby",
    "lat": 45.4005149,
    "lng": -72.7277573,
    "name": "Micro Brasserie Le Grimoire (Restaurant-Pub)",
    "postal": "J2G 2V7",
    "rating": 4.1,
    "ratings": 522,
    "status": "CLOSED_TEMPORARILY",
    "tel": "(450) 305-0130",
    "website": "http://www.brasseriegrimoire.com/"
  },
  {
    "address": "178 1re Avenue O, Sainte-Anne-des-Monts, QC G4V 1C9, Canada",
    "avatar": false,
    "banner": false,
    "city": "Sainte-Anne-des-Monts",
    "lat": 49.1275608,
    "lng": -66.49643569999999,
    "name": "Microbrasserie Le Malbord",
    "postal": "G4V 1C9",
    "rating": 4.5,
    "ratings": 586,
    "status": "CLOSED_TEMPORARILY",
    "tel": "(418) 764-0022",
    "website": "http://www.lemalbord.com/"
  },
  {
    "address": "1247 Avenue Mgr D'Esgly, Saint-Pierre, QC G0A 4E0, Canada",
    "avatar": true,
    "banner": true,
    "city": "Saint-Pierre",
    "description": "Book Le Presbyt√®re now ! \n#events #meetings #eventprofs #gastronomie #lemans #insarthewetrust #experiences #seminaire #evenementiel",
    "lat": 46.8891491,
    "lng": -71.07417509999999,
    "name": "Le Presbyt√®re",
    "postal": "G0A 4E0",
    "rating": 3.5,
    "ratings": 24,
    "status": "OPERATIONAL",
    "tel": "(418) 828-9723",
    "twitter": "lepresbystere",
    "website": "http://www.presbytere.com/"
  },
  {
    "address": "2155 Rue Galt O, Sherbrooke, QC J1K 1K3, Canada",
    "avatar": false,
    "banner": false,
    "city": "Sherbrooke",
    "lat": 45.3872378,
    "lng": -71.9260007,
    "name": "Le Refuge des Brasseurs",
    "postal": "J1K 1K3",
    "rating": 4.5,
    "ratings": 226,
    "status": "OPERATIONAL",
    "tel": "(819) 791-7574",
    "website": "http://www.refugedesbrasseurs.ca/"
  },
  {
    "address": "1749 Rue Saint-Denis, Montr√©al, QC H2X 3K4, Canada",
    "avatar": true,
    "banner": false,
    "city": "Montr√©al",
    "description": "Le Saint-Bock...LE PLUS GRAND CHOIX DE BI√àRE √Ä MONTR√âAL !",
    "lat": 45.5158082,
    "lng": -73.56464059999999,
    "name": "Le Saint Bock",
    "postal": "H2X 3K4",
    "rating": 4.3,
    "ratings": 3119,
    "status": "OPERATIONAL",
    "tel": "(514) 680-8052",
    "twitter": "LeSaintBock",
    "website": "http://saintbock.com/"
  },
  {
    "address": "1252 Chemin Gu√©rette, Poh√©n√©gamook, QC G0L 1J0, Canada",
    "avatar": false,
    "banner": false,
    "city": "Poh√©n√©gamook",
    "lat": 47.4612673,
    "lng": -69.2245927,
    "name": "Microbrasserie Le Secret des Dieux",
    "postal": "G0L 1J0",
    "rating": 4.7,
    "ratings": 371,
    "status": "OPERATIONAL",
    "tel": "(418) 859-3438",
    "website": "http://www.lesecretdesdieux.com/"
  },
  {
    "address": "1465 Rue Notre Dame Centre, Trois-Rivi√®res, QC G9A 4X4, Canada",
    "avatar": true,
    "banner": true,
    "city": "Trois-Rivi√®res",
    "description": "Nous sommes une #microbrasserie #bistronome et #torrefacteur situ√© au coeur du centre-ville de #TroisRivi√®res. || Bi√®res, caf√©s et repas pr√©par√©s sur place!",
    "lat": 46.341457,
    "lng": -72.540593,
    "name": "Le Temps d'une Pinte",
    "postal": "G9A 4X4",
    "rating": 4.6,
    "ratings": 371,
    "status": "OPERATIONAL",
    "tel": "(819) 694-4484",
    "twitter": "tempsdunepinte",
    "website": "http://letempsdunepinte.ca/"
  },
  {
    "address": "145 Avenue Principale, Rouyn-Noranda, QC J9X 4P3, Canada",
    "avatar": false,
    "banner": false,
    "city": "Rouyn-Noranda",
    "lat": 48.239329,
    "lng": -79.01976499999999,
    "name": "Le Tr√®fle Noir Brasserie Artisanale",
    "postal": "J9X 4P3",
    "rating": 4.8,
    "ratings": 196,
    "status": "OPERATIONAL",
    "tel": "(819) 762-6611",
    "website": "http://www.letreflenoir.com/"
  },
  {
    "address": "485 Rue Notre Dame, Montebello, QC J0V 1L0, Canada",
    "avatar": false,
    "banner": false,
    "city": "Montebello",
    "lat": 45.6502778,
    "lng": -74.94388889999999,
    "name": "Brewers Montebello",
    "postal": "J0V 1L0",
    "rating": 4.8,
    "ratings": 36,
    "status": "OPERATIONAL",
    "tel": "(819) 309-0807",
    "website": "http://brasseursdemontebello.com/"
  },
  {
    "address": "92 Boulevard de Bromont, Bromont, QC J2L 2K6, Canada",
    "avatar": false,
    "banner": false,
    "city": "Bromont",
    "lat": 45.317631,
    "lng": -72.644212,
    "name": "Les Brasseurs de West Shefford",
    "postal": "J2L 2K6",
    "rating": 4.5,
    "ratings": 6,
    "status": "OPERATIONAL",
    "tel": "(450) 919-0691",
    "website": "https://www.brasseursdewestshefford.ca/"
  },
  {
    "address": "415 Rue Tessier E, Saint-Casimir, QC G0A 3L0, Canada",
    "avatar": false,
    "banner": false,
    "city": "Saint-Casimir",
    "lat": 46.6580758,
    "lng": -72.1364041,
    "name": "Microbrewery Les Grands Bois",
    "postal": "G0A 3L0",
    "rating": 4.3,
    "ratings": 54,
    "status": "OPERATIONAL",
    "tel": "(418) 266-3815",
    "website": "http://www.lesgrandsbois.com/"
  },
  {
    "address": "275 Boulevard de la Concorde E, Laval, QC H7G 2E5, Canada",
    "avatar": false,
    "banner": false,
    "city": "Laval",
    "lat": 45.5769464,
    "lng": -73.6811005,
    "name": "Les Insulaires Microbrasseurs",
    "postal": "H7G 2E5",
    "rating": 4.6,
    "ratings": 732,
    "status": "OPERATIONAL",
    "tel": "(450) 967-8080",
    "website": "http://www.lesinsulaires.ca/"
  },
  {
    "address": "1900 Rue le Ber, Montr√©al, QC H3K 2A4, Canada",
    "avatar": false,
    "banner": false,
    "city": "Montr√©al",
    "lat": 45.48091420000001,
    "lng": -73.5523592,
    "name": "Les Sans-Taverne - Coop et Brasserie Artisanale",
    "postal": "H3K 2A4",
    "rating": 4.7,
    "ratings": 233,
    "status": "OPERATIONAL",
    "tel": "(514) 536-0134",
    "website": "http://www.sans-taverne.coop/"
  },
  {
    "address": "45 Rue Saint Joseph, Alma, QC G8B 3E2, Canada",
    "avatar": false,
    "banner": false,
    "city": "Alma",
    "lat": 48.5504142,
    "lng": -71.6512777,
    "name": "Microbrasserie Lion Bleu",
    "postal": "G8B 3E2",
    "rating": 4.4,
    "ratings": 245,
    "status": "OPERATIONAL",
    "tel": "(418) 769-0795",
    "website": "http://www.microlionbleu.com/"
  },
  {
    "address": "2902 Rue College, Sherbrooke, QC J1M 1T4, Canada",
    "avatar": false,
    "banner": false,
    "city": "Sherbrooke",
    "lat": 45.3659442,
    "lng": -71.8561304,
    "name": "Golden Lion Pub",
    "postal": "J1M 1T4",
    "rating": 4.2,
    "ratings": 344,
    "status": "CLOSED_TEMPORARILY",
    "tel": "(819) 565-1015",
    "website": "http://www.lionlennoxville.com/"
  },
  {
    "address": "2150 Chemin de Covey Hill, Hinchinbrooke, QC J0S 1E0, Canada",
    "avatar": false,
    "banner": false,
    "city": "Hinchinbrooke",
    "lat": 45.0155593,
    "lng": -73.9042889,
    "name": "Livingstone Brewing",
    "postal": "J0S 1E0",
    "rating": 4.8,
    "ratings": 28,
    "status": "OPERATIONAL",
    "tel": "(450) 827-2265",
    "website": "http://www.livingstonebrewery.com/"
  },
  {
    "address": "3755 Boul Matte Local C, Brossard, QC J4Y 2P4, Canada",
    "avatar": false,
    "banner": false,
    "city": "Brossard",
    "lat": 45.4309778,
    "lng": -73.4630158,
    "name": "Microbrasserie Les Trois Mousquetaires",
    "postal": "J4Y 2P4",
    "rating": 4.7,
    "ratings": 31,
    "status": "OPERATIONAL",
    "tel": "(450) 619-2372",
    "website": "http://lestroismousquetaires.ca/"
  },
  {
    "address": "1 Rue de la Rivi√©re, Clermont, QC G4A 1B5, Canada",
    "avatar": false,
    "banner": false,
    "city": "Clermont",
    "lat": 47.68829239999999,
    "lng": -70.2076159,
    "name": "Menaud",
    "postal": "G4A 1B5",
    "rating": 5,
    "ratings": 16,
    "status": "OPERATIONAL",
    "tel": null,
    "website": "http://menaud.ca/"
  },
  {
    "address": "310 Rue Brassard, Roberval, QC G8H 1Z6, Canada",
    "avatar": false,
    "banner": false,
    "city": "Roberval",
    "lat": 48.5032175,
    "lng": -72.2222149,
    "name": "Micro Beemer",
    "postal": "G8H 1Z6",
    "rating": 4.4,
    "ratings": 7,
    "status": "OPERATIONAL",
    "tel": "(418) 637-2836",
    "website": "http://www.microbeemer.com/"
  },
  {
    "address": "1304 Rue Saint-Patrick, Montr√©al, QC H3K 1A4, Canada",
    "avatar": true,
    "banner": true,
    "city": "Montr√©al",
    "description": "Microbrasserie | Taproom | Boutique\n1304 St-Patrick, Montr√©al H3K1A\n| Independent Craft #Brewery üññ\n| Apporter votre nourriture üòé\n| Dogs üêï Families welcome ü§ó",
    "lat": 45.4882101,
    "lng": -73.5578727,
    "name": "Microbrasserie 4 Origines",
    "postal": "H3K 1A4",
    "rating": 4.8,
    "ratings": 316,
    "status": "OPERATIONAL",
    "tel": "(514) 934-1444",
    "twitter": "4originesbeer",
    "website": "http://4origines.com/"
  },
  {
    "address": "41 Rue du Banc, Gasp√©, QC G4X 5E3, Canada",
    "avatar": false,
    "banner": false,
    "city": "Gasp√©",
    "lat": 48.9951101,
    "lng": -64.3900322,
    "name": "Microbrasserie Au Frontibus",
    "postal": "G4X 5E3",
    "rating": 4.7,
    "ratings": 219,
    "status": "OPERATIONAL",
    "tel": "(418) 360-5153",
    "website": "https://www.facebook.com/frontibus/"
  },
  {
    "address": "353 Rue Principale, Saint-Donat-de-Montcalm, QC J0T 2C0, Canada",
    "avatar": false,
    "banner": false,
    "city": "Saint-Donat-de-Montcalm",
    "lat": 46.3207903,
    "lng": -74.2248781,
    "name": "Microbrasserie Brouemalt",
    "postal": "J0T 2C0",
    "rating": 4.7,
    "ratings": 246,
    "status": "OPERATIONAL",
    "tel": "(819) 424-3311",
    "website": "http://www.brouemalt.com/"
  },
  {
    "address": "286 Boulevard de York S, Gasp√©, QC G4X 2L6, Canada",
    "avatar": false,
    "banner": false,
    "city": "Gasp√©",
    "lat": 48.80825919999999,
    "lng": -64.49041629999999,
    "name": "Microbrasserie Cap Gasp√©",
    "postal": "G4X 2L6",
    "rating": 4.5,
    "ratings": 209,
    "status": "OPERATIONAL",
    "tel": "(418) 360-9000",
    "website": "https://www.facebook.com/capgaspe/"
  },
  {
    "address": "6 Paul-Ren√© Tremblay, Baie-Saint-Paul, QC G3Z 2Y6, Canada",
    "avatar": true,
    "banner": true,
    "city": "Baie-Saint-Paul",
    "description": "",
    "lat": 47.4460534,
    "lng": -70.52203089999999,
    "name": "MicroBrasserie Charlevoix",
    "postal": "G3Z 2Y6",
    "rating": 4.5,
    "ratings": 39,
    "status": "OPERATIONAL",
    "tel": "(418) 435-3877",
    "twitter": "microbrasserie",
    "website": "http://www.microbrasserie.com/"
  },
  {
    "address": "1007 Rue Child, Coaticook, QC J1A 2S5, Canada",
    "avatar": false,
    "banner": false,
    "city": "Coaticook",
    "lat": 45.156984,
    "lng": -71.8003513,
    "name": "Microbrasserie Coaticook",
    "postal": "J1A 2S5",
    "rating": 3.6,
    "ratings": 148,
    "status": "OPERATIONAL",
    "tel": "(819) 804-1234",
    "website": "http://microbrasseriecoaticook.ca/"
  },
  {
    "address": "50 Boulevard Tach√© O, Montmagny, QC G5V 3A2, Canada",
    "avatar": false,
    "banner": false,
    "city": "Montmagny",
    "lat": 46.9803314,
    "lng": -70.5663527,
    "name": "Microbrasserie C√¥te-du-Sud",
    "postal": "G5V 3A2",
    "rating": 4.2,
    "ratings": 376,
    "status": "CLOSED_TEMPORARILY",
    "tel": "(418) 241-2287",
    "website": "http://microbrasseriecotedusud.com/"
  },
  {
    "address": "2471 Chemin Royal, Sainte-Famille, QC G0A 3P0, Canada",
    "avatar": false,
    "banner": false,
    "city": "Sainte-Famille",
    "lat": 46.9729949,
    "lng": -70.9630583,
    "name": "Microbrasserie de l'√éle d‚ÄôOrl√©ans",
    "postal": "G0A 3P0",
    "rating": 4.3,
    "ratings": 531,
    "status": "CLOSED_PERMANENTLY",
    "tel": "(418) 829-0408",
    "website": "http://www.microorleans.com/pub-le-mitan"
  },
  {
    "address": "9430 Boulevard Sainte-Anne, Sainte-Anne-de-Beaupr√©, QC G0A 3C0, Canada",
    "avatar": false,
    "banner": false,
    "city": "Sainte-Anne-de-Beaupr√©",
    "lat": 47.0160141,
    "lng": -70.94297019999999,
    "name": "Microbrewery Des Beaux Pr√©s",
    "postal": "G0A 3C0",
    "rating": 4.7,
    "ratings": 275,
    "status": "CLOSED_TEMPORARILY",
    "tel": "(418) 702-1128",
    "website": "http://www.mdbp.ca/"
  },
  {
    "address": "120 Rue de la Plage, Saint-G√©d√©on, QC G0W 2P0, Canada",
    "avatar": false,
    "banner": false,
    "city": "Saint-G√©d√©on",
    "lat": 48.4907148,
    "lng": -71.7801143,
    "name": "Microbrasserie du Lac St-Jean",
    "postal": "G0W 2P0",
    "rating": 4.5,
    "ratings": 176,
    "status": "OPERATIONAL",
    "tel": "(418) 345-8758",
    "website": "http://www.microdulac.com/"
  },
  {
    "address": "131 Boulevard Albiny Paquette, Mont-Laurier, QC J9L 1J2, Canada",
    "avatar": false,
    "banner": false,
    "city": "Mont-Laurier",
    "lat": 46.5495262,
    "lng": -75.512407,
    "name": "Microbrasserie Du Lievre",
    "postal": "J9L 1J2",
    "rating": 4.4,
    "ratings": 121,
    "status": "OPERATIONAL",
    "tel": "(819) 440-2440",
    "website": "http://www.microdulievre.com/"
  },
  {
    "address": "111 Rue Notre Dame N, Sainte-Marie, QC G6E 3Z4, Canada",
    "avatar": false,
    "banner": false,
    "city": "Sainte-Marie",
    "lat": 46.438743,
    "lng": -71.02443710000001,
    "name": "Microbrasserie Giboo Grill",
    "postal": "G6E 3Z4",
    "rating": 4.3,
    "ratings": 15,
    "status": "CLOSED_PERMANENTLY",
    "tel": "(418) 386-6897",
    "website": "http://www.giboogrill.com/"
  },
  {
    "address": "2350 Rue Dickson, Montr√©al, QC H1N 3T1, Canada",
    "avatar": false,
    "banner": false,
    "city": "Montr√©al",
    "lat": 45.5674036,
    "lng": -73.5372845,
    "name": "Brasseurs Sans Gluten Inc",
    "postal": "H1N 3T1",
    "rating": 4.3,
    "ratings": 24,
    "status": "OPERATIONAL",
    "tel": "(514) 933-2333",
    "website": "http://www.glutenberg.ca/"
  },
  {
    "address": "4535 Boulevard de la Grande-All√©e, Boisbriand, QC J0N 1M0, Canada",
    "avatar": false,
    "banner": false,
    "city": "Boisbriand",
    "lat": 45.63796560000001,
    "lng": -73.872888,
    "name": "Microbrasserie Goudale",
    "postal": "J0N 1M0",
    "rating": 3.3,
    "ratings": 8,
    "status": "CLOSED_PERMANENTLY",
    "tel": "(450) 419-3004",
    "website": null
  },
  {
    "address": "1507 Avenue Saint-Louis, Plessisville, QC G6L 2M7, Canada",
    "avatar": false,
    "banner": false,
    "city": "Plessisville",
    "lat": 46.2189922,
    "lng": -71.77099129999999,
    "name": "Micro-Brasserie Kapadokya",
    "postal": "G6L 2M7",
    "rating": 4.4,
    "ratings": 122,
    "status": "OPERATIONAL",
    "tel": "(819) 362-9362",
    "website": "https://www.facebook.com/Microbrasserie-Kapadokya-229066360625351/info/?tab=overview"
  },
  {
    "address": "473 Rang 1er N, Charette, QC G0X 1E0, Canada",
    "avatar": false,
    "banner": false,
    "city": "Charette",
    "lat": 46.4563446,
    "lng": -72.9442435,
    "name": "Microbrasserie l'Arsenal",
    "postal": "G0X 1E0",
    "rating": 4.6,
    "ratings": 60,
    "status": "CLOSED_PERMANENTLY",
    "tel": "(819) 221-4677",
    "website": null
  },
  {
    "address": "465 Rue Notre-Dame local 108, Repentigny, QC J6A 2T3, Canada",
    "avatar": false,
    "banner": false,
    "city": "Repentigny",
    "lat": 45.739579,
    "lng": -73.446345,
    "name": "Microbrasserie L'Ours Brun",
    "postal": "J6A 2T3",
    "rating": 4.5,
    "ratings": 175,
    "status": "CLOSED_PERMANENTLY",
    "tel": "(450) 657-5050",
    "website": "http://www.loursbrun.ca/"
  },
  {
    "address": "310 Rue Saint-Roch, Qu√©bec, QC G1K 6S2, Canada",
    "avatar": true,
    "banner": false,
    "city": "Qu√©bec",
    "description": "On vous en fait boire de toutes les couleurs depuis 1997! Coop. de travail situ√©e dans le quartier St-Roch √† Qu√©bec. Salon ouvert 7 jours de midi √† 01h00 AM.",
    "lat": 46.8178912,
    "lng": -71.2180951,
    "name": "La Barberie",
    "postal": "G1K 6S2",
    "rating": 4.6,
    "ratings": 483,
    "status": "OPERATIONAL",
    "tel": "(418) 522-4373",
    "twitter": "labarberie",
    "website": "http://www.labarberie.com/"
  },
  {
    "address": "1810 Route des Rivi√®res #402, Saint-Nicolas, QC G7A 2P6, Canada",
    "avatar": true,
    "banner": true,
    "city": "Saint-Nicolas",
    "description": "Brasserie artisanale, pub",
    "lat": 46.7114214,
    "lng": -71.2904186,
    "name": "La Boite √† Malt",
    "postal": "G7A 2P6",
    "rating": 4.3,
    "ratings": 835,
    "status": "OPERATIONAL",
    "tel": "(418) 836-1000",
    "twitter": "Boiteamalt",
    "website": "http://boiteamalt.com/"
  },
  {
    "address": "220 Rue Saint-Jean-Baptiste, L'Anse-Saint-Jean, QC G0V 1J0, Canada",
    "avatar": false,
    "banner": false,
    "city": "L'Anse-Saint-Jean",
    "lat": 48.2298844,
    "lng": -70.2129434,
    "name": "Microbrasserie La Chasse-Pinte",
    "postal": "G0V 1J0",
    "rating": 5,
    "ratings": 11,
    "status": "OPERATIONAL",
    "tel": "(418) 608-8559",
    "website": "http://www.chasse-pinte.com/"
  },
  {
    "address": "15 Rue P√®re Divet, Sept-√éles, QC G4R 5B6, Canada",
    "avatar": true,
    "banner": true,
    "city": "Sept-√éles",
    "description": "üç∫",
    "lat": 50.2074059,
    "lng": -66.3877564,
    "name": "Microbrasserie La Compagnie",
    "postal": "G4R 5B6",
    "rating": 4.6,
    "ratings": 139,
    "status": "OPERATIONAL",
    "tel": "(418) 961-2337",
    "twitter": "microlacompagni",
    "website": "http://www.microlacompagnie.com/"
  },
  {
    "address": "117 Chemin de Kandahar, Mont-Tremblant, QC J8E 1B1, Canada",
    "avatar": true,
    "banner": true,
    "city": "Mont-Tremblant",
    "description": "Venez d√©guster La Diable au Corps, gagnante d'une m√©daille d‚Äôargent, cat√©gorie Imperial Indian Pale Ale aux Canadian Brewing Awards #biere #microbrasserie",
    "lat": 46.211563,
    "lng": -74.585853,
    "name": "Microbrasserie La Diable",
    "postal": "J8E 1B1",
    "rating": 4.3,
    "ratings": 1398,
    "status": "OPERATIONAL",
    "tel": "(819) 681-4546",
    "twitter": "BrasseursDT",
    "website": "http://www.microladiable.com/"
  },
  {
    "address": "12 Rue Merry S, Magog, QC J1X 3K9, Canada",
    "avatar": false,
    "banner": false,
    "city": "Magog",
    "lat": 45.266292,
    "lng": -72.155366,
    "name": "Microbrasserie La Memphr√©",
    "postal": "J1X 3K9",
    "rating": 4.5,
    "ratings": 1825,
    "status": "OPERATIONAL",
    "tel": "(819) 843-3405",
    "website": "http://www.lamemphre.com/"
  },
  {
    "address": "195 Rue Brissette porte 72, Sainte-Agathe-des-Monts, QC J8C 2Z8, Canada",
    "avatar": false,
    "banner": false,
    "city": "Sainte-Agathe-des-Monts",
    "lat": 46.0556334,
    "lng": -74.2699952,
    "name": "Microbrasserie La Veill√©e",
    "postal": "J8C 2Z8",
    "rating": 5,
    "ratings": 13,
    "status": "OPERATIONAL",
    "tel": "(819) 774-3622 ext. 402",
    "website": "http://www.microlaveillee.com/"
  },
  {
    "address": "133 Avenue Labrosse, Pointe-Claire, QC H9R 1A3, Canada",
    "avatar": false,
    "banner": false,
    "city": "Pointe-Claire",
    "lat": 45.4766675,
    "lng": -73.8178026,
    "name": "Microbrasserie Labrosse",
    "postal": "H9R 1A3",
    "rating": 4.9,
    "ratings": 137,
    "status": "OPERATIONAL",
    "tel": "(514) 695-7770",
    "website": "http://www.labrosse.com/"
  },
  {
    "address": "1430 Rue de l'Acad√©mie, Val-David, QC J0T 2N0, Canada",
    "avatar": false,
    "banner": false,
    "city": "Val-David",
    "lat": 46.0317579,
    "lng": -74.21013180000001,
    "name": "Pub - Microbrasserie Le Baril Roulant",
    "postal": "J0T 2N0",
    "rating": 4.5,
    "ratings": 770,
    "status": "OPERATIONAL",
    "tel": "(888) 540-4840",
    "website": "http://www.barilroulant.com/"
  },
  {
    "address": "2400 Rue Canadien, Drummondville, QC J2C 7W3, Canada",
    "avatar": false,
    "banner": false,
    "city": "Drummondville",
    "lat": 45.8826473,
    "lng": -72.5443433,
    "name": "The microbrewery BockAle",
    "postal": "J2C 7W3",
    "rating": 4.7,
    "ratings": 71,
    "status": "OPERATIONAL",
    "tel": "(819) 857-4857",
    "website": "http://www.lebockale.com/"
  },
  {
    "address": "67 Chemin des Vinaigriers, Rigaud, QC J0P 1P0, Canada",
    "avatar": false,
    "banner": false,
    "city": "Rigaud",
    "lat": 45.4859944,
    "lng": -74.31798719999999,
    "name": "Microbrasserie Le Castor",
    "postal": "J0P 1P0",
    "rating": 4.7,
    "ratings": 37,
    "status": "OPERATIONAL",
    "tel": "(450) 451-2337",
    "website": "http://microlecastor.ca/"
  },
  {
    "address": "1551 Boulevard Wallberg, Dolbeau-Mistassini, QC G8L 1H5, Canada",
    "avatar": false,
    "banner": false,
    "city": "Dolbeau-Mistassini",
    "lat": 48.8797482,
    "lng": -72.2304707,
    "name": "Microbrasserie Le Coureur Des Bois Inc",
    "postal": "G8L 1H5",
    "rating": 4.7,
    "ratings": 106,
    "status": "OPERATIONAL",
    "tel": "(418) 979-1197",
    "website": "http://www.microlecoureurdesbois.com/"
  },
  {
    "address": "355 Boulevard de l'Ange-Gardien, L'Assomption, QC J5W 1S4, Canada",
    "avatar": false,
    "banner": false,
    "city": "L'Assomption",
    "lat": 45.82709910000001,
    "lng": -73.4246637,
    "name": "Microbrasserie Le Fermentor",
    "postal": "J5W 1S4",
    "rating": 4.6,
    "ratings": 281,
    "status": "CLOSED_TEMPORARILY",
    "tel": "(450) 705-4020",
    "website": "http://www.lefermentor.com/"
  },
  {
    "address": "328 Rue Scott, La Tuque, QC G9X 1P3, Canada",
    "avatar": false,
    "banner": false,
    "city": "La Tuque",
    "lat": 47.4383364,
    "lng": -72.7832062,
    "name": "Microbrasserie Le Mouton Noir",
    "postal": "G9X 1P3",
    "rating": 4.7,
    "ratings": 25,
    "status": "OPERATIONAL",
    "tel": "(819) 680-0819",
    "website": "http://www.microbrasserielemoutonnoir.com/"
  },
  {
    "address": "585 3e Avenue, Val-d'Or, QC J9P 1S6, Canada",
    "avatar": false,
    "banner": false,
    "city": "Val-d'Or",
    "lat": 48.100793,
    "lng": -77.7829754,
    "name": "Microbrasserie Le Prospecteur",
    "postal": "J9P 1S6",
    "rating": 4.6,
    "ratings": 571,
    "status": "OPERATIONAL",
    "tel": "(819) 874-3377",
    "website": "http://www.microleprospecteur.ca/"
  },
  {
    "address": "253-A, rue du Saguenay, √†, Saint-Fulgence, QC G0V 1S0, Canada",
    "avatar": false,
    "banner": false,
    "city": "Saint-Fulgence",
    "lat": 48.450169,
    "lng": -70.90256610000002,
    "name": "Microbrasserie Le Saint-F√ªt",
    "postal": "G0V 1S0",
    "rating": 4.8,
    "ratings": 6,
    "status": "OPERATIONAL",
    "tel": "(581) 574-4004",
    "website": "https://www.facebook.com/lesaintfut/"
  },
  {
    "address": "839 Chemin Principal, Saint-Joseph-du-Lac, QC J0N 1M0, Canada",
    "avatar": false,
    "banner": false,
    "city": "Saint-Joseph-du-Lac",
    "lat": 45.5292586,
    "lng": -73.99888849999999,
    "name": "Vignoble & Microbrasserie Les Vents d'Ange",
    "postal": "J0N 1M0",
    "rating": 4.3,
    "ratings": 36,
    "status": "OPERATIONAL",
    "tel": "(450) 623-4894",
    "website": "http://www.vignobleventsdange.com/"
  },
  {
    "address": "5 Rue Victoria E, Salaberry-de-Valleyfield, QC J6T 2L1, Canada",
    "avatar": false,
    "banner": false,
    "city": "Salaberry-de-Valleyfield",
    "lat": 45.2576696,
    "lng": -74.11674599999999,
    "name": "Microbrasserie Malt√©us",
    "postal": "J6T 2L1",
    "rating": 4.6,
    "ratings": 178,
    "status": "OPERATIONAL",
    "tel": "(450) 747-0315",
    "website": "http://www.mbmalteus.com/"
  },
  {
    "address": "90 Rang de la Rivi√®re-aux-√âcorces, Saint-Alexis-des-Monts, QC J0K 1V0, Canada",
    "avatar": false,
    "banner": false,
    "city": "Saint-Alexis-des-Monts",
    "lat": 46.4508412,
    "lng": -73.1492042,
    "name": "Microbrasserie Nouvelle France",
    "postal": "J0K 1V0",
    "rating": 4.4,
    "ratings": 613,
    "status": "OPERATIONAL",
    "tel": "(819) 265-4000",
    "website": "http://www.lesbieresnouvellefrance.com/"
  },
  {
    "address": "951 Rue Rachel E, Montr√©al, QC H2J 2J4, Canada",
    "avatar": false,
    "banner": false,
    "city": "Montr√©al",
    "lat": 45.5250014,
    "lng": -73.5753993,
    "name": "Microbrasserie Pit Caribou",
    "postal": "H2J 2J4",
    "rating": 4.6,
    "ratings": 1579,
    "status": "CLOSED_TEMPORARILY",
    "tel": null,
    "website": "https://www.facebook.com/pubpitcaribou.montreal/"
  },
  {
    "address": "3130a Boulevard des Entreprises, Terrebonne, QC J6X 4J8, Canada",
    "avatar": false,
    "banner": false,
    "city": "Terrebonne",
    "lat": 45.7251501,
    "lng": -73.6991273,
    "name": "Microbrasserie Ruisseau Noir",
    "postal": "J6X 4J8",
    "rating": 4.6,
    "ratings": 98,
    "status": "OPERATIONAL",
    "tel": "(450) 477-2391",
    "website": "http://www.microruisseaunoir.com/"
  },
  {
    "address": "435 Rue des Pionniers, Mont-Tremblant, QC J8E 2S1, Canada",
    "avatar": false,
    "banner": false,
    "city": "Mont-Tremblant",
    "lat": 46.1180716,
    "lng": -74.5721962,
    "name": "Microbrasserie St-Arnould",
    "postal": "J8E 2S1",
    "rating": 4.1,
    "ratings": 231,
    "status": "OPERATIONAL",
    "tel": "(819) 425-1262",
    "website": "http://www.saintarnould.com/"
  },
  {
    "address": "683 Rue de l'H√¥tel-de-Ville, Saint-Honor√©, QC G0V 1L0, Canada",
    "avatar": false,
    "banner": false,
    "city": "Saint-Honor√©",
    "lat": 48.5338889,
    "lng": -71.0869445,
    "name": "Pub Le Laser - Microbrasserie Saint-Honor√©",
    "postal": "G0V 1L0",
    "rating": 4.5,
    "ratings": 100,
    "status": "CLOSED_TEMPORARILY",
    "tel": "(418) 673-3171",
    "website": "http://microstho.com/"
  },
  {
    "address": "5101 Boul St-Laurent, Montr√©al, QC H2T 1R9, Canada",
    "avatar": false,
    "banner": false,
    "city": "Montr√©al",
    "lat": 45.5231766,
    "lng": -73.5927878,
    "name": "Siboire Brewpub",
    "postal": "H2T 1R9",
    "rating": 4.4,
    "ratings": 2308,
    "status": "OPERATIONAL",
    "tel": "(514) 379-3633",
    "website": "https://siboire.ca/saint-laurent/"
  },
  {
    "address": "55 Place la Salle, Baie-Comeau, QC G4Z 1J8, Canada",
    "avatar": false,
    "banner": false,
    "city": "Baie-Comeau",
    "lat": 49.2212257,
    "lng": -68.1529999,
    "name": "Microbrasserie St-Pancrace",
    "postal": "G4Z 1J8",
    "rating": 4.8,
    "ratings": 136,
    "status": "OPERATIONAL",
    "tel": "(418) 296-0099",
    "website": "https://stpancrace.com/"
  },
  {
    "address": "145 Rue du Bord de l'Eau, Tadoussac, QC G0T 2A0, Canada",
    "avatar": false,
    "banner": false,
    "city": "Tadoussac",
    "lat": 48.1399272,
    "lng": -69.7176906,
    "name": "Microbrasserie Tadoussac",
    "postal": "G0T 2A0",
    "rating": 4.7,
    "ratings": 530,
    "status": "OPERATIONAL",
    "tel": "(418) 980-4900",
    "website": "http://microtadoussac.com/"
  },
  {
    "address": "434 Rue Aim√©-Vincent, Vaudreuil-Dorion, QC J7V 5V5, Canada",
    "avatar": false,
    "banner": false,
    "city": "Vaudreuil-Dorion",
    "lat": 45.40412999999999,
    "lng": -74.05172519999999,
    "name": "Microbrasserie Trois-Lacs",
    "postal": "J7V 5V5",
    "rating": 4.8,
    "ratings": 50,
    "status": "OPERATIONAL",
    "tel": "(514) 316-8487",
    "website": "https://www.3lacs.com/"
  },
  {
    "address": "670 Rue Notre Dame, Saint-Tite, QC G0X 3H0, Canada",
    "avatar": true,
    "banner": true,
    "city": "Saint-Tite",
    "description": "100% f√∫tbol femenino: informaci√≥n y actualidad sobre la Liga Iberdrola y competiciones internacionales. Cuenta asociada a @SpheraSports. Gestiona @david_lrl.",
    "lat": 46.725337,
    "lng": -72.563644,
    "name": "√Ä la F√ªt",
    "postal": "G0X 3H0",
    "rating": 4.7,
    "ratings": 933,
    "status": "OPERATIONAL",
    "tel": "(418) 365-4370",
    "twitter": "FutFemSphera",
    "website": "http://www.alafut.qc.ca/"
  },
  {
    "address": "1750 Rue Marie-Victorin, Saint-Bruno-de-Montarville, QC J3V 6B9, Canada",
    "avatar": false,
    "banner": false,
    "city": "Saint-Bruno-de-Montarville",
    "lat": 45.515728,
    "lng": -73.360525,
    "name": "MonsRegius bi√®res artisanales",
    "postal": "J3V 6B9",
    "rating": 5,
    "ratings": 19,
    "status": "OPERATIONAL",
    "tel": "(514) 241-6844",
    "website": "http://monsregius.ca/"
  },
  {
    "address": "294 Boulevard St Luc, Asbestos, QC J1T 2W1, Canada",
    "avatar": false,
    "banner": false,
    "city": "Asbestos",
    "lat": 45.7751631,
    "lng": -71.93769929999999,
    "name": "Microbrasserie Moulin 7",
    "postal": "J1T 2W1",
    "rating": 4.6,
    "ratings": 521,
    "status": "OPERATIONAL",
    "tel": "(819) 716-0686",
    "website": "http://www.moulin7.com/"
  },
  {
    "address": "1209 ST-JOSEPH, Tingwick, QC J0A 1L0, Canada",
    "avatar": false,
    "banner": false,
    "city": "Tingwick",
    "lat": 45.8811258,
    "lng": -71.9435726,
    "name": "Micro Brasserie Multi-Brasses",
    "postal": "J0A 1L0",
    "rating": 4.5,
    "ratings": 21,
    "status": "OPERATIONAL",
    "tel": "(819) 359-3887",
    "website": null
  },
  {
    "address": "438 Rue du Parvis, Qu√©bec, QC G1K 6H8, Canada",
    "avatar": false,
    "banner": false,
    "city": "Qu√©bec",
    "lat": 46.8140365,
    "lng": -71.22335269999999,
    "name": "Noctem Artisans Brasseurs",
    "postal": "G1K 6H8",
    "rating": 4.5,
    "ratings": 1755,
    "status": "OPERATIONAL",
    "tel": "(581) 742-7979",
    "website": "http://www.noctem.ca/"
  },
  {
    "address": "1095 Rue Vincent-Massey Suite 8, Quebec City, QC G1N 1N2, Canada",
    "avatar": false,
    "banner": false,
    "city": "Quebec City",
    "lat": 46.804314,
    "lng": -71.25423959999999,
    "name": "Noctem Artisans Brasseurs - Brasserie St-Malo",
    "postal": "G1N 1N2",
    "rating": 4.9,
    "ratings": 122,
    "status": "OPERATIONAL",
    "tel": "(418) 704-2428",
    "website": "http://www.noctem.ca/"
  },
  {
    "address": "196 Rue Saint-Eustache, Saint-Eustache, QC J7R 2L7, Canada",
    "avatar": false,
    "banner": false,
    "city": "Saint-Eustache",
    "lat": 45.5581722,
    "lng": -73.8942443,
    "name": "Restaurant Microbrasserie Noire et Blanche",
    "postal": "J7R 2L7",
    "rating": 4.6,
    "ratings": 1842,
    "status": "OPERATIONAL",
    "tel": "(450) 983-6100",
    "website": "http://noire-et-blanche.ca/"
  },
  {
    "address": "2376 Rue Alexis-le-Trotteur, Jonqui√®re, QC G7X 0J7, Canada",
    "avatar": false,
    "banner": false,
    "city": "Saguenay",
    "lat": 48.4073181,
    "lng": -71.222198,
    "name": "Pie Braque Microbrasserie",
    "postal": "G7X 0J7",
    "rating": 5,
    "ratings": 10,
    "status": "OPERATIONAL",
    "tel": "(418) 818-0735",
    "website": "http://piebraque.com/"
  },
  {
    "address": "250 Rue du Quai, Saint-Jean-Port-Joli, QC G0R 3G0, Canada",
    "avatar": false,
    "banner": false,
    "city": "Saint-Jean-Port-Joli",
    "lat": 47.2148026,
    "lng": -70.2720726,
    "name": "Pub Ras L'Bock",
    "postal": "G0R 3G0",
    "rating": 4.6,
    "ratings": 481,
    "status": "OPERATIONAL",
    "tel": "(418) 371-0998",
    "website": "http://www.raslbock.com/"
  },
  {
    "address": "945 Avenue Sicard, Alma, QC G8B 7R5, Canada",
    "avatar": false,
    "banner": false,
    "city": "Alma",
    "lat": 48.5707499,
    "lng": -71.6508123,
    "name": "Microbrasserie Riverbend",
    "postal": "G8B 7R5",
    "rating": 4.9,
    "ratings": 19,
    "status": "OPERATIONAL",
    "tel": "(418) 758-1519",
    "website": "http://www.microriverbend.com/"
  },
  {
    "address": "6547 Rue Foster, Waterloo, QC J0E 2N0, Canada",
    "avatar": false,
    "banner": false,
    "city": "Waterloo",
    "lat": 45.355455,
    "lng": -72.51424999999999,
    "name": "Robin Bi√®re Naturelle",
    "postal": "J0E 2N0",
    "rating": 4.8,
    "ratings": 57,
    "status": "OPERATIONAL",
    "tel": "(450) 912-1745",
    "website": "http://www.robinbierenaturelle.com/"
  },
  {
    "address": "105 Grande Ligne, St-Raymond, QC G3L 2Y4, Canada",
    "avatar": false,
    "banner": false,
    "city": "St-Raymond",
    "lat": 46.8996838,
    "lng": -71.8151201,
    "name": "H√¥tel Roquemont",
    "postal": "G3L 2Y4",
    "rating": 4.3,
    "ratings": 746,
    "status": "OPERATIONAL",
    "tel": "(418) 337-6734",
    "website": "http://www.roquemont.com/"
  },
  {
    "address": "905 Grand Boulevard O, Saint-Bruno-de-Montarville, QC J3V 6A6, Canada",
    "avatar": true,
    "banner": true,
    "city": "Saint-Bruno-de-Montarville",
    "description": "Vins et bi√®res produits par Thierry Kobloth, √©lev√©s et mis en bouteille √† la propri√©t√©. Nous sommes √† 20 minutes de Montr√©al; venez nous visiter!",
    "lat": 45.4933442,
    "lng": -73.3500165,
    "name": "Microbrasserie Ross Stall",
    "postal": "J3V 6A6",
    "rating": 4.6,
    "ratings": 22,
    "status": "CLOSED_TEMPORARILY",
    "tel": "(450) 441-1020",
    "twitter": "vinskobloth",
    "website": "http://vignoblekobloth.com/"
  },
  {
    "address": "Robert-Bourassa Reservoir, Baie-James, QC J0M, Canada",
    "avatar": false,
    "banner": false,
    "city": null,
    "lat": 53.75,
    "lng": -77,
    "name": "R√©servoir",
    "postal": "J0M",
    "rating": null,
    "ratings": null,
    "status": null,
    "tel": null,
    "website": null
  },
  {
    "address": "1567 Rue Saint-Denis, Montr√©al, QC H2X 3K3, Canada",
    "avatar": false,
    "banner": false,
    "city": "Montr√©al",
    "lat": 45.51474,
    "lng": -73.5622101,
    "name": "Saint-Houblon Quartier Latin",
    "postal": "H2X 3K3",
    "rating": 4.6,
    "ratings": 4765,
    "status": "OPERATIONAL",
    "tel": "(438) 386-7271",
    "website": "http://www.sainthoublon.com/"
  },
  {
    "address": "3023 Boulevard du Cur√© Labelle, Pr√©vost, QC J0R 1T0, Canada",
    "avatar": false,
    "banner": false,
    "city": "Pr√©vost",
    "lat": 45.8727916,
    "lng": -74.0762238,
    "name": "Shawbridge - Microbrasserie & Charcuteries",
    "postal": "J0R 1T0",
    "rating": 4.3,
    "ratings": 417,
    "status": "OPERATIONAL",
    "tel": "(450) 224-1776",
    "website": "http://www.shawbridge.ca/"
  },
  {
    "address": "385 Rue du Parc, Saint-Eustache, QC J7R 0A3, Canada",
    "avatar": true,
    "banner": false,
    "city": "Saint-Eustache",
    "description": "",
    "lat": 45.5665474,
    "lng": -73.9183525,
    "name": "Brasseurs Illimites",
    "postal": "J7R 0A3",
    "rating": 4.9,
    "ratings": 8,
    "status": "OPERATIONAL",
    "tel": "(450) 598-1363",
    "twitter": "brass_illimites",
    "website": "https://www.simplemalt.com/"
  },
  {
    "address": "27 Rue Principale Sud St, Sutton, QC J0E 2K0, Canada",
    "avatar": false,
    "banner": false,
    "city": "Sutton",
    "lat": 45.1053419,
    "lng": -72.6153691,
    "name": "Microbrasserie Auberge Sutton Brou√´rie",
    "postal": "J0E 2K0",
    "rating": 4.4,
    "ratings": 566,
    "status": "OPERATIONAL",
    "tel": "(450) 538-0005",
    "website": "http://www.aubergesuttonbrouerie.com/"
  },
  {
    "address": "1431 Rue Principale, Saint-C√¥me, QC J0K 2B0, Canada",
    "avatar": false,
    "banner": false,
    "city": "Saint-C√¥me",
    "lat": 46.27210280000001,
    "lng": -73.7712944,
    "name": "Tr√©carr√© Microbrasserie",
    "postal": "J0K 2B0",
    "rating": 4.7,
    "ratings": 241,
    "status": "OPERATIONAL",
    "tel": "(450) 883-1431",
    "website": "http://trecarremicrobrasserie.com/"
  },
  {
    "address": "265 QC-132, Saint-Andr√©, QC G0L 2H0, Canada",
    "avatar": false,
    "banner": false,
    "city": "Saint-Andr√©",
    "lat": 47.6462112,
    "lng": -69.7546663,
    "name": "T√™te d'Allumette Microbrasserie",
    "postal": "G0L 2H0",
    "rating": 4.6,
    "ratings": 470,
    "status": "OPERATIONAL",
    "tel": "(418) 493-2222",
    "website": "http://www.tetedallumette.com/"
  },
  {
    "address": "10 Rue Principale Sud St, Sutton, QC J0E 2K0, Canada",
    "avatar": false,
    "banner": false,
    "city": "Sutton",
    "lat": 45.1062538,
    "lng": -72.61502899999999,
    "name": "√Ä L'Abordage Microbrasserie",
    "postal": "J0E 2K0",
    "rating": 4.4,
    "ratings": 732,
    "status": "OPERATIONAL",
    "tel": "(450) 538-8338",
    "website": "http://www.brasseriealabordage.com/"
  },
  {
    "address": "286 Chemin Coulombe, L'√âtang-du-Nord, QC G4T 3V5, Canada",
    "avatar": false,
    "banner": false,
    "city": "L'√âtang-du-Nord",
    "lat": 47.350787,
    "lng": -61.94746,
    "name": "√Ä l'abri de la Temp√™te",
    "postal": "G4T 3V5",
    "rating": 4.7,
    "ratings": 138,
    "status": "OPERATIONAL",
    "tel": "(418) 986-5005",
    "website": "http://alabridelatempete.com/"
  },
  {
    "address": "805 Avenue des N√©nuphars, B√©cancour, QC G9H 2T3, Canada",
    "avatar": false,
    "banner": false,
    "city": "B√©cancour",
    "lat": 46.333475,
    "lng": -72.514274,
    "name": "√î Quai Des Brasseurs",
    "postal": "G9H 2T3",
    "rating": 4.5,
    "ratings": 1100,
    "status": "CLOSED_TEMPORARILY",
    "tel": "(819) 489-8388",
    "website": "http://oquaidesbrasseurs.com/"
  },
  {
    "address": "68 Rue Notre Dame O, Thetford Mines, QC G6G 1J3, Canada",
    "avatar": false,
    "banner": false,
    "city": "Thetford Mines",
    "lat": 46.0899709,
    "lng": -71.3012032,
    "name": "La Porte d'√† C√¥t√© Microbrasserie",
    "postal": "G6G 1J3",
    "rating": 4.3,
    "ratings": 92,
    "status": "OPERATIONAL",
    "tel": "(418) 755-1350",
    "website": "https://www.laportedacote.org/"
  },
  {
    "address": "1485 Rue Ottawa, Montr√©al, QC H3C 1S9, Canada",
    "avatar": true,
    "banner": false,
    "city": "Montr√©al",
    "description": "",
    "lat": 45.4896914,
    "lng": -73.5644677,
    "name": "Brasseur de Montr√©al",
    "postal": "H3C 1S9",
    "rating": 4,
    "ratings": 321,
    "status": "OPERATIONAL",
    "tel": "(514) 788-4500",
    "twitter": "brasseurdemtl",
    "website": "http://www.brasseurdemontreal.ca/"
  },
  {
    "address": "455 Rue Principale, Lachute, QC J8H 1Y4, Canada",
    "avatar": false,
    "banner": false,
    "city": "Lachute",
    "lat": 45.6568191,
    "lng": -74.3364862,
    "name": "Brasserie Sir John Brewing co.",
    "postal": "J8H 1Y4",
    "rating": 4.6,
    "ratings": 98,
    "status": "OPERATIONAL",
    "tel": "(450) 409-1618",
    "website": "https://brasseriesirjohn.com/"
  },
  {
    "address": "954 Boulevard Mgr de Laval, Baie-Saint-Paul, QC G3Z 2W2, Canada",
    "avatar": false,
    "banner": false,
    "city": "Baie-Saint-Paul",
    "lat": 47.4406336,
    "lng": -70.518149,
    "name": "Country club microbrasserie",
    "postal": "G3Z 2W2",
    "rating": 5,
    "ratings": 7,
    "status": "OPERATIONAL",
    "tel": "(581) 237-2676",
    "website": "http://www.lecountryclub.ca/"
  },
  {
    "address": "2255-A2, Rue Dandurand, Montr√©al, QC H2G 1Z3, Canada",
    "avatar": false,
    "banner": false,
    "city": "Montr√©al",
    "lat": 45.5423513,
    "lng": -73.5833826,
    "name": "Beauregard Brasserie Distillerie Inc.",
    "postal": "H2G 1Z3",
    "rating": 4.9,
    "ratings": 15,
    "status": "OPERATIONAL",
    "tel": "(514) 543-7400",
    "website": "https://www.beauregardbrasseriedistillerie.com/"
  },
  {
    "address": "1021 Boulevard du Lac, Lac-Beauport, QC G3B 0X1, Canada",
    "avatar": false,
    "banner": false,
    "city": null,
    "lat": 46.93758390000001,
    "lng": -71.3090584,
    "name": "Archibald Microbrasserie Lac-Beauport",
    "postal": "G3B 0X1",
    "rating": 4.4,
    "ratings": 1435,
    "status": "CLOSED_TEMPORARILY",
    "tel": "(418) 841-2224",
    "website": "http://www.archibaldmicrobrasserie.ca/"
  },
  {
    "address": "1240 Autoroute Duplessis, Qu√©bec, QC G2G 2B5, Canada",
    "avatar": false,
    "banner": false,
    "city": "Qu√©bec",
    "lat": 46.7871562,
    "lng": -71.35364919999999,
    "name": "Archibald Microbrasserie Sainte-Foy",
    "postal": "G2G 2B5",
    "rating": 4.3,
    "ratings": 2567,
    "status": "OPERATIONAL",
    "tel": "(418) 877-0123",
    "website": "http://archibaldmicrobrasserie.ca/"
  },
  {
    "address": "1356 Rue Sainte-Catherine O, Montr√©al, QC H3G 1P6, Canada",
    "avatar": false,
    "banner": false,
    "city": "Montr√©al",
    "lat": 45.4971735,
    "lng": -73.5754537,
    "name": "3 Brasseurs",
    "postal": "H3G 1P6",
    "rating": 4.2,
    "ratings": 3576,
    "status": "OPERATIONAL",
    "tel": "(514) 788-9788",
    "website": "http://www.les3brasseurs.ca/"
  },
  {
    "address": "2450 Boulevard Laurier, Qu√©bec, QC G1V 2L1, Canada",
    "avatar": false,
    "banner": false,
    "city": "Qu√©bec",
    "lat": 46.773001,
    "lng": -71.278967,
    "name": "3 Brasseurs Laurier",
    "postal": "G1V 2L1",
    "rating": 4.2,
    "ratings": 1289,
    "status": "OPERATIONAL",
    "tel": "(418) 914-6515",
    "website": "http://www.les3brasseurs.ca/"
  },
  {
    "address": "2590 Boulevard Laurier, Qu√©bec, QC G1V 4M6, Canada",
    "avatar": true,
    "banner": true,
    "city": "Qu√©bec",
    "description": "La Voie Malt√©e, une micro-brasserie native  du Saguenay, totalement hors du commun. Venez prendre une bi√®re chez-nous!",
    "lat": 46.77150049999999,
    "lng": -71.2809104,
    "name": "La Voie Malt√©e",
    "postal": "G1V 4M6",
    "rating": 4.2,
    "ratings": 619,
    "status": "OPERATIONAL",
    "tel": "(418) 683-5558",
    "twitter": "DanielGiguere",
    "website": "http://www.lavoiemaltee.com/"
  },
  {
    "address": "229 QC-132, Rivi√®re-Ouelle, QC G0L 2C0, Canada",
    "avatar": false,
    "banner": false,
    "city": "Rivi√®re-Ouelle",
    "lat": 47.4541214,
    "lng": -69.99902329999999,
    "name": "La Baleine Endiabl√©e",
    "postal": "G0L 2C0",
    "rating": 4.2,
    "ratings": 205,
    "status": "OPERATIONAL",
    "tel": "(418) 371-0758",
    "website": "https://www.baleineendiablee.com/"
  },
  {
    "address": "8 Rue de la Brasserie, Amos, QC J9T 3A2, Canada",
    "avatar": false,
    "banner": false,
    "city": "Amos",
    "lat": 48.558602,
    "lng": -78.130645,
    "name": "Brasserie Belgh Brasse",
    "postal": "J9T 3A2",
    "rating": 4.9,
    "ratings": 9,
    "status": "CLOSED_PERMANENTLY",
    "tel": "(819) 732-6519",
    "website": "http://www.belghbrasse.com/"
  },
  {
    "address": "1298 QC-148, Campbell's Bay, QC J0X 1K0, Canada",
    "avatar": false,
    "banner": false,
    "city": "Campbell's Bay",
    "lat": 45.7257038,
    "lng": -76.5960818,
    "name": "Brauwerk Hoffman",
    "postal": "J0X 1K0",
    "rating": 4.9,
    "ratings": 16,
    "status": "OPERATIONAL",
    "tel": "(613) 732-0388",
    "website": "http://www.brauwerk-hoffman.ca/"
  },
  {
    "address": "576 Chemin Knowlton, Knowlton, QC J0E 1V0, Canada",
    "avatar": false,
    "banner": false,
    "city": "Knowlton",
    "lat": 45.2124933,
    "lng": -72.53941069999999,
    "name": "La Knowlton Co. - Micro-Brasserie and Pizza",
    "postal": "J0E 1V0",
    "rating": 4.6,
    "ratings": 39,
    "status": "OPERATIONAL",
    "tel": "(450) 243-9001",
    "website": "https://www.facebook.com/laknowltonco/"
  },
  {
    "address": "80 Rue des Carri√®res, Chambly, QC J3L 2H6, Canada",
    "avatar": true,
    "banner": true,
    "city": "Chambly",
    "description": "Fil de nouvelles officiel de la brasserie // Brewery's official news feed. French/English Tweets. #unibroue",
    "lat": 45.4411889,
    "lng": -73.261481,
    "name": "Unibroue",
    "postal": "J3L 2H6",
    "rating": 4.6,
    "ratings": 54,
    "status": "OPERATIONAL",
    "tel": "(514) 634-1834",
    "twitter": "Unibroue",
    "website": "http://www.unibroue.com/"
  },
  {
    "address": "5500 Rue Hochelaga Local 150, Montr√©al, QC H1N 3L7, Canada",
    "avatar": false,
    "banner": false,
    "city": "Montr√©al",
    "lat": 45.5666391,
    "lng": -73.53904899999999,
    "name": "Avant-Garde Artisans Brasseurs",
    "postal": "H1N 3L7",
    "rating": 4.6,
    "ratings": 270,
    "status": "OPERATIONAL",
    "tel": null,
    "website": "https://brasseursavantgarde.com/"
  },
  {
    "address": "√âdifice La Fabrique, Boulevard Charest E, Quebec City, QC G1K 3G8, Canada",
    "avatar": false,
    "banner": false,
    "city": "Quebec City",
    "lat": 46.8127469,
    "lng": -71.2261001,
    "name": "La Fabrique",
    "postal": "G1K 3G8",
    "rating": 4.5,
    "ratings": 2,
    "status": "OPERATIONAL",
    "tel": null,
    "website": "http://www.design.ulaval.ca/"
  },
  {
    "address": "24-1750 Rue du P√©rigord, Qu√©bec, QC G1G 6N1, Canada",
    "avatar": false,
    "banner": false,
    "city": "Qu√©bec",
    "lat": 46.8670145,
    "lng": -71.2919521,
    "name": "Brasserie Maltco",
    "postal": "G1G 6N1",
    "rating": 5,
    "ratings": 4,
    "status": "OPERATIONAL",
    "tel": "(418) 688-3363",
    "website": "https://www.brasseriemaltco.com/"
  },
  {
    "address": "2233 Rue Pitt, Montr√©al, QC H4E 4H2, Canada",
    "avatar": true,
    "banner": true,
    "city": "Montr√©al",
    "description": "Messorem Bracitorium is a new craft brewery by the Lachine canal in the south-west of Montreal, Quebec, Canada.",
    "lat": 45.469784,
    "lng": -73.581149,
    "name": "Messorem Bracitorium",
    "postal": "H4E 4H2",
    "rating": 4.8,
    "ratings": 278,
    "status": "OPERATIONAL",
    "tel": "(438) 375-3776",
    "twitter": "MessoremB",
    "website": "http://messorem.co/"
  },
  {
    "address": "1015 Rue Jacques-Cartier, Gatineau, QC J8T 2W3, Canada",
    "avatar": false,
    "banner": false,
    "city": "Gatineau",
    "lat": 45.4562953,
    "lng": -75.6916072,
    "name": "√Ä La D√©rive brasserie artisanale",
    "postal": "J8T 2W3",
    "rating": 4.7,
    "ratings": 78,
    "status": "OPERATIONAL",
    "tel": "(819) 568-7666",
    "website": "https://aladerivebrasserieartisanale.ca/"
  },
  {
    "address": "109 Rue de Louvain O, Montr√©al, QC H2N 1A4, Canada",
    "avatar": false,
    "banner": false,
    "city": "Montr√©al",
    "lat": 45.5431179,
    "lng": -73.6564923,
    "name": "Brasserie Silo",
    "postal": "H2N 1A4",
    "rating": 4.8,
    "ratings": 13,
    "status": "OPERATIONAL",
    "tel": "(514) 382-2360",
    "website": "https://www.facebook.com/bieresilo/"
  },
  {
    "address": "412 Avenue Willow, Shawinigan, QC G9N 1X2, Canada",
    "avatar": true,
    "banner": false,
    "city": "Shawinigan",
    "description": "Chez nous, on √©l√®ve la bi√®re, on cultive la levure et on produit de la culture.",
    "lat": 46.5402085,
    "lng": -72.7534451,
    "name": "Le Trou du diable - Broue Pub et Restaurant",
    "postal": "G9N 1X2",
    "rating": 4.6,
    "ratings": 689,
    "status": "OPERATIONAL",
    "tel": "(819) 537-9151",
    "twitter": "troududiable",
    "website": "https://troududiable.com/"
  }
]