[
  {
    "address": "255 2 Ave S, Saskatoon, SK S7K 1K8, Canada",
    "avatar": true,
    "banner": false,
    "city": "Saskatoon",
    "description": "",
    "lat": 52.12630679999999,
    "lng": -106.6656774,
    "name": "Shelter Brewing Company",
    "postal": "S7K 1K8",
    "rating": 4.8,
    "ratings": 103,
    "status": "OPERATIONAL",
    "tel": "(306) 979-9249",
    "twitter": "shelterbrewSK",
    "website": "http://www.shelterbrewing.ca/"
  },
  {
    "address": "229 20th St W, Saskatoon, SK S7M 0W8, Canada",
    "avatar": true,
    "banner": true,
    "city": "Saskatoon",
    "description": "Your neighbourhood nanobrewery. Located in the heart of Riversdale. Pickup and delivery only. Tu-Sa 2-8. for orders, hit up https://t.co/dZNXp64BDJ",
    "lat": 52.125988,
    "lng": -106.672841,
    "name": "9 Mile Legacy Brewing",
    "postal": "S7M 0W8",
    "rating": 4.7,
    "ratings": 162,
    "status": "OPERATIONAL",
    "tel": "(306) 373-2337",
    "twitter": "9MileLegacy",
    "website": "http://www.9milelegacy.com/"
  },
  {
    "address": "295 Alexander Dr, Swift Current, SK S9H 3W3, Canada",
    "avatar": false,
    "banner": false,
    "city": "Swift Current",
    "lat": 50.2758815,
    "lng": -107.764281,
    "name": "Black Bridge Brewery Swift Current",
    "postal": "S9H 3W3",
    "rating": 4.7,
    "ratings": 25,
    "status": "OPERATIONAL",
    "tel": "(306) 773-4404",
    "website": "http://www.blackbridgebrewery.ca/"
  },
  {
    "address": "480 McCarthy Blvd, Regina, SK S4R 7M2, Canada",
    "avatar": true,
    "banner": true,
    "city": "Regina",
    "description": "Alberta craft brewery and restaurant group founded in 1989. 2 breweries and 11 restaurant locations across Alberta, Canada. #InBeerWeTrust",
    "lat": 50.4824706,
    "lng": -104.6644216,
    "name": "Brewsters Craft Brewery & Restaurant",
    "postal": "S4R 7M2",
    "rating": 4.1,
    "ratings": 426,
    "status": "OPERATIONAL",
    "tel": "(306) 522-2739",
    "twitter": "WeAreBrewsters",
    "website": "https://brewsterscraftbrewery.ca/"
  },
  {
    "address": "2415 22 St W, Saskatoon, SK S7M 0V6, Canada",
    "avatar": true,
    "banner": true,
    "city": "Saskatoon",
    "description": "",
    "lat": 52.1290612,
    "lng": -106.7084146,
    "name": "Bridges Ale House & Eatery",
    "postal": "S7M 0V6",
    "rating": 3.9,
    "ratings": 480,
    "status": "OPERATIONAL",
    "tel": "(306) 382-6060",
    "twitter": "BridgesAleHouse",
    "website": "https://m.facebook.com/pages/biz/chicken_restaurant/Bridges-Ale-House-and-Eatery-234928323308314/"
  },
  {
    "address": "2206 Dewdney Ave, Regina, SK S4R 1H3, Canada",
    "avatar": false,
    "banner": false,
    "city": "Regina",
    "lat": 50.45526900000001,
    "lng": -104.612581,
    "name": "Bushwakker Brewing",
    "postal": "S4R 1H3",
    "rating": 4.6,
    "ratings": 1314,
    "status": "OPERATIONAL",
    "tel": "(306) 359-7276",
    "website": "http://www.bushwakker.com/"
  },
  {
    "address": "839 51st St, Saskatoon, SK S7K 5C6, Canada",
    "avatar": false,
    "banner": false,
    "city": "Saskatoon",
    "lat": 52.1726731,
    "lng": -106.6468781,
    "name": "Churchill Brewing",
    "postal": "S7K 5C6",
    "rating": 4.2,
    "ratings": 6,
    "status": "OPERATIONAL",
    "tel": "(306) 974-0759",
    "website": "http://www.churchillbrewing.com/"
  },
  {
    "address": "3030 Diefenbaker Dr, Saskatoon, SK S7L 7K2, Canada",
    "avatar": true,
    "banner": true,
    "city": "Saskatoon",
    "description": "",
    "lat": 52.131172,
    "lng": -106.727419,
    "name": "Clark's Crossing Brew Pub",
    "postal": "S7L 7K2",
    "rating": 4,
    "ratings": 376,
    "status": "OPERATIONAL",
    "tel": "(306) 384-6633",
    "twitter": "ClarksBrewPub",
    "website": "http://www.clarkscrossing.com/"
  },
  {
    "address": "3215 Eastgate Dr, Regina, SK S4Z 1A1, Canada",
    "avatar": false,
    "banner": false,
    "city": "Regina",
    "lat": 50.44823299999999,
    "lng": -104.536173,
    "name": "Creekside Pub & Brewery",
    "postal": "S4Z 1A1",
    "rating": 4.4,
    "ratings": 390,
    "status": "OPERATIONAL",
    "tel": "(306) 721-2739",
    "website": "http://www.creeksidebrewpub.com/"
  },
  {
    "address": "20-7 Assiniboine Dr, Saskatoon, SK S7K 1H1, Canada",
    "avatar": false,
    "banner": false,
    "city": "Saskatoon",
    "lat": 52.1597333,
    "lng": -106.6456222,
    "name": "Fox & Hounds Pub & Brewery",
    "postal": "S7K 1H1",
    "rating": 4,
    "ratings": 179,
    "status": "OPERATIONAL",
    "tel": "(306) 664-2233",
    "website": "http://www.foxandhoundspub.ca/"
  },
  {
    "address": "519 2nd Ave N, Saskatoon, SK S7K 2C6, Canada",
    "avatar": false,
    "banner": false,
    "city": "Saskatoon",
    "lat": 52.1360525,
    "lng": -106.6606166,
    "name": "Great Western Brewing Company",
    "postal": "S7K 2C6",
    "rating": 4.6,
    "ratings": 29,
    "status": "OPERATIONAL",
    "tel": "(306) 653-4653",
    "website": "http://www.gwbc.ca/"
  },
  {
    "address": "612 11th St E, Saskatoon, SK S7N 0G3, Canada",
    "avatar": true,
    "banner": true,
    "city": "Saskatoon",
    "description": "The number 1 Fire Hall themed bar in Saskatoon, Saskatchewan.",
    "lat": 52.1186764,
    "lng": -106.6557694,
    "name": "The Hose and Hydrant Brew Pub",
    "postal": "S7N 0G3",
    "rating": 4,
    "ratings": 539,
    "status": "OPERATIONAL",
    "tel": "(306) 477-3473",
    "twitter": "HoseBrewPub",
    "website": "http://www.hoseandhydrant.com/"
  },
  {
    "address": "243 21st St E, Saskatoon, SK S7K 0B7, Canada",
    "avatar": false,
    "banner": false,
    "city": "Saskatoon",
    "lat": 52.1264399,
    "lng": -106.6614929,
    "name": "21st Street Brewery",
    "postal": "S7K 0B7",
    "rating": 5,
    "ratings": 5,
    "status": "OPERATIONAL",
    "tel": "(306) 227-9908",
    "website": "http://www.21ststreetbrewery.ca/"
  },
  {
    "address": "116 103 St E, Saskatoon, SK S7N 1Y7, Canada",
    "avatar": true,
    "banner": false,
    "city": "Saskatoon",
    "description": "Paddock Wood Brewing Co. Representative, sharing great Craft beer!! Be prepared to enlighten your palate!!! We don't make light beer!",
    "lat": 52.130768,
    "lng": -106.5976481,
    "name": "Paddock Wood Brewing Co.",
    "postal": "S7N 1Y7",
    "rating": 4.7,
    "ratings": 53,
    "status": "OPERATIONAL",
    "tel": "(306) 477-5632",
    "twitter": "r_paddockwood",
    "website": "http://www.paddockwood.com/"
  },
  {
    "address": "1808 Cameron St, Regina, SK S4T 7R7, Canada",
    "avatar": true,
    "banner": true,
    "city": "Regina",
    "description": "Original supporters group of CanPL in #YQR. We don't know for sure if Regina will have a #CanPL team. But if it does, we will be ready.",
    "lat": 50.4495253,
    "lng": -104.6256328,
    "name": "Pile O' Bones Brewing Company",
    "postal": "S4T 7R7",
    "rating": 4.8,
    "ratings": 40,
    "status": "OPERATIONAL",
    "tel": "(306) 546-2337",
    "twitter": "POB_SG",
    "website": "http://www.pileobonesbrewing.com/"
  },
  {
    "address": "650 Broadway Ave, Saskatoon, SK S7N 1A9, Canada",
    "avatar": true,
    "banner": false,
    "city": "Saskatoon",
    "description": "locally focused, Saskatoon brewery that handpicks all its ingredients to produce the best small-batch brews in the world-innovative beers with distinct flavor",
    "lat": 52.11898739999999,
    "lng": -106.6571444,
    "name": "Prairie Sun Brewery",
    "postal": "S7N 1A9",
    "rating": 4.4,
    "ratings": 192,
    "status": "OPERATIONAL",
    "tel": "(306) 343-7000",
    "twitter": "PrairieSunBeer",
    "website": "http://www.prairiesun.ca/"
  },
  {
    "address": "1425 6 Ave E, Prince Albert, SK S6V 1H7, Canada",
    "avatar": false,
    "banner": false,
    "city": "Prince Albert",
    "lat": 53.2000669,
    "lng": -105.7379909,
    "name": "Prince Albert Brewing Company Inc",
    "postal": "S6V 1H7",
    "rating": 3.7,
    "ratings": 113,
    "status": "OPERATIONAL",
    "tel": "(306) 763-6222",
    "website": null
  },
  {
    "address": "1901 Dewdney Ave, Regina, SK S4R 8R2, Canada",
    "avatar": true,
    "banner": false,
    "city": "Regina",
    "description": "Be A Rebel - Drink Great Beer",
    "lat": 50.4548526,
    "lng": -104.6083614,
    "name": "Rebellion Brewing",
    "postal": "S4R 8R2",
    "rating": 4.7,
    "ratings": 155,
    "status": "OPERATIONAL",
    "tel": "(306) 522-4666",
    "twitter": "RebBrewRegina",
    "website": "http://rebellionbrewing.ca/"
  },
  {
    "address": "610 2nd Ave N, Saskatoon, SK S7K 2C8, Canada",
    "avatar": true,
    "banner": false,
    "city": "Saskatoon",
    "description": "locally focused, Saskatoon brewery that handpicks all its ingredients to produce the best small-batch brews in the world-innovative beers with distinct flavor",
    "lat": 52.1370472,
    "lng": -106.659101,
    "name": "Saskatoon Brewery",
    "postal": "S7K 2C8",
    "rating": 4,
    "ratings": 9,
    "status": "OPERATIONAL",
    "tel": "(306) 664-2337",
    "twitter": "PrairieSunBeer",
    "website": "http://saskatoonbrewery.com/"
  },
  {
    "address": "2124 Albert St, Regina, SK S4P 2T9, Canada",
    "avatar": false,
    "banner": false,
    "city": "Regina",
    "lat": 50.4446985,
    "lng": -104.6186399,
    "name": "Slow Food Pub",
    "postal": "S4P 2T9",
    "rating": 3.8,
    "ratings": 84,
    "status": "OPERATIONAL",
    "tel": "(306) 751-0000",
    "website": "https://sperlingsilver.com/"
  },
  {
    "address": "69 Broadway St W, Yorkton, SK S3N 0L6, Canada",
    "avatar": false,
    "banner": false,
    "city": "Yorkton",
    "lat": 51.2105918,
    "lng": -102.4677067,
    "name": "Tapps Brewing Co Ltd",
    "postal": "S3N 0L6",
    "rating": 4.2,
    "ratings": 38,
    "status": "OPERATIONAL",
    "tel": "(306) 783-2522",
    "website": "https://www.tappsbrewingco.com/"
  },
  {
    "address": "444 McLeod St unit c, Regina, SK S4N 4Y1, Canada",
    "avatar": true,
    "banner": true,
    "city": "Regina",
    "description": "",
    "lat": 50.4714576,
    "lng": -104.5798818,
    "name": "Minhas Sask Distillery, Winery and Brewery",
    "postal": "S4N 4Y1",
    "rating": 3.1,
    "ratings": 125,
    "status": "OPERATIONAL",
    "tel": "(306) 352-2244",
    "twitter": "MinhasSask",
    "website": "https://www.minhassask.ca/"
  },
  {
    "address": "444 McLeod St unit c, Regina, SK S4N 4Y1, Canada",
    "avatar": false,
    "banner": false,
    "city": "Regina",
    "lat": 50.4714576,
    "lng": -104.5798818,
    "name": "Minhas Sask Distillery, Winery & Brewery",
    "postal": "S4N 4Y1",
    "rating": 3.1,
    "ratings": 125,
    "status": "OPERATIONAL",
    "tel": "(306) 352-2244",
    "website": "https://www.minhassask.ca/"
  },
  {
    "address": "1905 Quebec Ave, Saskatoon, SK S7K 1W3, Canada",
    "avatar": true,
    "banner": false,
    "city": "Saskatoon",
    "description": "A small microbrewery that is big on flavour! Flights, pints, and fills are available in our beautiful taproom.",
    "lat": 52.1556666,
    "lng": -106.6635962,
    "name": "High Key Brewing Co",
    "postal": "S7K 1W3",
    "rating": 4.7,
    "ratings": 192,
    "status": "OPERATIONAL",
    "tel": "(306) 244-2422",
    "twitter": "hkbrewco",
    "website": "http://www.hkbrew.ca/"
  },
  {
    "address": "712 102 St, North Battleford, SK S9A 1E3, Canada",
    "avatar": false,
    "banner": false,
    "city": "North Battleford",
    "lat": 52.7675259,
    "lng": -108.295812,
    "name": "Armoury Brewing Co.",
    "postal": "S9A 1E3",
    "rating": 4.7,
    "ratings": 43,
    "status": "OPERATIONAL",
    "tel": null,
    "website": null
  },
  {
    "address": "301 1st Ave E, Nokomis, SK S0G 3R0, Canada",
    "avatar": true,
    "banner": true,
    "city": "Nokomis",
    "description": "small batch brewed in Nokomis, Saskatchewan",
    "lat": 51.505458,
    "lng": -105.005644,
    "name": "Nokomis Craft Ales",
    "postal": "S0G 3R0",
    "rating": 5,
    "ratings": 29,
    "status": "OPERATIONAL",
    "tel": "(306) 528-9910",
    "twitter": "nokomisbeer",
    "website": "http://www.nokomiscraftales.com/"
  },
  {
    "address": "102-1377 Hamilton St, Regina, SK S4R 2B6, Canada",
    "avatar": true,
    "banner": true,
    "city": "Regina",
    "description": "Now open in the historic Weston‚Äôs Bread factory üçª Located at 1377 Hamilton Streetüìç",
    "lat": 50.45754710000001,
    "lng": -104.6092905,
    "name": "Warehouse Brewing",
    "postal": "S4R 2B6",
    "rating": 5,
    "ratings": 7,
    "status": "OPERATIONAL",
    "tel": "(306) 584-2739",
    "twitter": "Warehouse_beer",
    "website": "https://warehousebrewingcompany.com/"
  },
  {
    "address": "54 Darlington St W, Yorkton, SK S3N 3S3, Canada",
    "avatar": true,
    "banner": true,
    "city": "Yorkton",
    "description": "54 Darlington Street W. Yorkton, Saskatchewan 306-783-4040 Wed. to Fri. 4:00 - 10:00pm Saturday Noon - 10:00pm Off Sales available",
    "lat": 51.2163906,
    "lng": -102.4663044,
    "name": "Back Forty Brewery",
    "postal": "S3N 3S3",
    "rating": 4.7,
    "ratings": 36,
    "status": "OPERATIONAL",
    "tel": "(306) 783-4040",
    "twitter": "FortyBack",
    "website": "http://www.backfortybrewery.ca/"
  }
]